title,url,lng,lat
早大通りの「麺割烹 九心」が1周年　「日本料理の技法を生かしたラーメンを」,https://takadanobaba.keizai.biz/mapnews/1000/,139.725188,35.7078531
西早稲田にスウェーデンスタイルのカフェ「LYCKAN COFFEE」、「フィーカ」文化を街に,https://takadanobaba.keizai.biz/headline/997/,139.7119735,35.7106024
高田馬場に油そば専門店「きりん寺」　関東初出店、早大近くが決め手,https://takadanobaba.keizai.biz/headline/996/,139.7073923,35.7118872
早大近くの軽食店「メルシー」のラーメンが通販開始　「東京ラーメンのお土産に」,https://takadanobaba.keizai.biz/headline/993/,139.720549,35.7065188
高田馬場のグルメバーガー専門店「homeys」が10周年　「さらにおいしいものを」,https://takadanobaba.keizai.biz/headline/987/,139.7078411,35.7121303
