---
- :id: 433
  :src: https://chichibu.keizai.biz/mapnews/433
  :lat: 36.0315095
  :lng: 139.0743522
  :link: https://chichibu.keizai.biz/headline/433/
  :date: 2023.03.02
  :image: https://images.keizai.biz/chichibu_keizai/headline/1677735756_photo.jpg
  :title: 秩父「中蒔田 富田農園」が60周年　記念イベントで秩父屋台囃子も
- :id: 432
  :src: https://chichibu.keizai.biz/mapnews/432
  :lat: 35.9988245
  :lng: 139.0794146
  :link: https://chichibu.keizai.biz/headline/432/
  :date: 2023.02.27
  :image: https://images.keizai.biz/chichibu_keizai/headline/1677468342_photo.jpg
  :title: "「秩父ウイスキー祭」が10周年　3年ぶりの開催に愛好家2500人"
- :id: 431
  :src: https://chichibu.keizai.biz/mapnews/431
  :lat: 36.05124989999999
  :lng: 138.8736883
  :link: https://chichibu.keizai.biz/headline/431/
  :date: 2023.02.25
  :image: https://images.keizai.biz/chichibu_keizai/headline/1677283144_photo.jpg
  :title: 小鹿野町・尾ノ内氷柱でパフォーマンス　地元に伝わる龍の伝説から着想
- :id: 430
  :src: https://chichibu.keizai.biz/mapnews/430
  :lat: 36.008848
  :lng: 139.083616
  :link: https://chichibu.keizai.biz/headline/430/
  :date: 2023.02.24
  :image: https://images.keizai.biz/chichibu_keizai/headline/1677219269_photo.jpg
  :title: 秩父に「フォトスタジオ and カフェ ミステル」　築120年の蔵を利活用
- :id: 429
  :src: https://chichibu.keizai.biz/mapnews/429
  :lat: 36.0621154
  :lng: 139.1011534
  :link: https://chichibu.keizai.biz/headline/429/
  :date: 2023.02.24
  :image: https://images.keizai.biz/chichibu_keizai/headline/1677208510_photo.jpg
  :title: 皆野町「Mahora稲穂山」で秩父銘仙の文化を伝える展示　桑から衣まで
- :id: 428
  :src: https://chichibu.keizai.biz/mapnews/428
  :lat: 35.987286
  :lng: 139.100051
  :link: https://chichibu.keizai.biz/headline/428/
  :date: 2023.02.20
  :image: https://images.keizai.biz/chichibu_keizai/headline/1676882110_photo.jpg
  :title: 横瀬町が「ふるさとづくり大賞」で「よこらぼ」が評価され優秀賞受賞
- :id: 427
  :src: https://chichibu.keizai.biz/mapnews/427
  :lat: 36.0644106
  :lng: 139.183843
  :link: https://chichibu.keizai.biz/headline/427/
  :date: 2023.02.20
  :image: https://images.keizai.biz/chichibu_keizai/headline/1676715728_photo.jpg
  :title: 東秩父村に古物再生店　家族で移住し築150年の古民家で開業
- :id: 426
  :src: https://chichibu.keizai.biz/mapnews/426
  :lat: 36.0060586
  :lng: 139.0624752
  :link: https://chichibu.keizai.biz/headline/426/
  :date: 2023.02.18
  :image: https://images.keizai.biz/chichibu_keizai/headline/1676701070_photo.jpg
  :title: 誰でも弾ける「寺ピアノ」　秩父札所23番・音楽寺でお披露目
- :id: 425
  :src: https://chichibu.keizai.biz/mapnews/425
  :lat: 35.9976189
  :lng: 139.0841388
  :link: https://chichibu.keizai.biz/headline/425/
  :date: 2023.02.17
  :image: https://images.keizai.biz/chichibu_keizai/headline/1676615085_photo.jpg
  :title: 秩父神社の節分追儺祭　親子の鬼も参加
- :id: 424
  :src: https://chichibu.keizai.biz/mapnews/424
  :lat: 36.0009863
  :lng: 139.089636
  :link: https://chichibu.keizai.biz/headline/424/
  :date: 2023.02.15
  :image: https://images.keizai.biz/chichibu_keizai/headline/1676381772_photo.jpg
  :title: 秩父・上宮地町に美容室「Hair Design EQUAL」
- :id: 423
  :src: https://chichibu.keizai.biz/mapnews/423
  :lat: 36.0418851
  :lng: 139.0348837
  :link: https://chichibu.keizai.biz/headline/423/
  :date: 2023.02.13
  :image: https://images.keizai.biz/chichibu_keizai/headline/1676164450_photo.jpg
  :title: 秩父・吉田小の児童が「ミニ龍勢」打ち上げ発表　「龍勢祭」学ぶ授業で
- :id: 422
  :src: https://chichibu.keizai.biz/mapnews/422
  :lat: 35.9917644
  :lng: 139.0854619
  :link: https://chichibu.keizai.biz/headline/422/
  :date: 2023.02.10
  :image: https://images.keizai.biz/chichibu_keizai/headline/1676014802_photo.jpg
  :title: 秩父で「木育おもちゃの広場」ボランティア研修　木のおもちゃで笑顔とにぎわいを
- :id: 421
  :src: https://chichibu.keizai.biz/mapnews/421
  :lat: 35.9975977
  :lng: 139.0846341
  :link: https://chichibu.keizai.biz/headline/421/
  :date: 2023.02.09
  :image: https://images.keizai.biz/chichibu_keizai/headline/1675864899_photo.jpg
  :title: 秩父でナイトウオークイベント「夜さんぽ」　プロジェクションマッピングも
- :id: 420
  :src: https://chichibu.keizai.biz/mapnews/420
  :lat: 36.1156686
  :lng: 139.2196199
  :link: https://chichibu.keizai.biz/headline/420/
  :date: 2023.02.08
  :image: https://images.keizai.biz/chichibu_keizai/headline/1675820088_photo.jpg
  :title: 寄居・川の博物館で冬期企画展「土ウォッチング」　縁の下の力持ちを知ろう
- :id: 419
  :src: https://chichibu.keizai.biz/mapnews/419
  :lat: 35.9962214
  :lng: 139.0829852
  :link: https://chichibu.keizai.biz/headline/419/
  :date: 2023.02.07
  :image: https://images.keizai.biz/chichibu_keizai/headline/1675691114_photo.jpg
  :title: 秩父で楽器作りとライブのコラボ企画　新しい木育の取り組み
- :id: 418
  :src: https://chichibu.keizai.biz/mapnews/418
  :lat: 35.9917644
  :lng: 139.0854619
  :link: https://chichibu.keizai.biz/headline/418/
  :date: 2023.02.06
  :image: https://images.keizai.biz/chichibu_keizai/headline/1675648578_photo.jpg
  :title: ちちぶ雇用活性化協議会が合同就職面接会　企業80社が参加予定
- :id: 417
  :src: https://chichibu.keizai.biz/mapnews/417
  :lat: 35.9988245
  :lng: 139.0794146
  :link: https://chichibu.keizai.biz/headline/417/
  :date: 2023.02.03
  :image: https://images.keizai.biz/chichibu_keizai/headline/1675405957_photo.jpg
  :title: 秩父の特産物を使ったパウンドケーキ販売開始　女子栄養大の学生とコラボ
- :id: 416
  :src: https://chichibu.keizai.biz/mapnews/416
  :lat: 35.9917644
  :lng: 139.0854619
  :link: https://chichibu.keizai.biz/headline/416/
  :date: 2023.02.03
  :image: https://images.keizai.biz/chichibu_keizai/headline/1675352319_photo.jpg
  :title: 動画クリエイター｢プリッとChannel｣、地元・秩父で凱旋ライブ
- :id: 415
  :src: https://chichibu.keizai.biz/mapnews/415
  :lat: 36.0953817
  :lng: 139.1121301
  :link: https://chichibu.keizai.biz/headline/415/
  :date: 2023.02.02
  :image: https://images.keizai.biz/chichibu_keizai/headline/1675260627_photo.jpg
  :title: 長瀞町観光協会がロゴデザイン公募　アウトドアをイメージして呼びかけ
- :id: 414
  :src: https://chichibu.keizai.biz/mapnews/414
  :lat: 36.0704607
  :lng: 139.0983701
  :link: https://chichibu.keizai.biz/headline/414/
  :date: 2023.01.30
  :image: https://images.keizai.biz/chichibu_keizai/headline/1675063843_photo.jpg
  :title: 皆野町でゴスペルコンサート　ワンコインで身近に
- :id: 413
  :src: https://chichibu.keizai.biz/mapnews/413
  :lat: 35.999848
  :lng: 139.085452
  :link: https://chichibu.keizai.biz/headline/413/
  :date: 2023.01.25
  :image: https://images.keizai.biz/chichibu_keizai/headline/1674633208_photo.jpg
  :title: "「イチローズモルト」を使ったチョコレート　秩父のバーがバレンタイン限定商品"
- :id: 412
  :src: https://chichibu.keizai.biz/mapnews/412
  :lat: 35.9958347
  :lng: 139.088744
  :link: https://chichibu.keizai.biz/headline/412/
  :date: 2023.01.24
  :image: https://images.keizai.biz/chichibu_keizai/headline/1674523560_photo.jpg
  :title: 秩父が舞台の「ここさけ」「空青」　ユナイテッド・シネマ ウニクス秩父で上映
- :id: 411
  :src: https://chichibu.keizai.biz/mapnews/411
  :lat: 36.07079239999999
  :lng: 139.0961449
  :link: https://chichibu.keizai.biz/headline/411/
  :date: 2023.01.21
  :image: https://images.keizai.biz/chichibu_keizai/headline/1674280291_photo.jpg
  :title: 皆野町で企画展「皆野の俳句～戦中編～」　太平洋戦争中の俳句の歴史たどる
- :id: 410
  :src: https://chichibu.keizai.biz/mapnews/410
  :lat: 35.9988245
  :lng: 139.0794146
  :link: https://chichibu.keizai.biz/headline/410/
  :date: 2023.01.19
  :image: https://images.keizai.biz/chichibu_keizai/headline/1674114202_photo.jpg
  :title: 秩父農工科学高校と秩父ファンクラブ・カメラ部　秩父で合同写真展
- :id: 409
  :src: https://chichibu.keizai.biz/mapnews/409
  :lat: 36.0948828
  :lng: 139.1141046
  :link: https://chichibu.keizai.biz/headline/409/
  :date: 2023.01.18
  :image: https://images.keizai.biz/chichibu_keizai/headline/1674000607_photo.jpg
  :title: 長瀞のそば店3代目が岩畳通りで自家焙煎コーヒー店　長瀞にコーヒー文化を
- :id: 408
  :src: https://chichibu.keizai.biz/mapnews/408
  :lat: 35.9768036
  :lng: 139.134808
  :link: https://chichibu.keizai.biz/headline/408/
  :date: 2023.01.12
  :image: https://images.keizai.biz/chichibu_keizai/headline/1673425969_photo.jpg
  :title: 横瀬町「あしがくぼの氷柱」公開＆ライトアップ　特急ラビューも臨時停車
- :id: 407
  :src: https://chichibu.keizai.biz/mapnews/407
  :lat: 35.9988245
  :lng: 139.0794146
  :link: https://chichibu.keizai.biz/headline/407/
  :date: 2023.01.11
  :image: https://images.keizai.biz/chichibu_keizai/headline/1673405123_photo.jpg
  :title: 秩父の田口木工がミズナラの原木を使ったスティックで｢埼玉県新商品AWARD｣大賞
- :id: 406
  :src: https://chichibu.keizai.biz/mapnews/406
  :lat: 35.9973548
  :lng: 139.0859053
  :link: https://chichibu.keizai.biz/headline/406/
  :date: 2023.01.06
  :image: https://images.keizai.biz/chichibu_keizai/headline/1672985205_photo.jpg
  :title: 秩父のリラクセーションサロン「サントシャ」が2周年　2号店も
- :id: 405
  :src: https://chichibu.keizai.biz/mapnews/405
  :lat: 35.9975977
  :lng: 139.0846341
  :link: https://chichibu.keizai.biz/headline/405/
  :date: 2022.12.30
  :image: https://images.keizai.biz/chichibu_keizai/headline/1672327517_photo.jpg
  :title: 秩父の人力車「花鳥風月～秩父～」が1周年、旅のコンシェルジュ担う
- :id: 404
  :src: https://chichibu.keizai.biz/mapnews/404
  :lat: 35.9985699
  :lng: 139.031729
  :link: https://chichibu.keizai.biz/headline/404/
  :date: 2022.12.27
  :image: https://images.keizai.biz/chichibu_keizai/headline/1672097831_photo.jpg
  :title: 小鹿野町に地域コミュニティー拠点「長若集学校」　旧長若中学校を再生
- :id: 403
  :src: https://chichibu.keizai.biz/mapnews/403
  :lat: 35.994284
  :lng: 139.0838634
  :link: https://chichibu.keizai.biz/headline/403/
  :date: 2022.12.23
  :image: https://images.keizai.biz/chichibu_keizai/headline/1671776298_photo.jpg
  :title: 秩父の小池煙草店、有形文化財の建物をリニューアルしてカフェへ
- :id: 402
  :src: https://chichibu.keizai.biz/mapnews/402
  :lat: 36.114728
  :lng: 139.1096227
  :link: https://chichibu.keizai.biz/headline/402/
  :date: 2022.12.21
  :image: https://images.keizai.biz/chichibu_keizai/headline/1671545070_photo.jpg
  :title: 長瀞町役場の議場で「議場ウエディング」　愛を誓うカップルを町で祝福
- :id: 401
  :src: https://chichibu.keizai.biz/mapnews/401
  :lat: 36.0453552
  :lng: 139.0333655
  :link: https://chichibu.keizai.biz/headline/401/
  :date: 2022.12.20
  :image: https://images.keizai.biz/chichibu_keizai/headline/1671441493_photo.jpg
  :title: "「秩父吉田の龍勢祭」城峰瑞雲流が矢柄の竹を採取　作業場の完成祝いも"
- :id: 400
  :src: https://chichibu.keizai.biz/mapnews/400
  :lat: 35.9988245
  :lng: 139.0794146
  :link: https://chichibu.keizai.biz/headline/400/
  :date: 2022.12.16
  :image: https://images.keizai.biz/chichibu_keizai/headline/1671111414_photo.jpg
  :title: 秩父経の年間PV1位は半露天風呂付き「一棟貸切宿 teihaku秩父」
- :id: 399
  :src: https://chichibu.keizai.biz/mapnews/399
  :lat: 35.9988245
  :lng: 139.0794146
  :link: https://chichibu.keizai.biz/headline/399/
  :date: 2022.12.15
  :image: https://images.keizai.biz/chichibu_keizai/headline/1671028821_photo.jpg
  :title: 秩父出身シンガー・ソングライター三上隼さんがライブ　「龍勢祭」テーマソングも
- :id: 398
  :src: https://chichibu.keizai.biz/mapnews/398
  :lat: 35.9988245
  :lng: 139.0794146
  :link: https://chichibu.keizai.biz/headline/398/
  :date: 2022.12.09
  :image: https://images.keizai.biz/chichibu_keizai/headline/1670504524_photo.jpg
  :title: ママとベビーのボランティア団体、イベント100回記念でフリーマーケット
- :id: 397
  :src: https://chichibu.keizai.biz/mapnews/397
  :lat: 36.1185244
  :lng: 139.1962432
  :link: https://chichibu.keizai.biz/headline/397/
  :date: 2022.12.08
  :image: https://images.keizai.biz/chichibu_keizai/headline/1670410897_photo.jpg
  :title: 寄居町に伝わる民話を絵本に　寄居町立図書館に民話研究会が寄贈
- :id: 396
  :src: https://chichibu.keizai.biz/mapnews/396
  :lat: 35.9916545
  :lng: 139.0855991
  :link: https://chichibu.keizai.biz/headline/396/
  :date: 2022.12.08
  :image: https://images.keizai.biz/chichibu_keizai/headline/1670410141_photo.jpg
  :title: ちちぶ雇用活性化協議会が合同就職面接会　シニア限定募集14社も
- :id: 395
  :src: https://chichibu.keizai.biz/mapnews/395
  :lat: 35.9986326
  :lng: 139.0328291
  :link: https://chichibu.keizai.biz/headline/395/
  :date: 2022.12.07
  :image: https://images.keizai.biz/chichibu_keizai/headline/1670345111_photo.jpg
  :title: 小鹿野町の洋菓子店「なないろHARUsweets」が2周年
- :id: 394
  :src: https://chichibu.keizai.biz/mapnews/394
  :lat: 35.9975977
  :lng: 139.0846341
  :link: https://chichibu.keizai.biz/headline/394/
  :date: 2022.12.05
  :image: https://images.keizai.biz/chichibu_keizai/headline/1670203507_photo.jpg
  :title: "「秩父夜祭」に延べ28万人超　屋台・笠鉾、3年ぶりに街なかを曳行"
- :id: 393
  :src: https://chichibu.keizai.biz/mapnews/393
  :lat: 35.9873533
  :lng: 139.1005348
  :link: https://chichibu.keizai.biz/headline/393/
  :date: 2022.12.02
  :image: https://images.keizai.biz/chichibu_keizai/headline/1669914627_photo.jpg
  :title: 横瀬町「ヤッホーパン」が2周年　ロゴをあしらった「山バッジ」や「たぬー展」も
- :id: 392
  :src: https://chichibu.keizai.biz/mapnews/392
  :lat: 36.0375702
  :lng: 139.0287322
  :link: https://chichibu.keizai.biz/headline/392/
  :date: 2022.12.01
  :image: https://images.keizai.biz/chichibu_keizai/headline/1669815471_photo.jpg
  :title: 秩父「ただかね農園」、埼玉農業大賞受賞　埼玉県知事が表彰
- :id: 391
  :src: https://chichibu.keizai.biz/mapnews/391
  :lat: 35.98695590000001
  :lng: 139.1024563
  :link: https://chichibu.keizai.biz/headline/391/
  :date: 2022.12.01
  :image: https://images.keizai.biz/chichibu_keizai/headline/1669814533_photo.jpg
  :title: 横瀬町で町長交えトークイベント　「住み続けたい街ランキング」4位の結果受け
- :id: 390
  :src: https://chichibu.keizai.biz/mapnews/390
  :lat: 35.9988245
  :lng: 139.0794146
  :link: https://chichibu.keizai.biz/headline/390/
  :date: 2022.11.30
  :image: https://images.keizai.biz/chichibu_keizai/headline/1669734317_photo.jpg
  :title: 秩父で「世界に一つだけのパン＆焼き菓子コンテスト」　2店が6レシピを商品化
- :id: 389
  :src: https://chichibu.keizai.biz/mapnews/389
  :lat: 36.0375702
  :lng: 139.0287322
  :link: https://chichibu.keizai.biz/headline/389/
  :date: 2022.11.29
  :image: https://images.keizai.biz/chichibu_keizai/headline/1669685651_photo.jpg
  :title: 秩父・ただかね農園のイチゴを使ったクリスマスケーキ　コロンバンが商品化
- :id: 388
  :src: https://chichibu.keizai.biz/mapnews/388
  :lat: 35.9853508
  :lng: 139.0935144
  :link: https://chichibu.keizai.biz/headline/388/
  :date: 2022.11.24
  :image: https://images.keizai.biz/chichibu_keizai/headline/1669265351_photo.jpg
  :title: 横瀬町・東林寺で親子体験イベント　座禅・写仏・精進料理作りも
- :id: 387
  :src: https://chichibu.keizai.biz/mapnews/387
  :lat: 36.0315095
  :lng: 139.0743522
  :link: https://chichibu.keizai.biz/headline/387/
  :date: 2022.11.22
  :image: https://images.keizai.biz/chichibu_keizai/headline/1669097449_photo.jpg
  :title: 秩父「中蒔田 富田農園」でイチゴ狩り　秩父地域で最も早く営業開始
- :id: 386
  :src: https://chichibu.keizai.biz/mapnews/386
  :lat: 35.9988245
  :lng: 139.0794146
  :link: https://chichibu.keizai.biz/headline/386/
  :date: 2022.11.21
  :image: https://images.keizai.biz/chichibu_keizai/headline/1669002964_photo.jpg
  :title: 横瀬町の「幻のプラム」を使ったクラフトコーラ、販売開始
- :id: 385
  :src: https://chichibu.keizai.biz/mapnews/385
  :lat: 36.0621154
  :lng: 139.1011534
  :link: https://chichibu.keizai.biz/headline/385/
  :date: 2022.11.18
  :image: https://images.keizai.biz/chichibu_keizai/headline/1668701677_photo.jpg
  :title: 皆野でアートの祭典「みなの里山アートピック」　秩父音頭でフィナーレ
- :id: 384
  :src: https://chichibu.keizai.biz/mapnews/384
  :lat: 35.9847562
  :lng: 139.0319236
  :link: https://chichibu.keizai.biz/headline/384/
  :date: 2022.11.17
  :image: https://images.keizai.biz/chichibu_keizai/headline/1668592292_photo.jpg
  :title: 小鹿野町の女性専用サロン「パルムリゾート秩父」が5周年
- :id: 383
  :src: https://chichibu.keizai.biz/mapnews/383
  :lat: 35.9916545
  :lng: 139.0855991
  :link: https://chichibu.keizai.biz/headline/383/
  :date: 2022.11.16
  :image: https://images.keizai.biz/chichibu_keizai/headline/1668585984_photo.jpg
  :title: 秩父出身のシンガー・ソングライター三上隼さんが3年目のワンマンライブ
- :id: 382
  :src: https://chichibu.keizai.biz/mapnews/382
  :lat: 35.9856993
  :lng: 139.0977235
  :link: https://chichibu.keizai.biz/headline/382/
  :date: 2022.11.16
  :image: https://images.keizai.biz/chichibu_keizai/headline/1668571269_photo.jpg
  :title: 横瀬町でウオーキングイベント「里山まるマルシェ」　札所巡礼も
- :id: 381
  :src: https://chichibu.keizai.biz/mapnews/381
  :lat: 36.1314734
  :lng: 139.1400553
  :link: https://chichibu.keizai.biz/headline/381/
  :date: 2022.11.14
  :image: https://images.keizai.biz/chichibu_keizai/headline/1668348640_photo.jpg
  :title: 秩父銘仙「長瀞の四季と風景」グッズ限定販売　町名変更50周年で
- :id: 380
  :src: https://chichibu.keizai.biz/mapnews/380
  :lat: 36.0519174
  :lng: 139.2040146
  :link: https://chichibu.keizai.biz/headline/380/
  :date: 2022.11.11
  :image: https://images.keizai.biz/chichibu_keizai/headline/1668077938_photo.jpg
  :title: 東秩父村で「和紙フェス」　武蔵野美大生も参加、和太鼓演奏も
- :id: 379
  :src: https://chichibu.keizai.biz/mapnews/379
  :lat: 36.1258553
  :lng: 139.1152099
  :link: https://chichibu.keizai.biz/headline/379/
  :date: 2022.11.10
  :image: https://images.keizai.biz/chichibu_keizai/headline/1668000459_photo.jpg
  :title: 長瀞てらすでマルシェイベント　秋の植物や農産物、雑貨も販売
- :id: 378
  :src: https://chichibu.keizai.biz/mapnews/378
  :lat: 36.1156686
  :lng: 139.2196199
  :link: https://chichibu.keizai.biz/headline/378/
  :date: 2022.11.09
  :image: https://images.keizai.biz/chichibu_keizai/headline/1667863490_photo.jpg
  :title: 川の博物館で「みんなで展覧会」 秩父特別支援学校の児童・生徒の作品展示
- :id: 377
  :src: https://chichibu.keizai.biz/mapnews/377
  :lat: 36.0418851
  :lng: 139.0348837
  :link: https://chichibu.keizai.biz/headline/377/
  :date: 2022.11.08
  :image: https://images.keizai.biz/chichibu_keizai/headline/1667826564_photo.jpg
  :title: 秩父・吉田小3年生児童が落下傘作り　「龍勢祭」学ぶ授業、20年目
- :id: 376
  :src: https://chichibu.keizai.biz/mapnews/376
  :lat: 35.9971168
  :lng: 139.08337
  :link: https://chichibu.keizai.biz/headline/376/
  :date: 2022.11.07
  :image: https://images.keizai.biz/chichibu_keizai/headline/1667730999_photo.jpg
  :title: "「秩父メディカルフィットネス」　秩父地域で初の指定運動療法施設に"
- :id: 375
  :src: https://chichibu.keizai.biz/mapnews/375
  :lat: 35.9986417
  :lng: 139.0857777
  :link: https://chichibu.keizai.biz/headline/375/
  :date: 2022.11.02
  :image: https://images.keizai.biz/chichibu_keizai/headline/1667395460_photo.jpg
  :title: 秩父で秩父銘仙の「今」を伝えるイベント　講演や展示・販売も
- :id: 374
  :src: https://chichibu.keizai.biz/mapnews/374
  :lat: 36.1314734
  :lng: 139.1400553
  :link: https://chichibu.keizai.biz/headline/374/
  :date: 2022.11.02
  :image: https://images.keizai.biz/chichibu_keizai/headline/1667316840_photo.jpg
  :title: 長瀞町「秩父織塾工房横山」、埼玉県知事賞を受賞　秩父美術展工芸部門
- :id: 373
  :src: https://chichibu.keizai.biz/mapnews/373
  :lat: 36.0621154
  :lng: 139.1011534
  :link: https://chichibu.keizai.biz/headline/373/
  :date: 2022.11.01
  :image: https://images.keizai.biz/chichibu_keizai/headline/1667263849_photo.jpg
  :title: 皆野町でアートイベント「みなの里山アートピック」　今年で5回目
- :id: 372
  :src: https://chichibu.keizai.biz/mapnews/372
  :lat: 36.0060586
  :lng: 139.0624752
  :link: https://chichibu.keizai.biz/headline/372/
  :date: 2022.10.31
  :image: https://images.keizai.biz/chichibu_keizai/headline/1667191831_photo.jpg
  :title: 秩父の音楽寺にアサギマダラ　「秩父 蝶を呼ぶ花の会」がフジバカマを植え誘致
- :id: 371
  :src: https://chichibu.keizai.biz/mapnews/371
  :lat: 35.9988245
  :lng: 139.0794146
  :link: https://chichibu.keizai.biz/headline/371/
  :date: 2022.10.31
  :image: https://images.keizai.biz/chichibu_keizai/headline/1667148548_photo.jpg
  :title: 横瀬町に「横瀬ジビエ製造場」　稼働に向け見学会
- :id: 370
  :src: https://chichibu.keizai.biz/mapnews/370
  :lat: 36.1281354
  :lng: 139.2511995
  :link: https://chichibu.keizai.biz/headline/370/
  :date: 2022.10.28
  :image: https://images.keizai.biz/chichibu_keizai/headline/1666937440_photo.jpg
  :title: 長瀞の飲食店「長瀞とガレ」、ふかや花園プレミアム・アウトレットへ出店
- :id: 369
  :src: https://chichibu.keizai.biz/mapnews/369
  :lat: 36.1281354
  :lng: 139.2511995
  :link: https://chichibu.keizai.biz/headline/369/
  :date: 2022.10.28
  :image: https://images.keizai.biz/chichibu_keizai/headline/1666920533_photo.jpg
  :title: 深谷「プレミアムアウトレット」で秩父のご当地グルメ提供
- :id: 368
  :src: https://chichibu.keizai.biz/mapnews/368
  :lat: 35.9873397
  :lng: 139.1000677
  :link: https://chichibu.keizai.biz/headline/368/
  :date: 2022.10.26
  :image: https://images.keizai.biz/chichibu_keizai/headline/1666706806_photo.jpg
  :title: 横瀬町、「住み続けたい自治体ランキング」埼玉県4位に
- :id: 367
  :src: https://chichibu.keizai.biz/mapnews/367
  :lat: 36.0529434
  :lng: 139.2035544
  :link: https://chichibu.keizai.biz/headline/367/
  :date: 2022.10.25
  :image: https://images.keizai.biz/chichibu_keizai/headline/1666657692_photo.jpg
  :title: 東秩父村が「やまびこおかえり便」実証運行　ワゴン車でバス停から自宅まで
- :id: 366
  :src: https://chichibu.keizai.biz/mapnews/366
  :lat: 35.9704422
  :lng: 139.1024071
  :link: https://chichibu.keizai.biz/headline/366/
  :date: 2022.10.24
  :image: https://images.keizai.biz/chichibu_keizai/headline/1666586323_photo.jpg
  :title: 横瀬・カフェ＆アトリエ「なないろごはん」でマクラメと革靴の作品展　受注も
- :id: 365
  :src: https://chichibu.keizai.biz/mapnews/365
  :lat: 35.9922394
  :lng: 139.087692
  :link: https://chichibu.keizai.biz/headline/365/
  :date: 2022.10.22
  :image: https://images.keizai.biz/chichibu_keizai/headline/1666367006_photo.jpg
  :title: 秩父のカフェギャラリー「こぐま座α」でペン画展
- :id: 364
  :src: https://chichibu.keizai.biz/mapnews/364
  :lat: 35.9816082
  :lng: 139.0995841
  :link: https://chichibu.keizai.biz/headline/364/
  :date: 2022.10.21
  :image: https://images.keizai.biz/chichibu_keizai/headline/1666277333_photo.jpg
  :title: 西武鉄道、横瀬車両基地で「トレインフェスティバル」　初の夜間撮影会も
- :id: 363
  :src: https://chichibu.keizai.biz/mapnews/363
  :lat: 35.9916443
  :lng: 139.0855869
  :link: https://chichibu.keizai.biz/headline/363/
  :date: 2022.10.20
  :image: https://images.keizai.biz/chichibu_keizai/headline/1666262285_photo.jpg
  :title: 秩父で市主催恋活イベント「秩父で始まるほろ酔い恋活」
- :id: 362
  :src: https://chichibu.keizai.biz/mapnews/362
  :lat: 35.9986417
  :lng: 139.0857777
  :link: https://chichibu.keizai.biz/headline/362/
  :date: 2022.10.19
  :image: https://images.keizai.biz/chichibu_keizai/headline/1666151056_photo.jpg
  :title: 秩父で「リシンク・クリエーター・プロジェクト」　祭り・名産から地元PR企画考える
- :id: 361
  :src: https://chichibu.keizai.biz/mapnews/361
  :lat: 35.9988245
  :lng: 139.0794146
  :link: https://chichibu.keizai.biz/headline/361/
  :date: 2022.10.18
  :image: https://images.keizai.biz/chichibu_keizai/headline/1666077786_photo.jpg
  :title: 小鹿野町・車庫を改築したホールで「秋風コンサート・チェロの調べにのせて」
- :id: 360
  :src: https://chichibu.keizai.biz/mapnews/360
  :lat: 36.0014423
  :lng: 139.074284
  :link: https://chichibu.keizai.biz/headline/360/
  :date: 2022.10.14
  :image: https://images.keizai.biz/chichibu_keizai/headline/1665722412_photo.jpg
  :title: 秩父ファームステイで初の「収穫祭」　ハロウィーンイベントも同時開催
- :id: 359
  :src: https://chichibu.keizai.biz/mapnews/359
  :lat: 35.9983115
  :lng: 139.0834687
  :link: https://chichibu.keizai.biz/headline/359/
  :date: 2022.10.12
  :image: https://images.keizai.biz/chichibu_keizai/headline/1665544996_photo.jpg
  :title: 秩父・みやのかわ商店街が「ナイトバザール」35年で、300回達成
- :id: 358
  :src: https://chichibu.keizai.biz/mapnews/358
  :lat: 35.98695590000001
  :lng: 139.1024563
  :link: https://chichibu.keizai.biz/headline/358/
  :date: 2022.10.11
  :image: https://images.keizai.biz/chichibu_keizai/headline/1665417844_photo.jpg
  :title: "「会社員ができる地域プロジェクトを考える」　横瀬町でオンラインイベント"
- :id: 357
  :src: https://chichibu.keizai.biz/mapnews/357
  :lat: 35.9986417
  :lng: 139.0857777
  :link: https://chichibu.keizai.biz/headline/357/
  :date: 2022.10.07
  :image: https://images.keizai.biz/chichibu_keizai/headline/1665149126_photo.jpg
  :title: 秩父「ラパンノワールくろうさぎ」　秩父鉄道モデルのパン、じばさん商店で販売
- :id: 356
  :src: https://chichibu.keizai.biz/mapnews/356
  :lat: 35.9975977
  :lng: 139.0846341
  :link: https://chichibu.keizai.biz/headline/356/
  :date: 2022.10.07
  :image: https://images.keizai.biz/chichibu_keizai/headline/1665052841_photo.jpg
  :title: 秩父神社境内で「ちちぶむすび市」　伝統芸能披露の場に
- :id: 355
  :src: https://chichibu.keizai.biz/mapnews/355
  :lat: 36.1248356
  :lng: 139.1142231
  :link: https://chichibu.keizai.biz/headline/355/
  :date: 2022.10.06
  :image: https://images.keizai.biz/chichibu_keizai/headline/1664989993_photo.jpg
  :title: 長瀞に「壺焼き芋専門店moriko」　焼き芋カー経て常設店開く
- :id: 354
  :src: https://chichibu.keizai.biz/mapnews/354
  :lat: 35.9883764
  :lng: 139.0845218
  :link: https://chichibu.keizai.biz/headline/354/
  :date: 2022.10.05
  :image: https://images.keizai.biz/chichibu_keizai/headline/1664895018_photo.jpg
  :title: 秩父に焼き肉店「KOME to NIKU KIJIMA」　山形牛メインに
- :id: 353
  :src: https://chichibu.keizai.biz/mapnews/353
  :lat: 35.9988245
  :lng: 139.0794146
  :link: https://chichibu.keizai.biz/headline/353/
  :date: 2022.10.05
  :image: https://images.keizai.biz/chichibu_keizai/headline/1664890983_photo.jpg
  :title: 買継商通り・黒門通りで「秩父絹市」　17店舗が秩父銘仙や工芸品など販売
- :id: 352
  :src: https://chichibu.keizai.biz/mapnews/352
  :lat: 36.0453552
  :lng: 139.0333655
  :link: https://chichibu.keizai.biz/headline/352/
  :date: 2022.10.04
  :image: https://images.keizai.biz/chichibu_keizai/headline/1664811668_photo.jpg
  :title: 農民ロケット「秩父吉田の龍勢祭」　3年ぶり開催で初のライブ配信も
- :id: 351
  :src: https://chichibu.keizai.biz/mapnews/351
  :lat: 35.9916545
  :lng: 139.0855991
  :link: https://chichibu.keizai.biz/headline/351/
  :date: 2022.10.04
  :image: https://images.keizai.biz/chichibu_keizai/headline/1664805123_photo.jpg
  :title: 秩父宮記念市民会館で合同就職面接会　地元企業84社参加
- :id: 350
  :src: https://chichibu.keizai.biz/mapnews/350
  :lat: 35.9871306
  :lng: 139.1037
  :link: https://chichibu.keizai.biz/headline/350/
  :date: 2022.10.03
  :image: https://images.keizai.biz/chichibu_keizai/headline/1664695417_photo.jpg
  :title: 横瀬町が公式通販サイト「よこぜのよこに」　町の特産物を販売
- :id: 349
  :src: https://chichibu.keizai.biz/mapnews/349
  :lat: 35.95933
  :lng: 139.0214411
  :link: https://chichibu.keizai.biz/headline/349/
  :date: 2022.09.27
  :image: https://images.keizai.biz/chichibu_keizai/headline/1664251799_photo.jpg
  :title: 秩父・荒川「深山の花園」　3万株の彼岸花が見頃迎える
- :id: 348
  :src: https://chichibu.keizai.biz/mapnews/348
  :lat: 36.0729664
  :lng: 139.0879683
  :link: https://chichibu.keizai.biz/headline/348/
  :date: 2022.09.26
  :image: https://images.keizai.biz/chichibu_keizai/headline/1664112167_photo.jpg
  :title: 皆野町ワーケーション施設で「みなのLABOサマーフェスティバル」
- :id: 347
  :src: https://chichibu.keizai.biz/mapnews/347
  :lat: 35.989431
  :lng: 139.1062357
  :link: https://chichibu.keizai.biz/headline/347/
  :date: 2022.09.22
  :image: https://images.keizai.biz/chichibu_keizai/headline/1663777490_photo.jpg
  :title: 横瀬町「寺坂棚田」で200万球の彼岸花が見頃迎える
- :id: 346
  :src: https://chichibu.keizai.biz/mapnews/346
  :lat: 35.9704422
  :lng: 139.1024071
  :link: https://chichibu.keizai.biz/headline/346/
  :date: 2022.09.21
  :image: https://images.keizai.biz/chichibu_keizai/headline/1663720029_photo.jpg
  :title: 横瀬町のカフェでアート＆木工作家の二人展　「循環してゆく自然」テーマに
- :id: 345
  :src: https://chichibu.keizai.biz/mapnews/345
  :lat: 36.0055814
  :lng: 139.1910057
  :link: https://chichibu.keizai.biz/headline/345/
  :date: 2022.09.20
  :image: https://images.keizai.biz/chichibu_keizai/headline/1663628905_photo.jpg
  :title: 東秩父村・定峰峠でヒルクライム　累積標高差840メートルを自転車で駆け上がる
- :id: 344
  :src: https://chichibu.keizai.biz/mapnews/344
  :lat: 35.9871306
  :lng: 139.1037
  :link: https://chichibu.keizai.biz/headline/344/
  :date: 2022.09.18
  :image: https://images.keizai.biz/chichibu_keizai/headline/1663481381_photo.jpg
  :title: 横瀬町が「地域おこし協力隊」募集　まちづくり会社の活動で
- :id: 343
  :src: https://chichibu.keizai.biz/mapnews/343
  :lat: 35.99362610000001
  :lng: 139.0802687
  :link: https://chichibu.keizai.biz/headline/343/
  :date: 2022.09.18
  :image: https://images.keizai.biz/chichibu_keizai/headline/1663455170_photo.jpg
  :title: 秩父の「ふじや衣裳」、敬老の日企画で家族写真を無料撮影
- :id: 342
  :src: https://chichibu.keizai.biz/mapnews/342
  :lat: 35.9988245
  :lng: 139.0794146
  :link: https://chichibu.keizai.biz/headline/342/
  :date: 2022.09.16
  :image: https://images.keizai.biz/chichibu_keizai/headline/1663286386_photo.jpg
  :title: 東秩父村をアートで村おこし　武蔵野美大生と村人が交流、シャッターアートも
- :id: 341
  :src: https://chichibu.keizai.biz/mapnews/341
  :lat: 36.0708172
  :lng: 139.0988043
  :link: https://chichibu.keizai.biz/headline/341/
  :date: 2022.09.14
  :image: https://images.keizai.biz/chichibu_keizai/headline/1663081607_photo.jpg
  :title: 皆野町役場でミニパネル展「秩父と皆野の武士」
- :id: 340
  :src: https://chichibu.keizai.biz/mapnews/340
  :lat: 35.9916545
  :lng: 139.0855991
  :link: https://chichibu.keizai.biz/headline/340/
  :date: 2022.09.13
  :image: https://images.keizai.biz/chichibu_keizai/headline/1662996497_photo.jpg
  :title: 秩父市役所駐車場で「秩父肉フェスタ」限定メニューやステージも
- :id: 339
  :src: https://chichibu.keizai.biz/mapnews/339
  :lat: 35.9993992
  :lng: 139.1021404
  :link: https://chichibu.keizai.biz/headline/339/
  :date: 2022.09.12
  :image: https://images.keizai.biz/chichibu_keizai/headline/1662935951_photo.jpg
  :title: 横瀬町の生花店「笑流flower（エールフラワー）」が1周年
- :id: 338
  :src: https://chichibu.keizai.biz/mapnews/338
  :lat: 36.042694
  :lng: 139.0362837
  :link: https://chichibu.keizai.biz/headline/338/
  :date: 2022.09.09
  :image: https://images.keizai.biz/chichibu_keizai/headline/1662624964_photo.jpg
  :title: 秩父麦酒が初の缶ビール商品「彩の熊のラガー」1万本限定
- :id: 337
  :src: https://chichibu.keizai.biz/mapnews/337
  :lat: 36.0306041
  :lng: 139.1133191
  :link: https://chichibu.keizai.biz/headline/337/
  :date: 2022.09.08
  :image: https://images.keizai.biz/chichibu_keizai/headline/1662509274_photo.jpg
  :title: 秩父「みそぽてと本舗」店頭に冷凍自販機　みそポテトを無人販売
- :id: 336
  :src: https://chichibu.keizai.biz/mapnews/336
  :lat: 35.9906067
  :lng: 139.0848501
  :link: https://chichibu.keizai.biz/headline/336/
  :date: 2022.09.07
  :image: https://images.keizai.biz/chichibu_keizai/headline/1662506905_photo.jpg
  :title: 秩父市熊木町に飲食店「bond（ボンド）」　秩父市の起業支援受け出店
- :id: 335
  :src: https://chichibu.keizai.biz/mapnews/335
  :lat: 35.996523
  :lng: 139.0839324
  :link: https://chichibu.keizai.biz/headline/335/
  :date: 2022.09.02
  :image: https://images.keizai.biz/chichibu_keizai/headline/1662100631_photo.jpg
  :title: 秩父神社前にわらび餅専門店「甘味処鎌倉」老舗呉服店「いせや呉服店」が出店
- :id: 334
  :src: https://chichibu.keizai.biz/mapnews/334
  :lat: 35.9958347
  :lng: 139.088744
  :link: https://chichibu.keizai.biz/headline/334/
  :date: 2022.09.01
  :image: https://images.keizai.biz/chichibu_keizai/headline/1662010828_photo.jpg
  :title: 秩父で秩父高校写真部と秩父ファンクラブ・カメラ部が合同写真展
- :id: 333
  :src: https://chichibu.keizai.biz/mapnews/333
  :lat: 36.0186341
  :lng: 139.0038057
  :link: https://chichibu.keizai.biz/headline/333/
  :date: 2022.08.31
  :image: https://images.keizai.biz/chichibu_keizai/headline/1661932717_photo.jpg
  :title: 小鹿野「おがの薬局」、キッチンカーで地域に出向き健康・栄養相談　薬の相談も
- :id: 332
  :src: https://chichibu.keizai.biz/mapnews/332
  :lat: 36.1158076
  :lng: 139.1974493
  :link: https://chichibu.keizai.biz/headline/332/
  :date: 2022.08.29
  :image: https://images.keizai.biz/chichibu_keizai/headline/1661731565_photo.jpg
  :title: 寄居にゲストハウス備えたオーガニックレストラン「むじゃき」　町に明かりを
- :id: 331
  :src: https://chichibu.keizai.biz/mapnews/331
  :lat: 35.998824
  :lng: 139.086061
  :link: https://chichibu.keizai.biz/headline/331/
  :date: 2022.08.26
  :image: https://images.keizai.biz/chichibu_keizai/headline/1661439349_photo.jpg
  :title: "「ひえひえ列車」で肝試し　123周年の秩父鉄道が3年ぶりに復活"
- :id: 330
  :src: https://chichibu.keizai.biz/mapnews/330
  :lat: 36.0948484
  :lng: 139.1139656
  :link: https://chichibu.keizai.biz/headline/330/
  :date: 2022.08.24
  :image: https://images.keizai.biz/chichibu_keizai/headline/1661267767_photo.jpg
  :title: 長瀞岩畳通りにかき氷店「かふぇ りく丸」　祖母が開いた喫茶店を改装
- :id: 329
  :src: https://chichibu.keizai.biz/mapnews/329
  :lat: 35.9988245
  :lng: 139.0794146
  :link: https://chichibu.keizai.biz/headline/329/
  :date: 2022.08.23
  :image: https://images.keizai.biz/chichibu_keizai/headline/1661210644_photo.jpg
  :title: 秩父の画家が絵画教室と展覧会　CFで協力呼びかけ
- :id: 328
  :src: https://chichibu.keizai.biz/mapnews/328
  :lat: 35.9958347
  :lng: 139.088744
  :link: https://chichibu.keizai.biz/headline/328/
  :date: 2022.08.22
  :image: https://images.keizai.biz/chichibu_keizai/headline/1661128627_photo.jpg
  :title: "「タリーズ」ウニクス秩父店が移転新装　銘仙や木材で秩父らしい店内に"
- :id: 327
  :src: https://chichibu.keizai.biz/mapnews/327
  :lat: 36.0769798
  :lng: 139.1096227
  :link: https://chichibu.keizai.biz/headline/327/
  :date: 2022.08.17
  :image: https://images.keizai.biz/chichibu_keizai/headline/1660656920_photo.jpg
  :title: 皆野町に木彫り作品工房「ちちぶ工藝舎」　チェーンソーで動物のアート作品
- :id: 326
  :src: https://chichibu.keizai.biz/mapnews/326
  :lat: 35.9940443
  :lng: 139.0836266
  :link: https://chichibu.keizai.biz/headline/326/
  :date: 2022.08.16
  :image: https://images.keizai.biz/chichibu_keizai/headline/1660532977_photo.jpg
  :title: 秩父・番場町に芋スイーツ専門店と古民家再生ホテル
- :id: 325
  :src: https://chichibu.keizai.biz/mapnews/325
  :lat: 36.0628693
  :lng: 139.0993443
  :link: https://chichibu.keizai.biz/headline/325/
  :date: 2022.08.12
  :image: https://images.keizai.biz/chichibu_keizai/headline/1660230622_photo.jpg
  :title: 皆野町「リトリートフィールド Mahora 稲穂山」ムクゲが見頃迎える
- :id: 324
  :src: https://chichibu.keizai.biz/mapnews/324
  :lat: 36.0028726
  :lng: 139.0945802
  :link: https://chichibu.keizai.biz/headline/324/
  :date: 2022.08.11
  :image: https://images.keizai.biz/chichibu_keizai/headline/1660137898_photo.jpg
  :title: 秩父「農園ホテル」、50周年記念で宿泊プランやバイキング提供
- :id: 323
  :src: https://chichibu.keizai.biz/mapnews/323
  :lat: 36.0220219
  :lng: 138.9874246
  :link: https://chichibu.keizai.biz/headline/323/
  :date: 2022.08.10
  :image: https://images.keizai.biz/chichibu_keizai/headline/1660025664_photo.jpg
  :title: 秩父「源作印」の白ワイン　国内最大のワインコンクールでダブル受賞
- :id: 322
  :src: https://chichibu.keizai.biz/mapnews/322
  :lat: 35.9961422
  :lng: 139.0544863
  :link: https://chichibu.keizai.biz/headline/322/
  :date: 2022.08.08
  :image: https://images.keizai.biz/chichibu_keizai/headline/1659883643_photo.jpg
  :title: 秩父ミューズパークで「彩魂祭」　埼玉に縁のあるアーティスト10組が出演
- :id: 321
  :src: https://chichibu.keizai.biz/mapnews/321
  :lat: 36.0014423
  :lng: 139.074284
  :link: https://chichibu.keizai.biz/headline/321/
  :date: 2022.08.04
  :image: https://images.keizai.biz/chichibu_keizai/headline/1659595462_photo.jpg
  :title: 秩父で恋活イベント「ちちぶの橋の下で～夏の終わりに始まる恋～」
- :id: 320
  :src: https://chichibu.keizai.biz/mapnews/320
  :lat: 35.9988245
  :lng: 139.0794146
  :link: https://chichibu.keizai.biz/headline/320/
  :date: 2022.08.04
  :image: https://images.keizai.biz/chichibu_keizai/headline/1659513719_photo.jpg
  :title: 秩父地域で中高生の民泊事業再開　家族として共同体験
- :id: 319
  :src: https://chichibu.keizai.biz/mapnews/319
  :lat: 36.1156686
  :lng: 139.2196199
  :link: https://chichibu.keizai.biz/headline/319/
  :date: 2022.08.03
  :image: https://images.keizai.biz/chichibu_keizai/headline/1659495375_photo.jpg
  :title: 寄居町「かわはく」が25周年　大水車を始動する記念イベントも
- :id: 318
  :src: https://chichibu.keizai.biz/mapnews/318
  :lat: 35.9982006
  :lng: 139.0831135
  :link: https://chichibu.keizai.biz/headline/318/
  :date: 2022.08.01
  :image: https://images.keizai.biz/chichibu_keizai/headline/1659195075_photo.jpg
  :title: 秩父のアマチュア写真家14人が写真展　CFで協力呼びかけ
- :id: 317
  :src: https://chichibu.keizai.biz/mapnews/317
  :lat: 35.9957308
  :lng: 139.0532538
  :link: https://chichibu.keizai.biz/headline/317/
  :date: 2022.07.27
  :image: https://images.keizai.biz/chichibu_keizai/headline/1658842311_photo.jpg
  :title: 秩父ミューズパーク野外ステージで「ミューズロックフェス」　3年ぶり開催
- :id: 316
  :src: https://chichibu.keizai.biz/mapnews/316
  :lat: 36.0695785
  :lng: 139.0854898
  :link: https://chichibu.keizai.biz/headline/316/
  :date: 2022.07.26
  :image: https://images.keizai.biz/chichibu_keizai/headline/1658757787_photo.jpg
  :title: 皆野町のワーケーション施設で夏休みイベント　ジオラマ作りに挑戦
- :id: 315
  :src: https://chichibu.keizai.biz/mapnews/315
  :lat: 35.9962994
  :lng: 139.0831529
  :link: https://chichibu.keizai.biz/headline/315/
  :date: 2022.07.25
  :image: https://images.keizai.biz/chichibu_keizai/headline/1658632752_photo.jpg
  :title: 秩父・黒門通りのカフェ＆バー「Shu-Ha-Li（シュハリ）」が12周年
- :id: 314
  :src: https://chichibu.keizai.biz/mapnews/314
  :lat: 35.996176
  :lng: 139.054635
  :link: https://chichibu.keizai.biz/headline/314/
  :date: 2022.07.21
  :image: https://images.keizai.biz/chichibu_keizai/headline/1658323517_photo.jpg
  :title: 秩父ミューズパークで「彩魂祭」　埼玉ゆかりのアーティストと出店者集う
- :id: 313
  :src: https://chichibu.keizai.biz/mapnews/313
  :lat: 35.9986417
  :lng: 139.0857777
  :link: https://chichibu.keizai.biz/headline/313/
  :date: 2022.07.19
  :image: https://images.keizai.biz/chichibu_keizai/headline/1658150232_photo.jpg
  :title: 秩父で「移住職業体験ツアー」　職場見学や先輩移住者の体験談も
- :id: 312
  :src: https://chichibu.keizai.biz/mapnews/312
  :lat: 35.9757735
  :lng: 139.0539538
  :link: https://chichibu.keizai.biz/headline/312/
  :date: 2022.07.15
  :image: https://images.keizai.biz/chichibu_keizai/headline/1657792615_photo.jpg
  :title: 秩父の牧場跡にドッグラン　犬連れで利用できるカフェスペースも
- :id: 311
  :src: https://chichibu.keizai.biz/mapnews/311
  :lat: 35.9934802
  :lng: 139.0788116
  :link: https://chichibu.keizai.biz/headline/311/
  :date: 2022.07.14
  :image: https://images.keizai.biz/chichibu_keizai/headline/1657720314_photo.jpg
  :title: 秩父に夏季限定「秩父のハワイ」　屋外でハワイのローカルフード提供
- :id: 310
  :src: https://chichibu.keizai.biz/mapnews/310
  :lat: 35.9871306
  :lng: 139.1037
  :link: https://chichibu.keizai.biz/headline/310/
  :date: 2022.07.11
  :image: https://images.keizai.biz/chichibu_keizai/headline/1657508973_photo.jpg
  :title: 横瀬町「チャレンジキッチンENgaWA」で夜カフェ・ビアガーデン
- :id: 309
  :src: https://chichibu.keizai.biz/mapnews/309
  :lat: 35.9986417
  :lng: 139.0857777
  :link: https://chichibu.keizai.biz/headline/309/
  :date: 2022.07.08
  :image: https://images.keizai.biz/chichibu_keizai/headline/1657188015_photo.jpg
  :title: 秩父商工会議所青年部が情報発信の勉強会
- :id: 308
  :src: https://chichibu.keizai.biz/mapnews/308
  :lat: 36.11274660000001
  :lng: 139.1975987
  :link: https://chichibu.keizai.biz/headline/308/
  :date: 2022.07.07
  :image: https://images.keizai.biz/chichibu_keizai/headline/1657068824_photo.jpg
  :title: 幻の朝顔「団十郎」を楽しむ　寄居町で「朝顔まつり」、朝顔市も
- :id: 307
  :src: https://chichibu.keizai.biz/mapnews/307
  :lat: 36.0980274
  :lng: 139.1102643
  :link: https://chichibu.keizai.biz/headline/307/
  :date: 2022.07.06
  :image: https://images.keizai.biz/chichibu_keizai/headline/1656923025_photo.jpg
  :title: 家族10人で作成し祖母から託された「きょうだい文集」　長瀞で展示
- :id: 306
  :src: https://chichibu.keizai.biz/mapnews/306
  :lat: 35.9761581
  :lng: 139.0550583
  :link: https://chichibu.keizai.biz/headline/306/
  :date: 2022.07.04
  :image: https://images.keizai.biz/chichibu_keizai/headline/1656888410_photo.jpg
  :title: 秩父出身在住のデザイナーが展示会　SDGsのアプローチも
- :id: 305
  :src: https://chichibu.keizai.biz/mapnews/305
  :lat: 35.9988245
  :lng: 139.0794146
  :link: https://chichibu.keizai.biz/headline/305/
  :date: 2022.07.01
  :image: https://images.keizai.biz/chichibu_keizai/headline/1656660082_photo.jpg
  :title: 秩父経・上半期PV1位は半露天風呂付き「一棟貸切宿 teihaku秩父」
- :id: 304
  :src: https://chichibu.keizai.biz/mapnews/304
  :lat: 35.9916545
  :lng: 139.0855991
  :link: https://chichibu.keizai.biz/headline/304/
  :date: 2022.06.25
  :image: https://images.keizai.biz/chichibu_keizai/headline/1656088389_photo.jpg
  :title: 秩父宮記念市民会館で舞台体験を　児童向け夏休みワークショップ開講へ
- :id: 303
  :src: https://chichibu.keizai.biz/mapnews/303
  :lat: 35.9988245
  :lng: 139.0794146
  :link: https://chichibu.keizai.biz/headline/303/
  :date: 2022.06.23
  :image: https://images.keizai.biz/chichibu_keizai/headline/1655867440_photo.jpg
  :title: 秩父ただかね農園のイチゴを使ったワッフル、「コロンバン」いちご選手権で優勝
- :id: 302
  :src: https://chichibu.keizai.biz/mapnews/302
  :lat: 36.0980274
  :lng: 139.1102643
  :link: https://chichibu.keizai.biz/headline/302/
  :date: 2022.06.22
  :image: https://images.keizai.biz/chichibu_keizai/headline/1655801610_photo.jpg
  :title: 長瀞のコワーキングスペースで初の合同イベント　出会いにつながる場に
- :id: 301
  :src: https://chichibu.keizai.biz/mapnews/301
  :lat: 36.0014423
  :lng: 139.074284
  :link: https://chichibu.keizai.biz/headline/301/
  :date: 2022.06.21
  :image: https://images.keizai.biz/chichibu_keizai/headline/1655739521_photo.jpg
  :title: 観光農園・カフェ・キャンプ場から成る「秩父ファームステイ」開業　相乗効果目指す
- :id: 300
  :src: https://chichibu.keizai.biz/mapnews/300
  :lat: 35.9916545
  :lng: 139.0855991
  :link: https://chichibu.keizai.biz/headline/300/
  :date: 2022.06.20
  :image: https://images.keizai.biz/chichibu_keizai/headline/1655685133_photo.jpg
  :title: 隕石と写真でフィンランドのジオパークを紹介　秩父市役所で特別展
- :id: 299
  :src: https://chichibu.keizai.biz/mapnews/299
  :lat: 35.977596
  :lng: 139.134721
  :link: https://chichibu.keizai.biz/headline/299/
  :date: 2022.06.17
  :image: https://images.keizai.biz/chichibu_keizai/headline/1655433834_photo.jpg
  :title: 横瀬町と西武鉄道が夏の体験学習企画、一部の特急が芦ヶ久保駅に臨時停車も
- :id: 298
  :src: https://chichibu.keizai.biz/mapnews/298
  :lat: 36.124504
  :lng: 139.1036683
  :link: https://chichibu.keizai.biz/headline/298/
  :date: 2022.06.15
  :image: https://images.keizai.biz/chichibu_keizai/headline/1655129852_photo.jpg
  :title: 長瀞にスポーツレジャー施設「トランポリンパークながとろ」
- :id: 297
  :src: https://chichibu.keizai.biz/mapnews/297
  :lat: 35.9964056
  :lng: 139.0830444
  :link: https://chichibu.keizai.biz/headline/297/
  :date: 2022.06.14
  :image: https://images.keizai.biz/chichibu_keizai/headline/1655124702_photo.jpg
  :title: 秩父市チャレンジショップ「よりどころ」、買継商通りに移転リニューアル
- :id: 296
  :src: https://chichibu.keizai.biz/mapnews/296
  :lat: 35.9947789
  :lng: 139.0815371
  :link: https://chichibu.keizai.biz/headline/296/
  :date: 2022.06.09
  :image: https://images.keizai.biz/chichibu_keizai/headline/1654757379_photo.jpg
  :title: 秩父のコミュニティーFM「ちちぶエフエム」の奮闘記、出版
- :id: 295
  :src: https://chichibu.keizai.biz/mapnews/295
  :lat: 35.9872199
  :lng: 139.0725005
  :link: https://chichibu.keizai.biz/headline/295/
  :date: 2022.06.07
  :image: https://images.keizai.biz/chichibu_keizai/headline/1654519514_photo.jpg
  :title: 秩父・押堀川水辺広場でホタル鑑賞始まる　地元ボランティアが環境整備
- :id: 294
  :src: https://chichibu.keizai.biz/mapnews/294
  :lat: 35.9988245
  :lng: 139.0794146
  :link: https://chichibu.keizai.biz/headline/294/
  :date: 2022.06.06
  :image: https://images.keizai.biz/chichibu_keizai/headline/1654423967_photo.jpg
  :title: 秩父経済新聞が創刊1周年　これからも「まちの記録係」に
- :id: 293
  :src: https://chichibu.keizai.biz/mapnews/293
  :lat: 36.0487649
  :lng: 139.0940287
  :link: https://chichibu.keizai.biz/headline/293/
  :date: 2022.06.03
  :image: https://images.keizai.biz/chichibu_keizai/headline/1654162050_photo.jpg
  :title: 秩父「ほんとのインド料理とカレーの店」　19周年でフォトグランプリ
- :id: 292
  :src: https://chichibu.keizai.biz/mapnews/292
  :lat: 35.9948817
  :lng: 139.0840213
  :link: https://chichibu.keizai.biz/headline/292/
  :date: 2022.06.02
  :image: https://images.keizai.biz/chichibu_keizai/headline/1654144049_photo.jpg
  :title: 秩父神社の表参道にシャッターアート　横瀬町出身アーティストが制作開始
- :id: 291
  :src: https://chichibu.keizai.biz/mapnews/291
  :lat: 36.09490359999999
  :lng: 139.1144995
  :link: https://chichibu.keizai.biz/headline/291/
  :date: 2022.06.02
  :image: https://images.keizai.biz/chichibu_keizai/headline/1654075131_photo.jpg
  :title: 長瀞発クラフトポテトチップス＆ビール　地産品店と地域観光Lab.がコラボ開発
- :id: 290
  :src: https://chichibu.keizai.biz/mapnews/290
  :lat: 36.0941014
  :lng: 139.1095587
  :link: https://chichibu.keizai.biz/headline/290/
  :date: 2022.06.01
  :image: https://images.keizai.biz/chichibu_keizai/headline/1654002393_photo.jpg
  :title: 長瀞町の宝登山神社参道沿いにコーヒースタンド コンテナ改装し出店
- :id: 289
  :src: https://chichibu.keizai.biz/mapnews/289
  :lat: 36.0621154
  :lng: 139.1011534
  :link: https://chichibu.keizai.biz/headline/289/
  :date: 2022.05.31
  :image: https://images.keizai.biz/chichibu_keizai/headline/1653990677_photo.jpg
  :title: 植村直己冒険賞受賞の稲葉香さん、皆野町で講演「ボク達ハ同じ地球の上で生きている」
- :id: 288
  :src: https://chichibu.keizai.biz/mapnews/288
  :lat: 36.0841
  :lng: 139.0559636
  :link: https://chichibu.keizai.biz/headline/288/
  :date: 2022.05.31
  :image: https://images.keizai.biz/chichibu_keizai/headline/1653949884_photo.jpg
  :title: 皆野町で「皆野サンデーピクニック」　旧車の愛好家ら集う
- :id: 287
  :src: https://chichibu.keizai.biz/mapnews/287
  :lat: 35.9947589
  :lng: 139.0839818
  :link: https://chichibu.keizai.biz/headline/287/
  :date: 2022.05.28
  :image: https://images.keizai.biz/chichibu_keizai/headline/1653748669_photo.jpg
  :title: 秩父のレトロな喫茶店「パーラーコイズミ」が55周年
- :id: 286
  :src: https://chichibu.keizai.biz/mapnews/286
  :lat: 36.1185244
  :lng: 139.1962432
  :link: https://chichibu.keizai.biz/headline/286/
  :date: 2022.05.27
  :image: https://images.keizai.biz/chichibu_keizai/headline/1653568337_photo.jpg
  :title: 寄居町立図書館で切り紙作品展　吹き抜けに7匹のこいのぼり泳ぐ
- :id: 285
  :src: https://chichibu.keizai.biz/mapnews/285
  :lat: 35.9988245
  :lng: 139.0794146
  :link: https://chichibu.keizai.biz/headline/285/
  :date: 2022.05.24
  :image: https://images.keizai.biz/chichibu_keizai/headline/1653381417_photo.jpg
  :title: 秩父出身在住デザイナーが秩父太織絹を使った製品作り　CFで協力呼びかけ
- :id: 284
  :src: https://chichibu.keizai.biz/mapnews/284
  :lat: 35.9547673
  :lng: 139.0147557
  :link: https://chichibu.keizai.biz/headline/284/
  :date: 2022.05.23
  :image: https://images.keizai.biz/chichibu_keizai/headline/1653292591_photo.jpg
  :title: 秩父の観光農園「将門園」でシニア向けのブドウ栽培体験
- :id: 283
  :src: https://chichibu.keizai.biz/mapnews/283
  :lat: 36.0944413
  :lng: 139.1150854
  :link: https://chichibu.keizai.biz/headline/283/
  :date: 2022.05.19
  :image: https://images.keizai.biz/chichibu_keizai/headline/1652961598_photo.jpg
  :title: 長瀞町でアウトドアギア展示イベント「フラッパーランド ドアーズ」
- :id: 282
  :src: https://chichibu.keizai.biz/mapnews/282
  :lat: 35.9988245
  :lng: 139.0794146
  :link: https://chichibu.keizai.biz/headline/282/
  :date: 2022.05.19
  :image: https://images.keizai.biz/chichibu_keizai/headline/1652941736_photo.jpg
  :title: 小鹿野町　車庫を改築したホールで「そよ風コンサート」　2年ぶり開催
- :id: 281
  :src: https://chichibu.keizai.biz/mapnews/281
  :lat: 35.9867651
  :lng: 139.1023378
  :link: https://chichibu.keizai.biz/headline/281/
  :date: 2022.05.18
  :image: https://images.keizai.biz/chichibu_keizai/headline/1652779621_photo.jpg
  :title: 横瀬町にコワーキングスペース付きコミュニティ施設「LAC横瀬」
- :id: 280
  :src: https://chichibu.keizai.biz/mapnews/280
  :lat: 36.0110703
  :lng: 139.0539072
  :link: https://chichibu.keizai.biz/headline/280/
  :date: 2022.05.17
  :image: https://images.keizai.biz/chichibu_keizai/headline/1652707311_photo.jpg
  :title: 秩父・田村に「ケイナ チチブ」　カフェと1日1組限定のキャンプ場
- :id: 279
  :src: https://chichibu.keizai.biz/mapnews/279
  :lat: 36.0925873
  :lng: 139.1080533
  :link: https://chichibu.keizai.biz/headline/279/
  :date: 2022.05.16
  :image: https://images.keizai.biz/chichibu_keizai/headline/1652518114_photo.jpg
  :title: 純米大吟醸「長瀞」、「ワイングラスでおいしい日本酒アワード」最高金賞初受賞
- :id: 278
  :src: https://chichibu.keizai.biz/mapnews/278
  :lat: 36.0075394
  :lng: 139.0890934
  :link: https://chichibu.keizai.biz/headline/278/
  :date: 2022.05.13
  :image: https://images.keizai.biz/chichibu_keizai/headline/1652362495_photo.jpg
  :title: 秩父「駄菓子と帽子フクノカミ」が2周年　祭り気分が味わえる商品も
- :id: 277
  :src: https://chichibu.keizai.biz/mapnews/277
  :lat: 35.9988245
  :lng: 139.0794146
  :link: https://chichibu.keizai.biz/headline/277/
  :date: 2022.05.12
  :image: https://images.keizai.biz/chichibu_keizai/headline/1652293155_photo.jpg
  :title: キッチンカーのクレープ・ワッフル店「Anela（アネラ）」　秩父出身の夫婦が開業
- :id: 276
  :src: https://chichibu.keizai.biz/mapnews/276
  :lat: 35.99619879999999
  :lng: 139.0829951
  :link: https://chichibu.keizai.biz/headline/276/
  :date: 2022.04.30
  :image: https://images.keizai.biz/chichibu_keizai/headline/1651220429_photo.jpg
  :title: ヴィンテージ銘仙リメーク・ユニット「Qui-Meisen」が初の単行本　秩父で記念作品展
- :id: 275
  :src: https://chichibu.keizai.biz/mapnews/275
  :lat: 36.0206046
  :lng: 139.0038174
  :link: https://chichibu.keizai.biz/headline/275/
  :date: 2022.04.29
  :image: https://images.keizai.biz/chichibu_keizai/headline/1651155115_photo.jpg
  :title: 小鹿野町十輪寺の花まつり　3年ぶりに規模縮小で開催へ
- :id: 274
  :src: https://chichibu.keizai.biz/mapnews/274
  :lat: 36.0189446
  :lng: 139.0062808
  :link: https://chichibu.keizai.biz/headline/274/
  :date: 2022.04.28
  :image: https://images.keizai.biz/chichibu_keizai/headline/1651098068_photo.jpg
  :title: 抹茶を使った「抹茶小鹿野こいし」　小鹿野町の八宮松雪堂が限定販売
- :id: 273
  :src: https://chichibu.keizai.biz/mapnews/273
  :lat: 35.990426
  :lng: 139.1020417
  :link: https://chichibu.keizai.biz/headline/273/
  :date: 2022.04.27
  :image: https://images.keizai.biz/chichibu_keizai/headline/1651025629_photo.jpg
  :title: 横瀬町で「横瀬 鯉のぼり祭り」　横瀬川上空に こいのぼり180旒
- :id: 272
  :src: https://chichibu.keizai.biz/mapnews/272
  :lat: 35.9948817
  :lng: 139.0840213
  :link: https://chichibu.keizai.biz/headline/272/
  :date: 2022.04.26
  :image: https://images.keizai.biz/chichibu_keizai/headline/1650936118_photo.jpg
  :title: 秩父神社の表参道にレンタルサロン「アースラウンジ」曜日貸しも
- :id: 271
  :src: https://chichibu.keizai.biz/mapnews/271
  :lat: 35.9873397
  :lng: 139.1000677
  :link: https://chichibu.keizai.biz/headline/271/
  :date: 2022.04.25
  :image: https://images.keizai.biz/chichibu_keizai/headline/1650787436_photo.jpg
  :title: 横瀬町が「パートナーシップ宣誓制度」　秩父郡市で初導入
- :id: 270
  :src: https://chichibu.keizai.biz/mapnews/270
  :lat: 36.0644106
  :lng: 139.183843
  :link: https://chichibu.keizai.biz/headline/270/
  :date: 2022.04.22
  :image: https://images.keizai.biz/chichibu_keizai/headline/1650535635_photo.jpg
  :title: 東秩父村にテイクアウトカフェ「であそぶキッチン」　築150年の古民家再生
- :id: 269
  :src: https://chichibu.keizai.biz/mapnews/269
  :lat: 35.9988245
  :lng: 139.0794146
  :link: https://chichibu.keizai.biz/headline/269/
  :date: 2022.04.21
  :image: https://images.keizai.biz/chichibu_keizai/headline/1650448271_photo.jpg
  :title: 小鹿野町・皆野町で親子ワーケーション、程よいバケーションと仕事の成果を
- :id: 268
  :src: https://chichibu.keizai.biz/mapnews/268
  :lat: 35.9211458
  :lng: 138.9330945
  :link: https://chichibu.keizai.biz/headline/268/
  :date: 2022.04.19
  :image: https://images.keizai.biz/chichibu_keizai/headline/1650339801_photo.jpg
  :title: 秩父・三峯神社で献血キャンペーン　対象者に「献血守」授与
- :id: 267
  :src: https://chichibu.keizai.biz/mapnews/267
  :lat: 35.9975458
  :lng: 139.0802324
  :link: https://chichibu.keizai.biz/headline/267/
  :date: 2022.04.18
  :image: https://images.keizai.biz/chichibu_keizai/headline/1650263454_photo.jpg
  :title: 秩父・道生に鍼灸院　ちちぶ空き家バンクが契機となり都内から移転
- :id: 266
  :src: https://chichibu.keizai.biz/mapnews/266
  :lat: 35.9988245
  :lng: 139.0794146
  :link: https://chichibu.keizai.biz/headline/266/
  :date: 2022.04.15
  :image: https://images.keizai.biz/chichibu_keizai/headline/1650024615_photo.jpg
  :title: SLで結婚披露宴　秩父鉄道が「SLパレオエクスプレス」ウェディングプラン
- :id: 265
  :src: https://chichibu.keizai.biz/mapnews/265
  :lat: 35.987286
  :lng: 139.100051
  :link: https://chichibu.keizai.biz/headline/265/
  :date: 2022.04.14
  :image: https://images.keizai.biz/chichibu_keizai/headline/1649860043_photo.jpg
  :title: 横瀬町、アステナミネルヴァとアナザーワークスとウオーキングで三者連携協定
- :id: 264
  :src: https://chichibu.keizai.biz/mapnews/264
  :lat: 35.9543941
  :lng: 139.0121265
  :link: https://chichibu.keizai.biz/headline/264/
  :date: 2022.04.13
  :image: https://images.keizai.biz/chichibu_keizai/headline/1649777110_photo.jpg
  :title: 秩父・荒川「手打ち蕎麦 あづまや園」、冷凍そばをオンライン販売
- :id: 263
  :src: https://chichibu.keizai.biz/mapnews/263
  :lat: 36.1168865
  :lng: 139.1051806
  :link: https://chichibu.keizai.biz/headline/263/
  :date: 2022.04.12
  :image: https://images.keizai.biz/chichibu_keizai/headline/1649636591_photo.jpg
  :title: 長瀞「アムスハウス＆フレンズ」が10周年　ラフティング・パックラフト体験
- :id: 262
  :src: https://chichibu.keizai.biz/mapnews/262
  :lat: 35.9417327
  :lng: 139.1158115
  :link: https://chichibu.keizai.biz/headline/262/
  :date: 2022.04.11
  :image: https://images.keizai.biz/chichibu_keizai/headline/1649582458_photo.jpg
  :title: 武甲山登山口に常設観光トイレ　循環式浄化システム採用し利用開始へ
- :id: 261
  :src: https://chichibu.keizai.biz/mapnews/261
  :lat: 36.0205003
  :lng: 139.0024281
  :link: https://chichibu.keizai.biz/headline/261/
  :date: 2022.04.08
  :image: https://images.keizai.biz/chichibu_keizai/headline/1649323118_photo.jpg
  :title: "「竹あかり」を見ながら食事　小鹿野町の須崎旅館が限定宿泊プラン"
- :id: 260
  :src: https://chichibu.keizai.biz/mapnews/260
  :lat: 35.9982006
  :lng: 139.0831135
  :link: https://chichibu.keizai.biz/headline/260/
  :date: 2022.04.06
  :image: https://images.keizai.biz/chichibu_keizai/headline/1649152320_photo.jpg
  :title: 秩父のインスタグラマーがリアル写真展　総フォロワー数7万人超
- :id: 259
  :src: https://chichibu.keizai.biz/mapnews/259
  :lat: 36.0060586
  :lng: 139.0624752
  :link: https://chichibu.keizai.biz/headline/259/
  :date: 2022.04.05
  :image: https://images.keizai.biz/chichibu_keizai/headline/1649123262_photo.jpg
  :title: 秩父の10カ所に「雨情枝垂」を植樹　野口雨情ゆかりの地に
- :id: 258
  :src: https://chichibu.keizai.biz/mapnews/258
  :lat: 35.9986417
  :lng: 139.0857777
  :link: https://chichibu.keizai.biz/headline/258/
  :date: 2022.04.02
  :image: https://images.keizai.biz/chichibu_keizai/headline/1648863243_photo.jpg
  :title: 秩父「じばさん商店」がリニューアル　オール秩父で店作り
- :id: 257
  :src: https://chichibu.keizai.biz/mapnews/257
  :lat: 36.0621317
  :lng: 139.1011929
  :link: https://chichibu.keizai.biz/headline/257/
  :date: 2022.03.31
  :image: https://images.keizai.biz/chichibu_keizai/headline/1648722618_photo.jpg
  :title: 皆野町mahora稲穂山・森の美術館で香本博さん個展「やまない風」
- :id: 256
  :src: https://chichibu.keizai.biz/mapnews/256
  :lat: 35.9602929
  :lng: 139.0502359
  :link: https://chichibu.keizai.biz/headline/256/
  :date: 2022.03.30
  :image: https://images.keizai.biz/chichibu_keizai/headline/1648628461_photo.jpg
  :title: 秩父のカプセルトイ店「チチブノイリグチ　チチブノデグチ」、長泉院に出店
- :id: 255
  :src: https://chichibu.keizai.biz/mapnews/255
  :lat: 36.0047508
  :lng: 139.0823915
  :link: https://chichibu.keizai.biz/headline/255/
  :date: 2022.03.29
  :image: https://images.keizai.biz/chichibu_keizai/headline/1648479448_photo.jpg
  :title: 秩父「パティスリールリアン」が5周年　記念でスタンプラリーも
- :id: 254
  :src: https://chichibu.keizai.biz/mapnews/254
  :lat: 35.9867151
  :lng: 139.1029498
  :link: https://chichibu.keizai.biz/headline/254/
  :date: 2022.03.28
  :image: https://images.keizai.biz/chichibu_keizai/headline/1648387253_photo.jpg
  :title: "「横瀬の人形芝居舞台」県有形民俗文化財に指定"
- :id: 253
  :src: https://chichibu.keizai.biz/mapnews/253
  :lat: 35.9986417
  :lng: 139.0857777
  :link: https://chichibu.keizai.biz/headline/253/
  :date: 2022.03.25
  :image: https://images.keizai.biz/chichibu_keizai/headline/1648129925_photo.jpg
  :title: 秩父の木製品ブランドを展示・販売　木製品を藍染めした商品も
- :id: 252
  :src: https://chichibu.keizai.biz/mapnews/252
  :lat: 35.9988245
  :lng: 139.0794146
  :link: https://chichibu.keizai.biz/headline/252/
  :date: 2022.03.24
  :image: https://images.keizai.biz/chichibu_keizai/headline/1648079230_photo.jpg
  :title: 秩父「大地のいちご・あまりん」、コロンバンのワッフルに再び採用
- :id: 251
  :src: https://chichibu.keizai.biz/mapnews/251
  :lat: 36.070856
  :lng: 139.098724
  :link: https://chichibu.keizai.biz/headline/251/
  :date: 2022.03.23
  :image: https://images.keizai.biz/chichibu_keizai/headline/1647957852_photo.jpg
  :title: 皆野町で「サンデーラリー」　クラシックカー61台が出走・展示
- :id: 250
  :src: https://chichibu.keizai.biz/mapnews/250
  :lat: 36.105016
  :lng: 139.114251
  :link: https://chichibu.keizai.biz/headline/250/
  :date: 2022.03.22
  :image: https://images.keizai.biz/chichibu_keizai/headline/1647869250_photo.jpg
  :title: 長瀞オートキャンプ場で「長瀞外遊」　アウトドアと環境問題を軸に開催
- :id: 249
  :src: https://chichibu.keizai.biz/mapnews/249
  :lat: 36.0060586
  :lng: 139.0624752
  :link: https://chichibu.keizai.biz/headline/249/
  :date: 2022.03.19
  :image: https://images.keizai.biz/chichibu_keizai/headline/1647522798_photo.jpg
  :title: 秩父の音楽寺で「レコード針供養」　ナガオカトレーディングが今年も
- :id: 248
  :src: https://chichibu.keizai.biz/mapnews/248
  :lat: 36.0443343
  :lng: 139.2846918
  :link: https://chichibu.keizai.biz/headline/248/
  :date: 2022.03.18
  :image: https://images.keizai.biz/chichibu_keizai/headline/1647509698_photo.jpg
  :title: 小川町・槻川にキャッチ＆リリースのフィッシングエリア　5月までプレオープン
- :id: 247
  :src: https://chichibu.keizai.biz/mapnews/247
  :lat: 35.9815824
  :lng: 139.0995883
  :link: https://chichibu.keizai.biz/headline/247/
  :date: 2022.03.17
  :image: https://images.keizai.biz/chichibu_keizai/headline/1647390606_photo.jpg
  :title: 横瀬町で「スプリングウォーク」　ポニー乗馬体験やコンサートなど多彩に
- :id: 246
  :src: https://chichibu.keizai.biz/mapnews/246
  :lat: 36.0310858
  :lng: 139.1140651
  :link: https://chichibu.keizai.biz/headline/246/
  :date: 2022.03.16
  :image: https://images.keizai.biz/chichibu_keizai/headline/1647350888_photo.jpg
  :title: みそぽてと本舗のみそポテト、スーパー「ベルク」全店で販売開始
- :id: 245
  :src: https://chichibu.keizai.biz/mapnews/245
  :lat: 36.0539783
  :lng: 139.2039847
  :link: https://chichibu.keizai.biz/headline/245/
  :date: 2022.03.15
  :image: https://images.keizai.biz/chichibu_keizai/headline/1647263728_photo.jpg
  :title: 東秩父村の紙すき家屋で「大河原和紙 紙すき体験」
- :id: 244
  :src: https://chichibu.keizai.biz/mapnews/244
  :lat: 36.1007893
  :lng: 139.1093265
  :link: https://chichibu.keizai.biz/headline/244/
  :date: 2022.03.14
  :image: https://images.keizai.biz/chichibu_keizai/headline/1647101268_photo.jpg
  :title: おからクッキーお土産セット　長瀞「お豆ふ処うめだ屋」が発売
- :id: 243
  :src: https://chichibu.keizai.biz/mapnews/243
  :lat: 36.024987
  :lng: 138.997216
  :link: https://chichibu.keizai.biz/headline/243/
  :date: 2022.03.11
  :image: https://images.keizai.biz/chichibu_keizai/headline/1646924028_photo.jpg
  :title: 小鹿野高校の魅力をラジオで紹介　ちちぶエフエムが3月限定番組
- :id: 242
  :src: https://chichibu.keizai.biz/mapnews/242
  :lat: 36.0069217
  :lng: 138.9721062
  :link: https://chichibu.keizai.biz/headline/242/
  :date: 2022.03.10
  :image: https://images.keizai.biz/chichibu_keizai/headline/1646833149_photo.jpg
  :title: 小鹿野町の児童、かつてにぎやかだった縁日や市を再現
- :id: 241
  :src: https://chichibu.keizai.biz/mapnews/241
  :lat: 35.9883387
  :lng: 138.9519294
  :link: https://chichibu.keizai.biz/headline/241/
  :date: 2022.03.09
  :image: https://images.keizai.biz/chichibu_keizai/headline/1646769297_photo.jpg
  :title: 奥秩父小鹿野町両神・自生地の「節分草」が見頃に　寒さと雪で半月遅れ
- :id: 240
  :src: https://chichibu.keizai.biz/mapnews/240
  :lat: 35.9988245
  :lng: 139.0794146
  :link: https://chichibu.keizai.biz/headline/240/
  :date: 2022.03.07
  :image: https://images.keizai.biz/chichibu_keizai/headline/1646569732_photo.jpg
  :title: 横瀬町の「一棟貸切宿 teihaku秩父」、卒業旅行生を応援
- :id: 239
  :src: https://chichibu.keizai.biz/mapnews/239
  :lat: 35.9988245
  :lng: 139.0794146
  :link: https://chichibu.keizai.biz/headline/239/
  :date: 2022.03.04
  :image: https://images.keizai.biz/chichibu_keizai/headline/1646232501_photo.jpg
  :title: 小鹿野産エゴマを使った「荏胡麻オイル」発売　遊休農地で栽培
- :id: 238
  :src: https://chichibu.keizai.biz/mapnews/238
  :lat: 35.9997856
  :lng: 139.0811006
  :link: https://chichibu.keizai.biz/headline/238/
  :date: 2022.03.03
  :image: https://images.keizai.biz/chichibu_keizai/headline/1646214917_photo.jpg
  :title: 秩父の古民家コワーキングスペースで「梅まつり」　ハンドメイド雑貨販売など
- :id: 237
  :src: https://chichibu.keizai.biz/mapnews/237
  :lat: 36.0152906
  :lng: 139.0356527
  :link: https://chichibu.keizai.biz/headline/237/
  :date: 2022.03.02
  :image: https://images.keizai.biz/chichibu_keizai/headline/1646199928_photo.jpg
  :title: 小鹿野のイチゴ農園「いちご畑ハルノヒ」で就業体験　大学生が参加
- :id: 236
  :src: https://chichibu.keizai.biz/mapnews/236
  :lat: 36.0621317
  :lng: 139.1011929
  :link: https://chichibu.keizai.biz/headline/236/
  :date: 2022.02.28
  :image: https://images.keizai.biz/chichibu_keizai/headline/1646019778_photo.jpg
  :title: 皆野町「リトリートフィールドMahora稲穂山」、秩父紅の見頃迎える
- :id: 235
  :src: https://chichibu.keizai.biz/mapnews/235
  :lat: 36.0763412
  :lng: 139.1141441
  :link: https://chichibu.keizai.biz/headline/235/
  :date: 2022.02.26
  :image: https://images.keizai.biz/chichibu_keizai/headline/1645848199_photo.jpg
  :title: 皆野町「パン屋coco」、営業再開から3カ月　自家製チャーシューも販売
- :id: 234
  :src: https://chichibu.keizai.biz/mapnews/234
  :lat: 35.9516722
  :lng: 138.9625194
  :link: https://chichibu.keizai.biz/headline/234/
  :date: 2022.02.25
  :image: https://images.keizai.biz/chichibu_keizai/headline/1645696564_photo.jpg
  :title: 奥秩父源流元気プロジェクト、秩父市大滝地区の魅力伝える看板新設
- :id: 233
  :src: https://chichibu.keizai.biz/mapnews/233
  :lat: 35.9751388
  :lng: 139.132283
  :link: https://chichibu.keizai.biz/headline/233/
  :date: 2022.02.22
  :image: https://images.keizai.biz/chichibu_keizai/headline/1645434915_photo.jpg
  :title: 横瀬町の「あしがくぼの氷柱」公開期間延長、27日まで
- :id: 232
  :src: https://chichibu.keizai.biz/mapnews/232
  :lat: 35.989431
  :lng: 139.1062357
  :link: https://chichibu.keizai.biz/headline/232/
  :date: 2022.02.21
  :image: https://images.keizai.biz/chichibu_keizai/headline/1645419831_photo.jpg
  :title: 横瀬町の寺坂棚田、農林水産省「つなぐ棚田遺産」に選出
- :id: 231
  :src: https://chichibu.keizai.biz/mapnews/231
  :lat: 35.9976189
  :lng: 139.0841388
  :link: https://chichibu.keizai.biz/headline/231/
  :date: 2022.02.18
  :image: https://images.keizai.biz/chichibu_keizai/headline/1645092031_photo.jpg
  :title: 秩父商栄組合、秩父神社で江戸時代から所有する古文書展示
- :id: 230
  :src: https://chichibu.keizai.biz/mapnews/230
  :lat: 35.9871306
  :lng: 139.1037
  :link: https://chichibu.keizai.biz/headline/230/
  :date: 2022.02.16
  :image: https://images.keizai.biz/chichibu_keizai/headline/1644928302_photo.jpg
  :title: 横瀬町のチャレンジキッチンENgaWAで「大豆フェス」　大豆メニューを販売
- :id: 229
  :src: https://chichibu.keizai.biz/mapnews/229
  :lat: 35.9751388
  :lng: 139.132283
  :link: https://chichibu.keizai.biz/headline/229/
  :date: 2022.02.15
  :image: https://images.keizai.biz/chichibu_keizai/headline/1644731461_photo.jpg
  :title: 音楽ユニット「はづるこ」、あしがくぼ氷柱会場で3年ぶりにミニコンサート
- :id: 228
  :src: https://chichibu.keizai.biz/mapnews/228
  :lat: 36.0142353
  :lng: 139.0306052
  :link: https://chichibu.keizai.biz/headline/228/
  :date: 2022.02.14
  :image: https://images.keizai.biz/chichibu_keizai/headline/1644729628_photo.jpg
  :title: 英語でバレンタインメッセージカード作り　小鹿野町の英会話スクールが指導
- :id: 227
  :src: https://chichibu.keizai.biz/mapnews/227
  :lat: 35.9975977
  :lng: 139.0846341
  :link: https://chichibu.keizai.biz/headline/227/
  :date: 2022.02.11
  :image: https://images.keizai.biz/chichibu_keizai/headline/1644532510_photo.jpg
  :title: 秩父神社で「節分追儺祭」　境内にたくさんの鬼、泣いて笑って厄払い
- :id: 226
  :src: https://chichibu.keizai.biz/mapnews/226
  :lat: 35.9906067
  :lng: 139.0848501
  :link: https://chichibu.keizai.biz/headline/226/
  :date: 2022.02.10
  :image: https://images.keizai.biz/chichibu_keizai/headline/1644447960_photo.jpg
  :title: 秩父「チャレンジショップ」飲食店の経営志願者を、秩父地域おもてなし観光公社が募集
- :id: 225
  :src: https://chichibu.keizai.biz/mapnews/225
  :lat: 35.9988245
  :lng: 139.0794146
  :link: https://chichibu.keizai.biz/headline/225/
  :date: 2022.02.09
  :image: https://images.keizai.biz/chichibu_keizai/headline/1644375338_photo.jpg
  :title: 秩父・ただかね農園のイチゴ、洋菓子店「コロンバン」のワッフルに採用
- :id: 224
  :src: https://chichibu.keizai.biz/mapnews/224
  :lat: 36.0205003
  :lng: 139.0024281
  :link: https://chichibu.keizai.biz/headline/224/
  :date: 2022.02.09
  :image: https://images.keizai.biz/chichibu_keizai/headline/1644317536_photo.jpg
  :title: 小鹿野町・須崎旅館に限定「お抹茶カフェ」　尾ノ内渓谷氷柱公開に合わせ
- :id: 223
  :src: https://chichibu.keizai.biz/mapnews/223
  :lat: 35.9988245
  :lng: 139.0794146
  :link: https://chichibu.keizai.biz/headline/223/
  :date: 2022.02.08
  :image: https://images.keizai.biz/chichibu_keizai/headline/1644230888_photo.jpg
  :title: 横瀬町に「一棟貸切宿 teihaku秩父」半露天風呂付き
- :id: 222
  :src: https://chichibu.keizai.biz/mapnews/222
  :lat: 36.0048107
  :lng: 138.9711634
  :link: https://chichibu.keizai.biz/headline/222/
  :date: 2022.02.07
  :image: https://images.keizai.biz/chichibu_keizai/headline/1644153462_photo.jpg
  :title: "「埼玉クラフトコーラ1／63 秩父黄金かぼす」販売開始　完熟カボス新商品"
- :id: 221
  :src: https://chichibu.keizai.biz/mapnews/221
  :lat: 36.0842976
  :lng: 139.1031867
  :link: https://chichibu.keizai.biz/headline/221/
  :date: 2022.02.04
  :image: https://images.keizai.biz/chichibu_keizai/headline/1643931039_photo.jpg
  :title: 長瀞の宝登山、ロウバイの甘い香りに包まれ見頃に
- :id: 220
  :src: https://chichibu.keizai.biz/mapnews/220
  :lat: 36.072999
  :lng: 139.0878629
  :link: https://chichibu.keizai.biz/headline/220/
  :date: 2022.02.04
  :image: https://images.keizai.biz/chichibu_keizai/headline/1643901631_photo.jpg
  :title: 皆野町にワーケーション施設　大正の文豪をイメージした部屋や3Dプリンタも
- :id: 219
  :src: https://chichibu.keizai.biz/mapnews/219
  :lat: 36.0355133
  :lng: 139.1067994
  :link: https://chichibu.keizai.biz/headline/219/
  :date: 2022.02.03
  :image: https://images.keizai.biz/chichibu_keizai/headline/1643794028_photo.jpg
  :title: 秩父市出身のダンサー、憧れのNFLダンサーオーディションに再挑戦
- :id: 218
  :src: https://chichibu.keizai.biz/mapnews/218
  :lat: 35.9462045
  :lng: 139.023429
  :link: https://chichibu.keizai.biz/headline/218/
  :date: 2022.02.02
  :image: https://images.keizai.biz/chichibu_keizai/headline/1643717989_photo.jpg
  :title: 奥秩父「そば処 和味」、寒ざらしそば の仕込み作業始まる
- :id: 217
  :src: https://chichibu.keizai.biz/mapnews/217
  :lat: 36.0621317
  :lng: 139.1011929
  :link: https://chichibu.keizai.biz/headline/217/
  :date: 2022.02.01
  :image: https://images.keizai.biz/chichibu_keizai/headline/1643606959_photo.jpg
  :title: 皆野町のMahora稲穂山で「銘仙展・紡いでいく絹衣」
- :id: 216
  :src: https://chichibu.keizai.biz/mapnews/216
  :lat: 36.1068101
  :lng: 139.1838291
  :link: https://chichibu.keizai.biz/headline/216/
  :date: 2022.01.31
  :image: https://images.keizai.biz/chichibu_keizai/headline/1643548458_photo.jpg
  :title: 寄居町「里の駅アグリン館」、チョコシフォンケーキを予約販売　バレンタイン限定
- :id: 215
  :src: https://chichibu.keizai.biz/mapnews/215
  :lat: 35.9855792
  :lng: 139.0867842
  :link: https://chichibu.keizai.biz/headline/215/
  :date: 2022.01.31
  :image: https://images.keizai.biz/chichibu_keizai/headline/1643500238_photo.jpg
  :title: 秩父の「旅館比与志」に未来型パウダールーム　宇宙船内をイメージ
- :id: 214
  :src: https://chichibu.keizai.biz/mapnews/214
  :lat: 35.945006
  :lng: 138.925166
  :link: https://chichibu.keizai.biz/headline/214/
  :date: 2022.01.28
  :image: https://images.keizai.biz/chichibu_keizai/headline/1643294766_photo.jpg
  :title: 奥秩父大滝 「三十槌の氷柱」　ライトアップスタート
- :id: 213
  :src: https://chichibu.keizai.biz/mapnews/213
  :lat: 35.9867151
  :lng: 139.1029498
  :link: https://chichibu.keizai.biz/headline/213/
  :date: 2022.01.27
  :image: https://images.keizai.biz/chichibu_keizai/headline/1643236023_photo.jpg
  :title: 横瀬町で「25歳の成人式」　帰ってきたくなる町でありたい
- :id: 212
  :src: https://chichibu.keizai.biz/mapnews/212
  :lat: 35.9916545
  :lng: 139.0855991
  :link: https://chichibu.keizai.biz/headline/212/
  :date: 2022.01.27
  :image: https://images.keizai.biz/chichibu_keizai/headline/1643201942_photo.jpg
  :title: 秩父宮記念市民会館で合同就職面接会　地元企業64社参加
- :id: 211
  :src: https://chichibu.keizai.biz/mapnews/211
  :lat: 36.0458379
  :lng: 138.8657428
  :link: https://chichibu.keizai.biz/headline/211/
  :date: 2022.01.26
  :image: https://images.keizai.biz/chichibu_keizai/headline/1643103812_photo.jpg
  :title: 小鹿野町で3年ぶりの「氷柱ライトアップ」　寒さで過去最高の育ちに
- :id: 210
  :src: https://chichibu.keizai.biz/mapnews/210
  :lat: 36.0519012
  :lng: 139.203975
  :link: https://chichibu.keizai.biz/headline/210/
  :date: 2022.01.25
  :image: https://images.keizai.biz/chichibu_keizai/headline/1643028030_photo.jpg
  :title: 東秩父村で伝統の和紙を紹介するオンラインイベント
- :id: 209
  :src: https://chichibu.keizai.biz/mapnews/209
  :lat: 35.9810954
  :lng: 139.110827
  :link: https://chichibu.keizai.biz/headline/209/
  :date: 2022.01.24
  :image: https://images.keizai.biz/chichibu_keizai/headline/1642977576_photo.jpg
  :title: 横瀬町のタテノイト、「なぜ？」「やってみたい」に寄り添うイベントを
- :id: 208
  :src: https://chichibu.keizai.biz/mapnews/208
  :lat: 35.9987934
  :lng: 139.0858166
  :link: https://chichibu.keizai.biz/headline/208/
  :date: 2022.01.20
  :image: https://images.keizai.biz/chichibu_keizai/headline/1642599958_photo.jpg
  :title: 秩父俳句連盟が「新春俳句短冊展」　86点を展示
- :id: 207
  :src: https://chichibu.keizai.biz/mapnews/207
  :lat: 35.9905948
  :lng: 139.0872775
  :link: https://chichibu.keizai.biz/headline/207/
  :date: 2022.01.18
  :image: https://images.keizai.biz/chichibu_keizai/headline/1642460607_photo.jpg
  :title: ちちぶ銘仙館・捺染講座受講生の作品展「秩父銘仙 花灯路」
- :id: 206
  :src: https://chichibu.keizai.biz/mapnews/206
  :lat: 35.9751388
  :lng: 139.132283
  :link: https://chichibu.keizai.biz/headline/206/
  :date: 2022.01.17
  :image: https://images.keizai.biz/chichibu_keizai/headline/1642377587_photo.jpg
  :title: 横瀬町で「あしがくぼの氷柱」　過去一番の出来で公開
- :id: 205
  :src: https://chichibu.keizai.biz/mapnews/205
  :lat: 35.9986417
  :lng: 139.0857777
  :link: https://chichibu.keizai.biz/headline/205/
  :date: 2022.01.14
  :image: https://images.keizai.biz/chichibu_keizai/headline/1642117811_photo.jpg
  :title: 秩父地域全ての地酒を提供　地場産センターに期間限定店「ちちぶ乾杯共和国」
- :id: 204
  :src: https://chichibu.keizai.biz/mapnews/204
  :lat: 36.0007666
  :lng: 139.0741351
  :link: https://chichibu.keizai.biz/headline/204/
  :date: 2022.01.14
  :image: https://images.keizai.biz/chichibu_keizai/headline/1642106717_photo.jpg
  :title: 舞妓風に支度した成人者を式典会場まで人力車でお練り　秩父初
- :id: 203
  :src: https://chichibu.keizai.biz/mapnews/203
  :lat: 35.9906067
  :lng: 139.0848501
  :link: https://chichibu.keizai.biz/headline/203/
  :date: 2022.01.13
  :image: https://images.keizai.biz/chichibu_keizai/headline/1642061607_photo.jpg
  :title: 秩父の特産物を使ったチーズケーキ、女子栄養大とコラボ商品化
- :id: 202
  :src: https://chichibu.keizai.biz/mapnews/202
  :lat: 35.9988245
  :lng: 139.0794146
  :link: https://chichibu.keizai.biz/headline/202/
  :date: 2022.01.12
  :image: https://images.keizai.biz/chichibu_keizai/headline/1641906851_photo.jpg
  :title: ちちぶ雇用活性化協議会、都内の転職イベントに初出展
- :id: 201
  :src: https://chichibu.keizai.biz/mapnews/201
  :lat: 36.0980274
  :lng: 139.1102643
  :link: https://chichibu.keizai.biz/headline/201/
  :date: 2022.01.11
  :image: https://images.keizai.biz/chichibu_keizai/headline/1641824722_photo.jpg
  :title: 長瀞町で「9歳で空へ旅立った美結ちゃんがつなぐ人と命の作品展」
- :id: 200
  :src: https://chichibu.keizai.biz/mapnews/200
  :lat: 36.1188322
  :lng: 139.1956104
  :link: https://chichibu.keizai.biz/headline/200/
  :date: 2022.01.08
  :image: https://images.keizai.biz/chichibu_keizai/headline/1641560376_photo.jpg
  :title: 寄居町で成人式　地元特産のミカンを使ったジュースで乾杯
- :id: 199
  :src: https://chichibu.keizai.biz/mapnews/199
  :lat: 35.9884958
  :lng: 139.1011929
  :link: https://chichibu.keizai.biz/headline/199/
  :date: 2022.01.07
  :image: https://images.keizai.biz/chichibu_keizai/headline/1641471261_photo.jpg
  :title: 横瀬小学校、木質化した新校舎を一般公開
- :id: 198
  :src: https://chichibu.keizai.biz/mapnews/198
  :lat: 36.114728
  :lng: 139.1096227
  :link: https://chichibu.keizai.biz/headline/198/
  :date: 2022.01.06
  :image: https://images.keizai.biz/chichibu_keizai/headline/1641390650_photo.jpg
  :title: カリンのペースト「ながとろ花梨」の販売始まる
- :id: 197
  :src: https://chichibu.keizai.biz/mapnews/197
  :lat: 36.1068101
  :lng: 139.1838291
  :link: https://chichibu.keizai.biz/headline/197/
  :date: 2022.01.05
  :image: https://images.keizai.biz/chichibu_keizai/headline/1641329341_photo.jpg
  :title: 寄居町産ミカンを使った果汁100％ジュース、生産ピーク
- :id: 196
  :src: https://chichibu.keizai.biz/mapnews/196
  :lat: 35.9871306
  :lng: 139.1037
  :link: https://chichibu.keizai.biz/headline/196/
  :date: 2022.01.04
  :image: https://images.keizai.biz/chichibu_keizai/headline/1641210469_photo.jpg
  :title: 横瀬町のチャレンジキッチン「ENgaWA」で初のイベント
- :id: 195
  :src: https://chichibu.keizai.biz/mapnews/195
  :lat: 35.9986417
  :lng: 139.0857777
  :link: https://chichibu.keizai.biz/headline/195/
  :date: 2021.12.28
  :image: https://images.keizai.biz/chichibu_keizai/headline/1640677198_photo.jpg
  :title: 秩父に初のストリートピアノ　「思い出のピアノ」としてオープニングセレモニー
- :id: 194
  :src: https://chichibu.keizai.biz/mapnews/194
  :lat: 35.9873397
  :lng: 139.1000677
  :link: https://chichibu.keizai.biz/headline/194/
  :date: 2021.12.27
  :image: https://images.keizai.biz/chichibu_keizai/headline/1640537848_photo.jpg
  :title: 横瀬町の大学生、「遊べる筋トレゲーム」でクラウドファウンディング
- :id: 193
  :src: https://chichibu.keizai.biz/mapnews/193
  :lat: 36.0252269
  :lng: 138.9975589
  :link: https://chichibu.keizai.biz/headline/193/
  :date: 2021.12.26
  :image: https://images.keizai.biz/chichibu_keizai/headline/1640429085_photo.jpg
  :title: 秩父市・祭の湯で初開催の幻想的な光で夜を彩るツリーと竹あかり点灯式
- :id: 192
  :src: https://chichibu.keizai.biz/mapnews/192
  :lat: 36.0158151
  :lng: 139.0860934
  :link: https://chichibu.keizai.biz/headline/192/
  :date: 2021.12.25
  :image: https://images.keizai.biz/chichibu_keizai/headline/1640360416_photo.jpg
  :title: 秩父のリフロー電子、2年ぶりのイルミネーション　社長が自作
- :id: 191
  :src: https://chichibu.keizai.biz/mapnews/191
  :lat: 36.0392235
  :lng: 139.0322745
  :link: https://chichibu.keizai.biz/headline/191/
  :date: 2021.12.25
  :image: https://images.keizai.biz/chichibu_keizai/headline/1640358684_photo.jpg
  :title: 秩父の兎田ワイナリー、秩父産ブドウ「ちちぶ山ルビー」を使ったワイン発売
- :id: 190
  :src: https://chichibu.keizai.biz/mapnews/190
  :lat: 36.0283374
  :lng: 139.0265635
  :link: https://chichibu.keizai.biz/headline/190/
  :date: 2021.12.24
  :image: https://images.keizai.biz/chichibu_keizai/headline/1640269067_photo.jpg
  :title: 秩父・下吉田のゴルフ場で初のイルミネーション　光と音で演出
- :id: 189
  :src: https://chichibu.keizai.biz/mapnews/189
  :lat: 35.9995314
  :lng: 139.0852296
  :link: https://chichibu.keizai.biz/headline/189/
  :date: 2021.12.24
  :image: https://images.keizai.biz/chichibu_keizai/headline/1640265520_photo.jpg
  :title: 秩父に管理栄養士監修の「ヘルシーカフェ Chill 3lute（チルサルーテ）」
- :id: 188
  :src: https://chichibu.keizai.biz/mapnews/188
  :lat: 36.0519012
  :lng: 139.203975
  :link: https://chichibu.keizai.biz/headline/188/
  :date: 2021.12.23
  :image: https://images.keizai.biz/chichibu_keizai/headline/1640184412_photo.jpg
  :title: 東秩父の道の駅で今年最後の「和紙マルシェ」　オリジナルの時計作りなど
- :id: 187
  :src: https://chichibu.keizai.biz/mapnews/187
  :lat: 35.9991565
  :lng: 139.0854225
  :link: https://chichibu.keizai.biz/headline/187/
  :date: 2021.12.21
  :image: https://images.keizai.biz/chichibu_keizai/headline/1640015310_photo.jpg
  :title: 秩父丸通タクシー、1年9カ月ぶりに23時まで営業延長
- :id: 186
  :src: https://chichibu.keizai.biz/mapnews/186
  :lat: 35.9873397
  :lng: 139.1000677
  :link: https://chichibu.keizai.biz/headline/186/
  :date: 2021.12.22
  :image: https://images.keizai.biz/chichibu_keizai/headline/1639997877_photo.jpg
  :title: 横瀬町「日本一歩きたくなる町」プロジェクト 地球2周到達
- :id: 185
  :src: https://chichibu.keizai.biz/mapnews/185
  :lat: 35.9962822
  :lng: 139.0869026
  :link: https://chichibu.keizai.biz/headline/185/
  :date: 2021.12.19
  :image: https://images.keizai.biz/chichibu_keizai/headline/1639839174_photo.jpg
  :title: 秩父経・年間PV1位はバリ島のリゾートがテーマの多目的施設「ルアンスアラ」
- :id: 184
  :src: https://chichibu.keizai.biz/mapnews/184
  :lat: 36.0708172
  :lng: 139.0988043
  :link: https://chichibu.keizai.biz/headline/184/
  :date: 2021.12.20
  :image: https://images.keizai.biz/chichibu_keizai/headline/1639834576_photo.jpg
  :title: 皆野町でクラシックカー・ラリー初開催　愛好家が集まり秩父路を快走
- :id: 183
  :src: https://chichibu.keizai.biz/mapnews/183
  :lat: 35.8713405
  :lng: 139.3251984
  :link: https://chichibu.keizai.biz/headline/183/
  :date: 2021.12.17
  :image: https://images.keizai.biz/chichibu_keizai/headline/1639578577_photo.png
  :title: 西武鉄道、企画乗車券「ムーミンバレーパークおでかけパス」発売
- :id: 182
  :src: https://chichibu.keizai.biz/mapnews/182
  :lat: 36.0374841
  :lng: 139.0288335
  :link: https://chichibu.keizai.biz/headline/182/
  :date: 2021.12.16
  :image: https://images.keizai.biz/chichibu_keizai/headline/1639576444_photo.jpg
  :title: 秩父のただかね農園、「ワイン堆肥」で育てた「大地のいちご」収穫・直売始める
- :id: 181
  :src: https://chichibu.keizai.biz/mapnews/181
  :lat: 35.9818418
  :lng: 139.114539
  :link: https://chichibu.keizai.biz/headline/181/
  :date: 2021.12.15
  :image: https://images.keizai.biz/chichibu_keizai/headline/1639493451_photo.jpg
  :title: 横瀬町の総合観光農園「小松沢レジャー農園」、初のインターンシップ募集
- :id: 180
  :src: https://chichibu.keizai.biz/mapnews/180
  :lat: 36.1156686
  :lng: 139.2196199
  :link: https://chichibu.keizai.biz/headline/180/
  :date: 2021.12.14
  :image: https://images.keizai.biz/chichibu_keizai/headline/1639407921_photo.jpg
  :title: 寄居町「川の博物館」の大水車、3年ぶりにライトアップ
- :id: 179
  :src: https://chichibu.keizai.biz/mapnews/179
  :lat: 35.9873533
  :lng: 139.1005348
  :link: https://chichibu.keizai.biz/headline/179/
  :date: 2021.12.13
  :image: https://images.keizai.biz/chichibu_keizai/headline/1639303537_photo.jpg
  :title: 横瀬町「ヤッホーパン」が1周年　マスコットキャラ「たぬー展」も
- :id: 178
  :src: https://chichibu.keizai.biz/mapnews/178
  :lat: 35.9988245
  :lng: 139.0794146
  :link: https://chichibu.keizai.biz/headline/178/
  :date: 2021.12.10
  :image: https://images.keizai.biz/chichibu_keizai/headline/1639045439_photo.jpg
  :title: 秩父宮記念市民会館で三上隼さん10周年ホールワンマンライブ
- :id: 177
  :src: https://chichibu.keizai.biz/mapnews/177
  :lat: 35.9913752
  :lng: 139.0734791
  :link: https://chichibu.keizai.biz/headline/177/
  :date: 2021.12.09
  :image: https://images.keizai.biz/chichibu_keizai/headline/1638888224_photo.jpg
  :title: "「秩父高校生の姿をリアルに伝える新聞折り込み　同窓会の協力で実現」"
- :id: 176
  :src: https://chichibu.keizai.biz/mapnews/176
  :lat: 36.0981114
  :lng: 139.1102908
  :link: https://chichibu.keizai.biz/headline/176/
  :date: 2021.12.08
  :image: https://images.keizai.biz/chichibu_keizai/headline/1638880739_photo.jpg
  :title: 長瀞町に初のコワーキングスペース「UPDRAFT（アップドラフト）」
- :id: 175
  :src: https://chichibu.keizai.biz/mapnews/175
  :lat: 35.9988245
  :lng: 139.0794146
  :link: https://chichibu.keizai.biz/headline/175/
  :date: 2021.12.07
  :image: https://images.keizai.biz/chichibu_keizai/headline/1638792733_photo.jpg
  :title: 横瀬町のカフェ＆アトリエで個展　藍染め藍染袢纏（はんてん）からファッションアイテムへ
- :id: 174
  :src: https://chichibu.keizai.biz/mapnews/174
  :lat: 35.99161429999999
  :lng: 139.0955276
  :link: https://chichibu.keizai.biz/headline/174/
  :date: 2021.12.06
  :image: https://images.keizai.biz/chichibu_keizai/headline/1638713401_photo.jpg
  :title: 横瀬町ぽっぽ、「世界に1つだけのパンコンテスト」受賞3作品を来年販売へ
- :id: 173
  :src: https://chichibu.keizai.biz/mapnews/173
  :lat: 36.0428468
  :lng: 139.0350217
  :link: https://chichibu.keizai.biz/headline/173/
  :date: 2021.12.05
  :image: https://images.keizai.biz/chichibu_keizai/headline/1638655743_photo.jpg
  :title: 秩父の「笑（にこ）にゃんこ王国」、保護猫用の新シェルターに移転
- :id: 172
  :src: https://chichibu.keizai.biz/mapnews/172
  :lat: 35.9968285
  :lng: 139.0825651
  :link: https://chichibu.keizai.biz/headline/172/
  :date: 2021.12.04
  :image: https://images.keizai.biz/chichibu_keizai/headline/1638552484_photo.jpg
  :title: 秩父「小さな洋菓子店Spoon（スプーン）」が6周年　長年の夢を追いかけ開業
- :id: 171
  :src: https://chichibu.keizai.biz/mapnews/171
  :lat: 35.9988245
  :lng: 139.0794146
  :link: https://chichibu.keizai.biz/headline/171/
  :date: 2021.12.03
  :image: https://images.keizai.biz/chichibu_keizai/headline/1638537555_photo.jpg
  :title: 秩父公園橋のライトアップがLED照明に　プレ点灯は奉納花火と共演
- :id: 170
  :src: https://chichibu.keizai.biz/mapnews/170
  :lat: 36.0536126
  :lng: 139.2038168
  :link: https://chichibu.keizai.biz/headline/170/
  :date: 2021.12.03
  :image: https://images.keizai.biz/chichibu_keizai/headline/1638451236_photo.jpg
  :title: 手すき和紙の「卒業証書」　東秩父村で今年も2万枚製造
- :id: 169
  :src: https://chichibu.keizai.biz/mapnews/169
  :lat: 35.9916788
  :lng: 139.087021
  :link: https://chichibu.keizai.biz/headline/169/
  :date: 2021.12.02
  :image: https://images.keizai.biz/chichibu_keizai/headline/1638412884_photo.jpg
  :title: 秩父に「おやさいカレーagora」月曜のみ間借りでスパイスカレー提供
- :id: 168
  :src: https://chichibu.keizai.biz/mapnews/168
  :lat: 36.0519012
  :lng: 139.203975
  :link: https://chichibu.keizai.biz/headline/168/
  :date: 2021.12.01
  :image: https://images.keizai.biz/chichibu_keizai/headline/1638279124_photo.jpg
  :title: 道の駅 「和紙の里ひがしちちぶ」の御食事処で年越しそばの予約受け付け開始
- :id: 167
  :src: https://chichibu.keizai.biz/mapnews/167
  :lat: 36.0209862
  :lng: 139.0040538
  :link: https://chichibu.keizai.biz/headline/167/
  :date: 2021.11.30
  :image: https://images.keizai.biz/chichibu_keizai/headline/1638178127_photo.jpg
  :title: 小鹿野町で「花市と人形供養祭」　持ち込まれた1000体を神式で供養
- :id: 166
  :src: https://chichibu.keizai.biz/mapnews/166
  :lat: 36.0308152
  :lng: 138.9722932
  :link: https://chichibu.keizai.biz/headline/166/
  :date: 2021.11.29
  :image: https://images.keizai.biz/chichibu_keizai/headline/1638146203_photo.jpg
  :title: 小鹿野町・吉田牧場の触れ合い体験教室、小学生の受け入れ再開
- :id: 165
  :src: https://chichibu.keizai.biz/mapnews/165
  :lat: 35.9872839
  :lng: 139.1000149
  :link: https://chichibu.keizai.biz/headline/165/
  :date: 2021.11.28
  :image: https://images.keizai.biz/chichibu_keizai/headline/1638022874_photo.jpg
  :title: 横瀬町の遊休耕作地を活用した「横瀬ニンニクの会」が植え付け作業
- :id: 164
  :src: https://chichibu.keizai.biz/mapnews/164
  :lat: 35.9189443
  :lng: 138.8598651
  :link: https://chichibu.keizai.biz/headline/164/
  :date: 2021.11.27
  :image: https://images.keizai.biz/chichibu_keizai/headline/1637936092_photo.jpg
  :title: 秩父・大滝で紅葉を見ながら木工体験会　地産木材使う
- :id: 163
  :src: https://chichibu.keizai.biz/mapnews/163
  :lat: 35.9873397
  :lng: 139.1000677
  :link: https://chichibu.keizai.biz/headline/163/
  :date: 2021.11.26
  :image: https://images.keizai.biz/chichibu_keizai/headline/1637911935_photo.jpg
  :title: 横瀬町、ライフイズテックとプログラミング教育で連携協定締結
- :id: 162
  :src: https://chichibu.keizai.biz/mapnews/162
  :lat: 35.9704422
  :lng: 139.1024071
  :link: https://chichibu.keizai.biz/headline/162/
  :date: 2021.11.26
  :image: https://images.keizai.biz/chichibu_keizai/headline/1637855170_photo.jpg
  :title: 横瀬のカフェ＆アトリエ「なないろごはん」が1周年　「植物の動物化」がテーマ
- :id: 161
  :src: https://chichibu.keizai.biz/mapnews/161
  :lat: 35.9975977
  :lng: 139.0846341
  :link: https://chichibu.keizai.biz/headline/161/
  :date: 2021.11.25
  :image: https://images.keizai.biz/chichibu_keizai/headline/1637748610_photo.jpg
  :title: 秩父神社境内で「ちちぶむすび市」　伝統芸能と祭りを感じる夕べ
- :id: 160
  :src: https://chichibu.keizai.biz/mapnews/160
  :lat: 36.1176279
  :lng: 139.216178
  :link: https://chichibu.keizai.biz/headline/160/
  :date: 2021.11.24
  :image: https://images.keizai.biz/chichibu_keizai/headline/1637724790_photo.jpg
  :title: 寄居町・かわせみ河原が10カ月ぶりに開放　BBQなどでにぎわい
- :id: 159
  :src: https://chichibu.keizai.biz/mapnews/159
  :lat: 35.959994
  :lng: 138.891364
  :link: https://chichibu.keizai.biz/headline/159/
  :date: 2021.11.24
  :image: https://images.keizai.biz/chichibu_keizai/headline/1637683082_photo.jpg
  :title: 秩父滝沢サイクルパークで今季のBMXレース最終戦
- :id: 158
  :src: https://chichibu.keizai.biz/mapnews/158
  :lat: 35.9973917
  :lng: 139.0845541
  :link: https://chichibu.keizai.biz/headline/158/
  :date: 2021.11.23
  :image: https://images.keizai.biz/chichibu_keizai/headline/1637635999_photo.jpg
  :title: 2年ぶりの「秩父絹市」　人流抑制のため秩父夜祭と時期をずらして開催
- :id: 157
  :src: https://chichibu.keizai.biz/mapnews/157
  :lat: 35.9600563
  :lng: 139.0449701
  :link: https://chichibu.keizai.biz/headline/157/
  :date: 2021.11.23
  :image: https://images.keizai.biz/chichibu_keizai/headline/1637705813_photo.jpg
  :title: 秩父の豚玉丼の店「たぬ金亭」　全国丼グランプリ8年連続で金賞
- :id: 156
  :src: https://chichibu.keizai.biz/mapnews/156
  :lat: 36.0378389
  :lng: 139.0321838
  :link: https://chichibu.keizai.biz/headline/156/
  :date: 2021.11.22
  :image: https://images.keizai.biz/chichibu_keizai/headline/1637571826_photo.jpg
  :title: 秩父やまなみチーズ工房が3周年　地元の素材で製造
- :id: 155
  :src: https://chichibu.keizai.biz/mapnews/155
  :lat: 36.1156686
  :lng: 139.2196199
  :link: https://chichibu.keizai.biz/headline/155/
  :date: 2021.11.22
  :image: https://images.keizai.biz/chichibu_keizai/headline/1637504082_photo.jpg
  :title: 寄居町・川の博物館で「みんなで展覧会」　特別支援学校の生徒の作品展示
- :id: 154
  :src: https://chichibu.keizai.biz/mapnews/154
  :lat: 35.9566487
  :lng: 139.030408
  :link: https://chichibu.keizai.biz/headline/154/
  :date: 2021.11.21
  :image: https://images.keizai.biz/chichibu_keizai/headline/1637420770_photo.jpg
  :title: 秩父の「民宿すぎの子」でわらぶき屋根のふき替え
- :id: 153
  :src: https://chichibu.keizai.biz/mapnews/153
  :lat: 35.9551174
  :lng: 139.0281604
  :link: https://chichibu.keizai.biz/headline/153/
  :date: 2021.11.20
  :image: https://images.keizai.biz/chichibu_keizai/headline/1637333965_photo.jpg
  :title: 秩父出身のシンガーソングライター、三上隼さんが10周年ワンマンライブ
- :id: 152
  :src: https://chichibu.keizai.biz/mapnews/152
  :lat: 35.987286
  :lng: 139.100051
  :link: https://chichibu.keizai.biz/headline/152/
  :date: 2021.11.19
  :image: https://images.keizai.biz/chichibu_keizai/headline/1637279054_photo.jpg
  :title: "「ASTARIヨコゼウォーク」が始まる　歩数に応じて「幻のメニュー」"
- :id: 151
  :src: https://chichibu.keizai.biz/mapnews/151
  :lat: 35.985485
  :lng: 139.0978626
  :link: https://chichibu.keizai.biz/headline/151/
  :date: 2021.11.18
  :image: https://images.keizai.biz/chichibu_keizai/headline/1637204109_photo.jpg
  :title: 横瀬町でウオーキングイベント「里山まるマルシェ」　西武とも連携
- :id: 150
  :src: https://chichibu.keizai.biz/mapnews/150
  :lat: 36.0621317
  :lng: 139.1011929
  :link: https://chichibu.keizai.biz/headline/150/
  :date: 2021.11.18
  :image: https://images.keizai.biz/chichibu_keizai/headline/1637156806_photo.jpg
  :title: 皆野町で食と芸術と音楽の祭典「みなの里山アートピックフェス」
- :id: 149
  :src: https://chichibu.keizai.biz/mapnews/149
  :lat: 35.9915221
  :lng: 139.0864684
  :link: https://chichibu.keizai.biz/headline/149/
  :date: 2021.11.17
  :image: https://images.keizai.biz/chichibu_keizai/headline/1637109273_photo.jpg
  :title: 秩父市役所前に「石臼挽き粉使用 秩父肉汁そば 山寿」　極太そばと濃厚つゆ提供
- :id: 148
  :src: https://chichibu.keizai.biz/mapnews/148
  :lat: 35.9916788
  :lng: 139.087021
  :link: https://chichibu.keizai.biz/headline/148/
  :date: 2021.11.16
  :image: https://images.keizai.biz/chichibu_keizai/headline/1637033624_photo.jpg
  :title: 秩父の洋菓子店「パティスリーイシノ」が2周年　地元食材を活用
- :id: 147
  :src: https://chichibu.keizai.biz/mapnews/147
  :lat: 35.9962481
  :lng: 139.0842778
  :link: https://chichibu.keizai.biz/headline/147/
  :date: 2021.11.15
  :image: https://images.keizai.biz/chichibu_keizai/headline/1636968631_photo.jpg
  :title: 秩父神社前に秩父初の人力車「花鳥風月～秩父～」プレ営業開始
- :id: 146
  :src: https://chichibu.keizai.biz/mapnews/146
  :lat: 35.9892384
  :lng: 139.097632
  :link: https://chichibu.keizai.biz/headline/146/
  :date: 2021.11.15
  :image: https://images.keizai.biz/chichibu_keizai/headline/1636938376_photo.jpg
  :title: 横瀬町にモツ煮専門店「よこぜ食堂」　新たな秩父名物目指す
- :id: 145
  :src: https://chichibu.keizai.biz/mapnews/145
  :lat: 35.9867651
  :lng: 139.1023378
  :link: https://chichibu.keizai.biz/headline/145/
  :date: 2021.11.13
  :image: https://images.keizai.biz/chichibu_keizai/headline/1636735714_photo.jpg
  :title: 横瀬町の複合施設「AREA898」でネットショップ集中合宿　サウナで懇親も
- :id: 144
  :src: https://chichibu.keizai.biz/mapnews/144
  :lat: 35.9892442
  :lng: 139.0837844
  :link: https://chichibu.keizai.biz/headline/144/
  :date: 2021.11.11
  :image: https://images.keizai.biz/chichibu_keizai/headline/1636640762_photo.jpg
  :title: 埼玉県150周年を記念して「西武秩父駅前温泉祭の湯」で「ちちぶマルシェ」
- :id: 143
  :src: https://chichibu.keizai.biz/mapnews/143
  :lat: 36.0458379
  :lng: 138.8657428
  :link: https://chichibu.keizai.biz/headline/143/
  :date: 2021.11.12
  :image: https://images.keizai.biz/chichibu_keizai/headline/1636639616_photo.jpg
  :title: 小鹿野町・尾ノ内渓谷で「紅葉まつり」ダリアで彩り、つり橋ライトアップも
- :id: 142
  :src: https://chichibu.keizai.biz/mapnews/142
  :lat: 36.08847799999999
  :lng: 139.1162842
  :link: https://chichibu.keizai.biz/headline/142/
  :date: 2021.11.10
  :image: https://images.keizai.biz/chichibu_keizai/headline/1636535520_photo.jpg
  :title: 長瀞町で紅葉が見頃に「月の石もみじ公園」では2年ぶりにライトアップ
- :id: 141
  :src: https://chichibu.keizai.biz/mapnews/141
  :lat: 35.9984205
  :lng: 139.0782196
  :link: https://chichibu.keizai.biz/headline/141/
  :date: 2021.11.10
  :image: https://images.keizai.biz/chichibu_keizai/headline/1636466811_photo.jpg
  :title: 秩父のアトリエ＆雑貨店で「押し花教室展」イチゴも押し花に
- :id: 140
  :src: https://chichibu.keizai.biz/mapnews/140
  :lat: 35.9965581
  :lng: 138.9694496
  :link: https://chichibu.keizai.biz/headline/140/
  :date: 2021.11.09
  :image: https://images.keizai.biz/chichibu_keizai/headline/1636376126_photo.jpg
  :title: 小鹿野町エゴマカンパニーが収穫作業　12月には店頭へ
- :id: 139
  :src: https://chichibu.keizai.biz/mapnews/139
  :lat: 35.9986936
  :lng: 139.0858371
  :link: https://chichibu.keizai.biz/headline/139/
  :date: 2021.11.08
  :image: https://images.keizai.biz/chichibu_keizai/headline/1636358280_photo.jpg
  :title: 漫画「埼玉の女子高生ってどう思いますか？」と秩父鉄道がコラボ　記念乗車券も
- :id: 138
  :src: https://chichibu.keizai.biz/mapnews/138
  :lat: 36.0181773
  :lng: 139.0078574
  :link: https://chichibu.keizai.biz/headline/138/
  :date: 2021.11.06
  :image: https://images.keizai.biz/chichibu_keizai/headline/1636120060_photo.jpg
  :title: 小鹿野町「フレッシュベーカリーアライヤ」　2代目が引き継ぎ10年
- :id: 137
  :src: https://chichibu.keizai.biz/mapnews/137
  :lat: 35.9775243
  :lng: 139.1339692
  :link: https://chichibu.keizai.biz/headline/137/
  :date: 2021.11.05
  :image: https://images.keizai.biz/chichibu_keizai/headline/1636098191_photo.jpg
  :title: 芦ヶ久保に秩父ホルモン店「炭火焼肉てっぽう屋」
- :id: 136
  :src: https://chichibu.keizai.biz/mapnews/136
  :lat: 36.1141535
  :lng: 139.1947206
  :link: https://chichibu.keizai.biz/headline/136/
  :date: 2021.11.05
  :image: https://images.keizai.biz/chichibu_keizai/headline/1636075157_photo.jpg
  :title: 寄居町の日本料理店「喜楽」が来年で95周年　12月には新そばも
- :id: 135
  :src: https://chichibu.keizai.biz/mapnews/135
  :lat: 35.9879703
  :lng: 139.0831924
  :link: https://chichibu.keizai.biz/headline/135/
  :date: 2021.11.04
  :image: https://images.keizai.biz/chichibu_keizai/headline/1636013559_photo.jpg
  :title: 秩父で「世界に1つだけのパンコンテスト」　グランプリは「ミイラパン」
- :id: 134
  :src: https://chichibu.keizai.biz/mapnews/134
  :lat: 35.9865353
  :lng: 138.8347886
  :link: https://chichibu.keizai.biz/headline/134/
  :date: 2021.11.03
  :image: https://images.keizai.biz/chichibu_keizai/headline/1635932562_photo.jpg
  :title: 秩父・大滝の中津峡、紅葉シーズンに入り「焼きまんじゅう店」出店　今年で40年目
- :id: 133
  :src: https://chichibu.keizai.biz/mapnews/133
  :lat: 36.10663660000001
  :lng: 139.1500332
  :link: https://chichibu.keizai.biz/headline/133/
  :date: 2021.11.03
  :image: https://images.keizai.biz/chichibu_keizai/headline/1635907633_photo.jpg
  :title: 寄居町の「風布みかん山」のミカン狩り開園　今年も例年並みの作柄
- :id: 132
  :src: https://chichibu.keizai.biz/mapnews/132
  :lat: 35.9765926
  :lng: 139.1346825
  :link: https://chichibu.keizai.biz/headline/132/
  :date: 2021.11.02
  :image: https://images.keizai.biz/chichibu_keizai/headline/1635907755_photo.jpg
  :title: 横瀬の新そば祭り、道の駅果樹公園あしがくぼで開催
- :id: 131
  :src: https://chichibu.keizai.biz/mapnews/131
  :lat: 36.1176279
  :lng: 139.216178
  :link: https://chichibu.keizai.biz/headline/131/
  :date: 2021.11.01
  :image: https://images.keizai.biz/chichibu_keizai/headline/1635765941_photo.jpg
  :title: 荒川80キロをSUPで下る埼玉県横断リバーレース　クラウドファンディング募集も
- :id: 130
  :src: https://chichibu.keizai.biz/mapnews/130
  :lat: 36.0073536
  :lng: 138.9738988
  :link: https://chichibu.keizai.biz/headline/130/
  :date: 2021.10.30
  :image: https://images.keizai.biz/chichibu_keizai/headline/1635518226_photo.jpg
  :title: 小鹿野町観光大使で世界的フリークライマーの「平山ユージ」さんによるボルダリング講習会
- :id: 129
  :src: https://chichibu.keizai.biz/mapnews/129
  :lat: 35.9823151
  :lng: 139.042722
  :link: https://chichibu.keizai.biz/headline/129/
  :date: 2021.10.29
  :image: https://images.keizai.biz/chichibu_keizai/headline/1635415166_photo.jpg
  :title: 秩父ミューズパーク旅立ちの丘から雲海夜景シーズンに入り見物客でにぎわう
- :id: 128
  :src: https://chichibu.keizai.biz/mapnews/128
  :lat: 35.9879703
  :lng: 139.0831924
  :link: https://chichibu.keizai.biz/headline/128/
  :date: 2021.10.28
  :image: https://images.keizai.biz/chichibu_keizai/headline/1635389972_photo.jpg
  :title: 秩父のパン工房「ラパンノワールくろうさぎ」が22周年　記念セールも
- :id: 127
  :src: https://chichibu.keizai.biz/mapnews/127
  :lat: 35.9998402
  :lng: 139.0840114
  :link: https://chichibu.keizai.biz/headline/127/
  :date: 2021.10.27
  :image: https://images.keizai.biz/chichibu_keizai/headline/1635314777_photo.jpg
  :title: 秩父の浅賀ちょうちん店、「みなの里山アートピックフェス」協賛ちょうちん手掛ける
- :id: 126
  :src: https://chichibu.keizai.biz/mapnews/126
  :lat: 36.0950152
  :lng: 139.1124461
  :link: https://chichibu.keizai.biz/headline/126/
  :date: 2021.10.26
  :image: https://images.keizai.biz/chichibu_keizai/headline/1635243844_photo.jpg
  :title: 長瀞駅そば店の「秩父味噌ラーメン」が2周年　オール埼玉の食材使う
- :id: 125
  :src: https://chichibu.keizai.biz/mapnews/125
  :lat: 36.1156686
  :lng: 139.2196199
  :link: https://chichibu.keizai.biz/headline/125/
  :date: 2021.10.25
  :image: https://images.keizai.biz/chichibu_keizai/headline/1635142497_photo.jpg
  :title: 寄居町で企画展「秩父を散歩しませんか？～神社仏閣に地形と石を訪ねる」
- :id: 124
  :src: https://chichibu.keizai.biz/mapnews/124
  :lat: 36.0101516
  :lng: 139.1122091
  :link: https://chichibu.keizai.biz/headline/124/
  :date: 2021.10.24
  :image: https://images.keizai.biz/chichibu_keizai/headline/1635006282_photo.jpg
  :title: 秩父のちゃんこ料亭「やぐら太鼓」のメニュー「トマトラーメン」が7周年
- :id: 123
  :src: https://chichibu.keizai.biz/mapnews/123
  :lat: 35.9986417
  :lng: 139.0857777
  :link: https://chichibu.keizai.biz/headline/123/
  :date: 2021.10.23
  :image: https://images.keizai.biz/chichibu_keizai/headline/1634998123_photo.jpg
  :title: 秩父地場産センターで「じばさん秋のパンまつり」　午前中に売り切れ店続出
- :id: 122
  :src: https://chichibu.keizai.biz/mapnews/122
  :lat: 36.1259169
  :lng: 139.1152935
  :link: https://chichibu.keizai.biz/headline/122/
  :date: 2021.10.22
  :image: https://images.keizai.biz/chichibu_keizai/headline/1634853737_photo.jpg
  :title: 長瀞「TARO’S GARDEN 長瀞てらす」がイベント「てらすDEマルシェ」
- :id: 121
  :src: https://chichibu.keizai.biz/mapnews/121
  :lat: 35.9907882
  :lng: 139.0945999
  :link: https://chichibu.keizai.biz/headline/121/
  :date: 2021.10.21
  :image: https://images.keizai.biz/chichibu_keizai/headline/1634738860_photo.jpg
  :title: 横瀬町のラーメン店、「らぁ麺大金星」が1周年　調理師学校を卒業後、ラーメン好きが高じて開店
- :id: 120
  :src: https://chichibu.keizai.biz/mapnews/120
  :lat: 36.0265027
  :lng: 139.0016103
  :link: https://chichibu.keizai.biz/headline/120/
  :date: 2021.10.20
  :image: https://images.keizai.biz/chichibu_keizai/headline/1634661988_photo.jpg
  :title: 小鹿野町・小鹿神社でダリアの花手水と和傘のライトアップ
- :id: 119
  :src: https://chichibu.keizai.biz/mapnews/119
  :lat: 36.0952461
  :lng: 139.1120808
  :link: https://chichibu.keizai.biz/headline/119/
  :date: 2021.10.19
  :image: https://images.keizai.biz/chichibu_keizai/headline/1634648952_photo.jpg
  :title: 皆野・長瀞の地域情報サイト「とろみん.net」が1周年
- :id: 118
  :src: https://chichibu.keizai.biz/mapnews/118
  :lat: 35.9542939
  :lng: 139.0123584
  :link: https://chichibu.keizai.biz/headline/118/
  :date: 2021.10.18
  :image: https://images.keizai.biz/chichibu_keizai/headline/1634560272_photo.jpg
  :title: 旅するチョウ「アサギマダラ」、今年も秩父「道の駅あらかわ」に飛来
- :id: 117
  :src: https://chichibu.keizai.biz/mapnews/117
  :lat: 36.1138244
  :lng: 139.080858
  :link: https://chichibu.keizai.biz/headline/117/
  :date: 2021.10.18
  :image: https://images.keizai.biz/chichibu_keizai/headline/1634517895_photo.jpg
  :title: 皆野町の木工房、秩父の矢尾百貨店で木工展「荒川の流木を生かして」
- :id: 116
  :src: https://chichibu.keizai.biz/mapnews/116
  :lat: 35.9823151
  :lng: 139.042722
  :link: https://chichibu.keizai.biz/headline/116/
  :date: 2021.10.17
  :image: https://images.keizai.biz/chichibu_keizai/headline/1634441283_photo.jpg
  :title: 秩父ミューズパーク、500本のイチョウ並木が見頃に　例年より10日早く
- :id: 115
  :src: https://chichibu.keizai.biz/mapnews/115
  :lat: 35.9862092
  :lng: 139.1339342
  :link: https://chichibu.keizai.biz/headline/115/
  :date: 2021.10.16
  :image: https://images.keizai.biz/chichibu_keizai/headline/1634342629_photo.jpg
  :title: 横瀬町観光協会、「るるぶ横瀬町」発行　アンケート回答者に商品券も
- :id: 114
  :src: https://chichibu.keizai.biz/mapnews/114
  :lat: 36.027319
  :lng: 139.1193175
  :link: https://chichibu.keizai.biz/headline/114/
  :date: 2021.10.15
  :image: https://images.keizai.biz/chichibu_keizai/headline/1634284695_photo.jpg
  :title: 秩父歌舞伎「正和会」、八坂神社舞台で歌舞伎公演　86年ぶり
- :id: 113
  :src: https://chichibu.keizai.biz/mapnews/113
  :lat: 35.9947789
  :lng: 139.0815371
  :link: https://chichibu.keizai.biz/headline/113/
  :date: 2021.10.14
  :image: https://images.keizai.biz/chichibu_keizai/headline/1634052542_photo.jpg
  :title: 秩父神社で「ちちぶエフエム」2周年企画　サテライト放送とミニマルシェ
- :id: 112
  :src: https://chichibu.keizai.biz/mapnews/112
  :lat: 36.0172681
  :lng: 139.0931295
  :link: https://chichibu.keizai.biz/headline/112/
  :date: 2021.10.13
  :image: https://images.keizai.biz/chichibu_keizai/headline/1634040529_photo.jpg
  :title: 秩父のラーメン店「麺屋BONCHI」が5周年　ラーメン好き高じ脱サラ開業
- :id: 111
  :src: https://chichibu.keizai.biz/mapnews/111
  :lat: 36.011998
  :lng: 138.9716262
  :link: https://chichibu.keizai.biz/headline/111/
  :date: 2021.10.12
  :image: https://images.keizai.biz/chichibu_keizai/headline/1634034170_photo.jpg
  :title: 小鹿野町で「おがの発・大人の学校」　授業通じ小鹿野の魅力再発見
- :id: 110
  :src: https://chichibu.keizai.biz/mapnews/110
  :lat: 35.9823151
  :lng: 139.042722
  :link: https://chichibu.keizai.biz/headline/110/
  :date: 2021.10.11
  :image: https://images.keizai.biz/chichibu_keizai/headline/1633941247_photo.jpg
  :title: 秩父に本格的な雲海　幻想的な風景を収めようと多くのカメラマン
- :id: 109
  :src: https://chichibu.keizai.biz/mapnews/109
  :lat: 35.9912279
  :lng: 139.0770949
  :link: https://chichibu.keizai.biz/headline/109/
  :date: 2021.10.09
  :image: https://images.keizai.biz/chichibu_keizai/headline/1633711471_photo.jpg
  :title: "「秩父の材木屋ホルモン」が3周年　商談会で振る舞っていた肉を商品化"
- :id: 108
  :src: https://chichibu.keizai.biz/mapnews/108
  :lat: 36.077044
  :lng: 139.0889946
  :link: https://chichibu.keizai.biz/headline/108/
  :date: 2021.10.08
  :image: https://images.keizai.biz/chichibu_keizai/headline/1633540088_photo.jpg
  :title: 皆野高校で「選挙」を学ぶ授業　実物の投票箱を使った模擬選挙も
- :id: 107
  :src: https://chichibu.keizai.biz/mapnews/107
  :lat: 36.0621317
  :lng: 139.1011929
  :link: https://chichibu.keizai.biz/headline/107/
  :date: 2021.10.07
  :image: https://images.keizai.biz/chichibu_keizai/headline/1633539168_photo.jpg
  :title: 長瀞町出身の墨画家・松尾六花さん作品展　コロナ禍での思いを描いた最新作も
- :id: 106
  :src: https://chichibu.keizai.biz/mapnews/106
  :lat: 36.006398
  :lng: 139.0905538
  :link: https://chichibu.keizai.biz/headline/106/
  :date: 2021.10.06
  :image: https://images.keizai.biz/chichibu_keizai/headline/1633491003_photo.jpg
  :title: 秩父「にぐるまやダイニング」が限定メニュー　秋の味覚を生かしたチーズバーグなど
- :id: 105
  :src: https://chichibu.keizai.biz/mapnews/105
  :lat: 36.0621317
  :lng: 139.1011929
  :link: https://chichibu.keizai.biz/headline/105/
  :date: 2021.10.05
  :image: https://images.keizai.biz/chichibu_keizai/headline/1633398118_photo.jpg
  :title: 皆野町で「みなの里山アートピックフェス」　アートに触れる機会提供
- :id: 104
  :src: https://chichibu.keizai.biz/mapnews/104
  :lat: 35.9873397
  :lng: 139.1000677
  :link: https://chichibu.keizai.biz/headline/104/
  :date: 2021.10.04
  :image: https://images.keizai.biz/chichibu_keizai/headline/1633318355_photo.jpg
  :title: 横瀬町でウオーキングイベント　アミューズが提供するスマホアプリ活用
- :id: 103
  :src: https://chichibu.keizai.biz/mapnews/103
  :lat: 35.992636
  :lng: 139.0793049
  :link: https://chichibu.keizai.biz/headline/103/
  :date: 2021.10.03
  :image: https://images.keizai.biz/chichibu_keizai/headline/1633179824_photo.jpg
  :title: 秩父市、矢尾百貨店駐車場の「ちちぶ朝市」にチンドン｢あけぼの屋」
- :id: 102
  :src: https://chichibu.keizai.biz/mapnews/102
  :lat: 36.0187927
  :lng: 138.9185355
  :link: https://chichibu.keizai.biz/headline/102/
  :date: 2021.10.02
  :image: https://images.keizai.biz/chichibu_keizai/headline/1633136753_photo.jpg
  :title: 小鹿野町「両神山麓花の郷ダリア園」で大輪の花が見頃に
- :id: 101
  :src: https://chichibu.keizai.biz/mapnews/101
  :lat: 35.9857199
  :lng: 139.0977088
  :link: https://chichibu.keizai.biz/headline/101/
  :date: 2021.10.01
  :image: https://images.keizai.biz/chichibu_keizai/headline/1633087615_photo.jpg
  :title: 横瀬駅に「駅前食堂」　チャレンジキッチンと連携、地元野菜使ったメニューも
- :id: 100
  :src: https://chichibu.keizai.biz/mapnews/100
  :lat: 35.991912
  :lng: 139.0841397
  :link: https://chichibu.keizai.biz/headline/100/
  :date: 2021.09.30
  :image: https://images.keizai.biz/chichibu_keizai/headline/1632966020_photo.jpg
  :title: 秩父のラーメン店「珍達そば」が33周年　祖父から受け継いだ店を人気店に
- :id: 99
  :src: https://chichibu.keizai.biz/mapnews/99
  :lat: 35.99279
  :lng: 139.0835772
  :link: https://chichibu.keizai.biz/headline/99/
  :date: 2021.09.29
  :image: https://images.keizai.biz/chichibu_keizai/headline/1632966759_photo.jpg
  :title: 御花畑駅前「らーめん よこ田」が1周年　ラーメン好き高じスタイリストから転身
- :id: 98
  :src: https://chichibu.keizai.biz/mapnews/98
  :lat: 36.0538423
  :lng: 139.0678917
  :link: https://chichibu.keizai.biz/headline/98/
  :date: 2021.09.28
  :image: https://images.keizai.biz/chichibu_keizai/headline/1632765235_photo.jpg
  :title: 秩父・太田でソバの花が見頃　地元蕎麦店「石橋庵」で新蕎麦として提供へ
- :id: 97
  :src: https://chichibu.keizai.biz/mapnews/97
  :lat: 36.0490119
  :lng: 139.0400791
  :link: https://chichibu.keizai.biz/headline/97/
  :date: 2021.09.27
  :image: https://images.keizai.biz/chichibu_keizai/headline/1632744524_photo.jpg
  :title: 道の駅・龍勢会館のトカラヤギ、一般公募で名前決まる
- :id: 96
  :src: https://chichibu.keizai.biz/mapnews/96
  :lat: 35.9916443
  :lng: 139.0855869
  :link: https://chichibu.keizai.biz/headline/96/
  :date: 2021.09.26
  :image: https://images.keizai.biz/chichibu_keizai/headline/1632654457_photo.jpg
  :title: 秩父地域の道端や田畑の脇で彼岸花の赤い花が見頃に
- :id: 95
  :src: https://chichibu.keizai.biz/mapnews/95
  :lat: 36.0511307
  :lng: 138.8757372
  :link: https://chichibu.keizai.biz/headline/95/
  :date: 2021.09.25
  :image: https://images.keizai.biz/chichibu_keizai/headline/1632549734_photo.jpg
  :title: 小鹿野町河原沢のしいたけ栽培用ハウスで身体表現パフォーマンス
- :id: 94
  :src: https://chichibu.keizai.biz/mapnews/94
  :lat: 35.8572128
  :lng: 139.6493982
  :link: https://chichibu.keizai.biz/headline/94/
  :date: 2021.09.24
  :image: https://images.keizai.biz/chichibu_keizai/headline/1632473637_photo.jpg
  :title: 埼玉県、新型コロナウイルスワクチン特設サイト開設　若者への情報提供で
- :id: 93
  :src: https://chichibu.keizai.biz/mapnews/93
  :lat: 36.0137407
  :lng: 139.0764574
  :link: https://chichibu.keizai.biz/headline/93/
