---
- :id: 809
  :src: https://chichibu.keizai.biz/mapnews/809
  :lat: 35.9916305
  :lng: 139.085868
  :link: https://chichibu.keizai.biz/headline/809/
  :date: 2025.02.03
  :image: https://images.keizai.biz/chichibu_keizai/headline/1738573843_photo.jpg
  :title: "「秩父短編文学賞」短編小説公募　審査委員長は林真理子さん"
- :id: 808
  :src: https://chichibu.keizai.biz/mapnews/808
  :lat: 35.9766626
  :lng: 139.1346563
  :link: https://chichibu.keizai.biz/headline/808/
  :date: 2025.02.03
  :image: https://images.keizai.biz/chichibu_keizai/headline/1738538533_photo.jpg
  :title: 秩父消防本部、あしがくぼの氷柱で初の山岳救助訓練　観光客らも見守る
- :id: 807
  :src: https://chichibu.keizai.biz/mapnews/807
  :lat: 36.0918551
  :lng: 139.1121229
  :link: https://chichibu.keizai.biz/headline/807/
  :date: 2025.01.31
  :image: https://images.keizai.biz/chichibu_keizai/headline/1738315065_photo.jpg
  :title: 長瀞町の古民家カフェで婚活イベント　婚活アドバイザーもサポート
- :id: 806
  :src: https://chichibu.keizai.biz/mapnews/806
  :lat: 36.0142008
  :lng: 139.0289655
  :link: https://chichibu.keizai.biz/headline/806/
  :date: 2025.01.31
  :image: https://images.keizai.biz/chichibu_keizai/headline/1738314436_photo.jpg
  :title: あじさい公園記念植樹会、「善行賞」受賞　小鹿野歌舞伎と祭りを守る
- :id: 805
  :src: https://chichibu.keizai.biz/mapnews/805
  :lat: 35.9988245
  :lng: 139.0794146
  :link: https://chichibu.keizai.biz/headline/805/
  :date: 2025.01.30
  :image: https://images.keizai.biz/chichibu_keizai/headline/1738232011_photo.jpg
  :title: 秩父で「まち歩きガイド」新人デビューイベント　養成講座修了者が初案内
- :id: 804
  :src: https://chichibu.keizai.biz/mapnews/804
  :lat: 36.0181894
  :lng: 139.0883853
  :link: https://chichibu.keizai.biz/headline/804/
  :date: 2025.01.27
  :image: https://images.keizai.biz/chichibu_keizai/headline/1737962456_photo.jpg
  :title: 秩父・理学療法士のフィットネスジム「ビーナイス」が5周年　
- :id: 803
  :src: https://chichibu.keizai.biz/mapnews/803
  :lat: 35.9987934
  :lng: 139.0858166
  :link: https://chichibu.keizai.biz/headline/803/
  :date: 2025.01.24
  :image: https://images.keizai.biz/chichibu_keizai/headline/1737707366_photo.jpg
  :title: 秩父の間伐材で「森の名刺台紙」　秩父地域森林林業活性化協議会が商品化
- :id: 802
  :src: https://chichibu.keizai.biz/mapnews/802
  :lat: 35.990426
  :lng: 139.1020417
  :link: https://chichibu.keizai.biz/headline/802/
  :date: 2025.01.23
  :image: https://images.keizai.biz/chichibu_keizai/headline/1737622567_photo.jpg
  :title: 秩父のシンボルを味わう「武甲山巨大カレー」武甲温泉で提供
- :id: 801
  :src: https://chichibu.keizai.biz/mapnews/801
  :lat: 35.9986878
  :lng: 139.0857789
  :link: https://chichibu.keizai.biz/headline/801/
  :date: 2025.01.22
  :image: https://images.keizai.biz/chichibu_keizai/headline/1737531713_photo.jpg
  :title: 秩父市ご当地キャラクター「ぷめるちゃん」初披露　きょうだいで盛り上げる
- :id: 800
  :src: https://chichibu.keizai.biz/mapnews/800
  :lat: 35.995812
  :lng: 139.0890907
  :link: https://chichibu.keizai.biz/headline/800/
  :date: 2025.01.21
  :image: https://images.keizai.biz/chichibu_keizai/headline/1737438375_photo.jpg
  :title: 秩父で多様性描く映画を県内初上映　初日はアフタートークも
- :id: 799
  :src: https://chichibu.keizai.biz/mapnews/799
  :lat: 36.0617849
  :lng: 139.0709509
  :link: https://chichibu.keizai.biz/headline/799/
  :date: 2025.01.21
  :image: https://images.keizai.biz/chichibu_keizai/headline/1737423749_photo.jpg
  :title: 秩父エリア　イチゴ観光農園で開園式　人気の希少品種「べにたま」販売も
- :id: 798
  :src: https://chichibu.keizai.biz/mapnews/798
  :lat: 35.9988245
  :lng: 139.0794146
  :link: https://chichibu.keizai.biz/headline/798/
  :date: 2025.01.17
  :image: https://images.keizai.biz/chichibu_keizai/headline/1737099135_photo.jpg
  :title: 長瀞アルプスでハイキングツアー　元山岳救助隊副隊長がガイド務める
- :id: 797
  :src: https://chichibu.keizai.biz/mapnews/797
  :lat: 35.9988245
  :lng: 139.0794146
  :link: https://chichibu.keizai.biz/headline/797/
  :date: 2025.01.16
  :image: https://images.keizai.biz/chichibu_keizai/headline/1737011059_photo.jpg
  :title: 秩父で卒業フォトコンテスト　秩父発祥の合唱曲「旅立ちの日に」から着想
- :id: 796
  :src: https://chichibu.keizai.biz/mapnews/796
  :lat: 36.0014423
  :lng: 139.074284
  :link: https://chichibu.keizai.biz/headline/796/
  :date: 2025.01.15
  :image: https://images.keizai.biz/chichibu_keizai/headline/1736933643_photo.jpg
  :title: 体験型農園キャンプ場で「秩父ファームフェス」　来場・出店者が多文化交流
- :id: 795
  :src: https://chichibu.keizai.biz/mapnews/795
  :lat: 35.9988245
  :lng: 139.0794146
  :link: https://chichibu.keizai.biz/headline/795/
  :date: 2025.01.14
  :image: https://images.keizai.biz/chichibu_keizai/headline/1736853603_photo.jpg
  :title: 秩父の献血会場で献眼登録　「献眼は 巡る命、つなぐ光」
- :id: 794
  :src: https://chichibu.keizai.biz/mapnews/794
  :lat: 36.05124989999999
  :lng: 138.8736883
  :link: https://chichibu.keizai.biz/headline/794/
  :date: 2025.01.11
  :image: https://images.keizai.biz/chichibu_keizai/headline/1736584274_photo.jpg
  :title: 秩父三大氷柱の一つ・小鹿野町「尾ノ内渓谷氷柱」　今年も開園へ
- :id: 793
  :src: https://chichibu.keizai.biz/mapnews/793
  :lat: 35.990426
  :lng: 139.1020417
  :link: https://chichibu.keizai.biz/headline/793/
  :date: 2025.01.10
  :image: https://images.keizai.biz/chichibu_keizai/headline/1736502215_photo.jpg
  :title: 横瀬町「武甲温泉」で氷柱をモチーフにした氷柱風呂　地域の観光を応援
- :id: 792
  :src: https://chichibu.keizai.biz/mapnews/792
  :lat: 35.986702
  :lng: 139.1024598
  :link: https://chichibu.keizai.biz/headline/792/
  :date: 2025.01.10
  :image: https://images.keizai.biz/chichibu_keizai/headline/1736488263_photo.jpg
  :title: 横瀬町でランニングイベント　健康増進と地域活性化目指し初開催へ
- :id: 791
  :src: https://chichibu.keizai.biz/mapnews/791
  :lat: 36.02384720000001
  :lng: 139.1030362
  :link: https://chichibu.keizai.biz/headline/791/
  :date: 2025.01.09
  :image: https://images.keizai.biz/chichibu_keizai/headline/1736396916_photo.jpg
  :title: 秩父の就労継続支援施設「いろり」が1周年　メダカの飼育販売も
- :id: 790
  :src: https://chichibu.keizai.biz/mapnews/790
  :lat: 36.0058155
  :lng: 138.971389
  :link: https://chichibu.keizai.biz/headline/790/
  :date: 2025.01.06
  :image: https://images.keizai.biz/chichibu_keizai/headline/1736154831_photo.jpg
  :title: 小鹿野町の地域商社、ヒノキ端材で森のタンブラー　自然林保全の一環で
- :id: 789
  :src: https://chichibu.keizai.biz/mapnews/789
  :lat: 35.9976189
  :lng: 139.0841388
  :link: https://chichibu.keizai.biz/headline/789/
  :date: 2024.12.28
  :image: https://images.keizai.biz/chichibu_keizai/headline/1735375514_photo.jpg
  :title: ライトアップした秩父の街を回る「秩父夜街」始まる　平日もライトアップ
- :id: 788
  :src: https://chichibu.keizai.biz/mapnews/788
  :lat: 35.9985867
  :lng: 139.0317269
  :link: https://chichibu.keizai.biz/headline/788/
  :date: 2024.12.28
  :image: https://images.keizai.biz/chichibu_keizai/headline/1735374125_photo.jpg
  :title: 小鹿野町の民俗を大学生が2年間調査　暮らし・方言・伝承文化を記録
- :id: 787
  :src: https://chichibu.keizai.biz/mapnews/787
  :lat: 36.0660891
  :lng: 139.0973634
  :link: https://chichibu.keizai.biz/headline/787/
  :date: 2024.12.27
  :image: https://images.keizai.biz/chichibu_keizai/headline/1735275016_photo.jpg
  :title: 皆野町に「久遠チョコレート」　清水病院が出店、来春開店に向け職員見学会
- :id: 786
  :src: https://chichibu.keizai.biz/mapnews/786
  :lat: 35.9934802
  :lng: 139.0788116
  :link: https://chichibu.keizai.biz/headline/786/
  :date: 2024.12.26
  :image: https://images.keizai.biz/chichibu_keizai/headline/1735194696_photo.jpg
  :title: "「秩父フードクリエイツ」がジビエ新工場　鹿の食肉を有効活用"
- :id: 785
  :src: https://chichibu.keizai.biz/mapnews/785
  :lat: 35.9976189
  :lng: 139.0841388
  :link: https://chichibu.keizai.biz/headline/785/
  :date: 2024.12.25
  :image: https://images.keizai.biz/chichibu_keizai/headline/1735117623_photo.jpg
  :title: 秩父夜祭で神楽奉納　「伝統が続いていくように後継者増えれば」
- :id: 784
  :src: https://chichibu.keizai.biz/mapnews/784
  :lat: 35.9988245
  :lng: 139.0794146
  :link: https://chichibu.keizai.biz/headline/784/
  :date: 2024.12.24
  :image: https://images.keizai.biz/chichibu_keizai/headline/1735018272_photo.jpg
  :title: 小鹿野の移動販売車「とくし丸」のドライバー・加藤さん、卒業まで3カ月
- :id: 783
  :src: https://chichibu.keizai.biz/mapnews/783
  :lat: 36.0179899
  :lng: 139.0061886
  :link: https://chichibu.keizai.biz/headline/783/
  :date: 2024.12.23
  :image: https://images.keizai.biz/chichibu_keizai/headline/1734924202_photo.jpg
  :title: 小鹿野で初の「サーカス歌舞伎」　600席が満席に、海外公演目指す
- :id: 782
  :src: https://chichibu.keizai.biz/mapnews/782
  :lat: 35.9916305
  :lng: 139.085868
  :link: https://chichibu.keizai.biz/headline/782/
  :date: 2024.12.21
  :image: https://images.keizai.biz/chichibu_keizai/headline/1734781747_photo.jpg
  :title: 秩父で「ローカルから日本を作る」作戦会議　子どもを応援する取り組みへ
- :id: 781
  :src: https://chichibu.keizai.biz/mapnews/781
  :lat: 36.0256697
  :lng: 139.0972472
  :link: https://chichibu.keizai.biz/headline/781/
  :date: 2024.12.20
  :image: https://images.keizai.biz/chichibu_keizai/headline/1734679927_photo.jpg
  :title: むさしのが秩父に「ハルビアサウナ」展示場　プール事業との相乗効果狙う
- :id: 780
  :src: https://chichibu.keizai.biz/mapnews/780
  :lat: 35.9988245
  :lng: 139.0794146
  :link: https://chichibu.keizai.biz/headline/780/
  :date: 2024.12.19
  :image: https://images.keizai.biz/chichibu_keizai/headline/1734570262_photo.jpg
  :title: 小鹿野町と吉田で「黄金のかぼす祭」　特典付きのフードラリーも
- :id: 779
  :src: https://chichibu.keizai.biz/mapnews/779
  :lat: 35.986702
  :lng: 139.1024598
  :link: https://chichibu.keizai.biz/headline/779/
  :date: 2024.12.18
  :image: https://images.keizai.biz/chichibu_keizai/headline/1734509766_photo.jpg
  :title: 横瀬町で「クリスマスマルシェ」　たき火や天体観測も
- :id: 778
  :src: https://chichibu.keizai.biz/mapnews/778
  :lat: 35.9943713
  :lng: 139.1064354
  :link: https://chichibu.keizai.biz/headline/778/
  :date: 2024.12.18
  :image: https://images.keizai.biz/chichibu_keizai/headline/1734506855_photo.jpg
  :title: "「横瀬町駅伝競走大会」に48チーム　5区間16.6キロをたすきでつなぐ"
- :id: 777
  :src: https://chichibu.keizai.biz/mapnews/777
  :lat: 35.9988245
  :lng: 139.0794146
  :link: https://chichibu.keizai.biz/headline/777/
  :date: 2024.12.13
  :image: https://images.keizai.biz/chichibu_keizai/headline/1734077101_photo.jpg
  :title: 秩父経の年間PV1位は秩父にラーメン店「トリコ食堂」
- :id: 776
  :src: https://chichibu.keizai.biz/mapnews/776
  :lat: 35.98693360000001
  :lng: 139.1025278
  :link: https://chichibu.keizai.biz/headline/776/
  :date: 2024.12.12
  :image: https://images.keizai.biz/chichibu_keizai/headline/1733979551_photo.jpg
  :title: 横瀬町で「埼玉いちご大学」　異業種交流で地域活性のアイデア探る
- :id: 775
  :src: https://chichibu.keizai.biz/mapnews/775
  :lat: 36.0195
  :lng: 139.004921
  :link: https://chichibu.keizai.biz/headline/775/
  :date: 2024.12.11
  :image: https://images.keizai.biz/chichibu_keizai/headline/1733903951_photo.jpg
  :title: 小鹿野町で1泊2日の婚活イベント　イチゴ狩りや旅館のこたつで交流深める
- :id: 774
  :src: https://chichibu.keizai.biz/mapnews/774
  :lat: 35.9917644
  :lng: 139.0854619
  :link: https://chichibu.keizai.biz/headline/774/
  :date: 2024.12.09
  :image: https://images.keizai.biz/chichibu_keizai/headline/1733736000_photo.jpg
  :title: 秩父夜祭の終わり告げる「旗竿下ろし」　のぼり旗を支え役目を果たす
- :id: 773
  :src: https://chichibu.keizai.biz/mapnews/773
  :lat: 35.987127
  :lng: 139.0839206
  :link: https://chichibu.keizai.biz/headline/773/
  :date: 2024.12.09
  :image: https://images.keizai.biz/chichibu_keizai/headline/1733709125_photo.jpg
  :title: 秩父「民芸茶房 木亭」が創業40年　母娘でつなぐ古民家の喫茶店
- :id: 772
  :src: https://chichibu.keizai.biz/mapnews/772
  :lat: 36.0172767
  :lng: 139.0086755
  :link: https://chichibu.keizai.biz/headline/772/
  :date: 2024.12.06
  :image: https://images.keizai.biz/chichibu_keizai/headline/1733469922_photo.jpg
  :title: 小鹿野高が「総合的な探究の時間」ツアー　町や卒業生が協力し地域を学ぶ
- :id: 771
  :src: https://chichibu.keizai.biz/mapnews/771
  :lat: 35.990426
  :lng: 139.1020417
  :link: https://chichibu.keizai.biz/headline/771/
  :date: 2024.12.05
  :image: https://images.keizai.biz/chichibu_keizai/headline/1733382685_photo.jpg
  :title: 横瀬町「武甲温泉」で雷部屋力士が餅つきイベント　宮本荘グループも協力
- :id: 770
  :src: https://chichibu.keizai.biz/mapnews/770
  :lat: 35.9910421
  :lng: 139.0847218
  :link: https://chichibu.keizai.biz/headline/770/
  :date: 2024.12.04
  :image: https://images.keizai.biz/chichibu_keizai/headline/1733318059_photo.jpg
  :title: "「秩父夜祭」に延べ25万7000人　6基の屋台・笠鉾と冬の夜空に花火"
- :id: 769
  :src: https://chichibu.keizai.biz/mapnews/769
  :lat: 35.9890323
  :lng: 139.0779927
  :link: https://chichibu.keizai.biz/headline/769/
  :date: 2024.12.04
  :image: https://images.keizai.biz/chichibu_keizai/headline/1733317301_photo.jpg
  :title: 秩父夜祭で上町が屋台芝居　コロナ禍経て6年ぶりに芝居披露
- :id: 768
  :src: https://chichibu.keizai.biz/mapnews/768
  :lat: 35.9988245
  :lng: 139.0794146
  :link: https://chichibu.keizai.biz/headline/768/
  :date: 2024.12.03
  :image: https://images.keizai.biz/chichibu_keizai/headline/1733207848_photo.jpg
  :title: 小鹿野特産カボスのエナジードリンク発売　「地域を元気にしたい」
- :id: 767
  :src: https://chichibu.keizai.biz/mapnews/767
  :lat: 35.9976189
  :lng: 139.0841388
  :link: https://chichibu.keizai.biz/headline/767/
  :date: 2024.12.02
  :image: https://images.keizai.biz/chichibu_keizai/headline/1733130807_photo.jpg
  :title: "「秩父夜祭」始まる　屋台・笠鉾巡行に歓声、今年の屋台芝居担当は上町"
- :id: 766
  :src: https://chichibu.keizai.biz/mapnews/766
  :lat: 36.03848
  :lng: 139.106874
  :link: https://chichibu.keizai.biz/headline/766/
  :date: 2024.11.30
  :image: https://images.keizai.biz/chichibu_keizai/headline/1732966084_photo.jpg
  :title: ちちぶ丸山農園が漬物「薫る秩父きゅうり」　しょうゆ味・みそ味の2品発売
- :id: 765
  :src: https://chichibu.keizai.biz/mapnews/765
  :lat: 35.9810954
  :lng: 139.110827
  :link: https://chichibu.keizai.biz/headline/765/
  :date: 2024.11.30
  :image: https://images.keizai.biz/chichibu_keizai/headline/1732953493_photo.jpg
  :title: 秩父初のオルタナティブスクール｢タテノイト｣　地球惑星科学者が来春開校
- :id: 764
  :src: https://chichibu.keizai.biz/mapnews/764
  :lat: 36.0487649
  :lng: 139.0940287
  :link: https://chichibu.keizai.biz/headline/764/
  :date: 2024.11.29
  :image: https://images.keizai.biz/chichibu_keizai/headline/1732871824_photo.jpg
  :title: 秩父のカレー店、テーマ曲で社歌コンテストに挑戦　秩父夜祭でお披露目も
- :id: 763
  :src: https://chichibu.keizai.biz/mapnews/763
  :lat: 35.9925604
  :lng: 139.0752388
  :link: https://chichibu.keizai.biz/headline/763/
  :date: 2024.11.29
  :image: https://images.keizai.biz/chichibu_keizai/headline/1732865102_photo.jpg
  :title: 秩父高の生徒が夜祭でジビエ販売　地域課題がテーマの授業の一環で
- :id: 762
  :src: https://chichibu.keizai.biz/mapnews/762
  :lat: 35.99167790000001
  :lng: 139.0870406
  :link: https://chichibu.keizai.biz/headline/762/
  :date: 2024.11.28
  :image: https://images.keizai.biz/chichibu_keizai/headline/1732769428_photo.jpg
  :title: 秩父「パティスリーイシノ」が5周年　菓子作りで地元に恩返しを
- :id: 761
  :src: https://chichibu.keizai.biz/mapnews/761
  :lat: 36.0475886
  :lng: 139.1027425
  :link: https://chichibu.keizai.biz/headline/761/
  :date: 2024.11.29
  :image: https://images.keizai.biz/chichibu_keizai/headline/1732692671_photo.jpg
  :title: 秩父の中国茶専門店「茶論 茶と菓。」が1周年　虹色の「推し活茶」も
- :id: 760
  :src: https://chichibu.keizai.biz/mapnews/760
  :lat: 35.9959351
  :lng: 139.0838543
  :link: https://chichibu.keizai.biz/headline/760/
  :date: 2024.11.26
  :image: https://images.keizai.biz/chichibu_keizai/headline/1732608919_photo.jpg
  :title: 秩父神社前 番場通りに「ユナイテッドスパイス」　スパイス料理提供、交流の場にも
- :id: 759
  :src: https://chichibu.keizai.biz/mapnews/759
  :lat: 35.9988245
  :lng: 139.0794146
  :link: https://chichibu.keizai.biz/headline/759/
  :date: 2024.11.26
  :image: https://images.keizai.biz/chichibu_keizai/headline/1732599046_photo.jpg
  :title: 高校生が伐採体験イベント　総合の授業の一環で企画、林業への理解深める
- :id: 758
  :src: https://chichibu.keizai.biz/mapnews/758
  :lat: 35.9971273
  :lng: 139.0959094
  :link: https://chichibu.keizai.biz/headline/758/
  :date: 2024.11.25
  :image: https://images.keizai.biz/chichibu_keizai/headline/1732528925_photo.jpg
  :title: 横瀬町「秩父札所10番」大慈寺、夫婦龍の「龍の鱗」お守り授与
- :id: 757
  :src: https://chichibu.keizai.biz/mapnews/757
  :lat: 35.9988245
  :lng: 139.0794146
  :link: https://chichibu.keizai.biz/headline/757/
  :date: 2024.11.23
  :image: https://images.keizai.biz/chichibu_keizai/headline/1732323417_photo.jpg
  :title: 横瀬の料理人・独歩ちゃん、LINEで編集者に送った山のレシピ日記が本に
- :id: 756
  :src: https://chichibu.keizai.biz/mapnews/756
  :lat: 36.0193935
  :lng: 139.0037998
  :link: https://chichibu.keizai.biz/headline/756/
  :date: 2024.11.22
  :image: https://images.keizai.biz/chichibu_keizai/headline/1732255188_photo.jpg
  :title: 小鹿野町「町民ガチャ」開始から1年　町民が普段と違う店利用のきっかけに
- :id: 755
  :src: https://chichibu.keizai.biz/mapnews/755
  :lat: 35.9988245
  :lng: 139.0794146
  :link: https://chichibu.keizai.biz/headline/755/
  :date: 2024.11.21
  :image: https://images.keizai.biz/chichibu_keizai/headline/1732191247_photo.jpg
  :title: 秩父のこども園、ドングリ育て15回目の植樹　未来に残す森づくり活動
- :id: 754
  :src: https://chichibu.keizai.biz/mapnews/754
  :lat: 36.0270415
  :lng: 139.1204343
  :link: https://chichibu.keizai.biz/headline/754/
  :date: 2024.11.21
  :image: https://images.keizai.biz/chichibu_keizai/headline/1732163190_photo.jpg
  :title: 秩父・四萬部寺で座禅とお茶のワークショップ　和紅茶と煎茶のブレンドも
- :id: 753
  :src: https://chichibu.keizai.biz/mapnews/753
  :lat: 36.0178027
  :lng: 139.0062216
  :link: https://chichibu.keizai.biz/headline/753/
  :date: 2024.11.20
  :image: https://images.keizai.biz/chichibu_keizai/headline/1732081007_photo.jpg
  :title: 小鹿野町で舞台「サーカス歌舞伎」　地歌舞伎と現代サーカスを融合
- :id: 752
  :src: https://chichibu.keizai.biz/mapnews/752
  :lat: 35.9904774
  :lng: 139.0460055
  :link: https://chichibu.keizai.biz/headline/752/
  :date: 2024.11.19
  :image: https://images.keizai.biz/chichibu_keizai/headline/1732064503_photo.jpg
  :title: 秩父の「メープルベース」、森で木と触れ合うジャンボリー開催へ
- :id: 751
  :src: https://chichibu.keizai.biz/mapnews/751
  :lat: 36.0837291
  :lng: 139.0423925
  :link: https://chichibu.keizai.biz/headline/751/
  :date: 2024.11.16
  :image: https://images.keizai.biz/chichibu_keizai/headline/1731730894_photo.jpg
  :title: 皆野「秩父華厳の滝」ライトアップ10年目　皆野の観光名所明るく照らす
- :id: 750
  :src: https://chichibu.keizai.biz/mapnews/750
  :lat: 36.0708864
  :lng: 139.0957448
  :link: https://chichibu.keizai.biz/headline/750/
  :date: 2024.11.16
  :image: https://images.keizai.biz/chichibu_keizai/headline/1731724290_photo.jpg
  :title: 皆野町でミニ企画展　俳誌『雁坂』でたどる皆野の戦後の俳句
- :id: 749
  :src: https://chichibu.keizai.biz/mapnews/749
  :lat: 35.99167790000001
  :lng: 139.0870406
  :link: https://chichibu.keizai.biz/headline/749/
  :date: 2024.11.16
  :image: https://images.keizai.biz/chichibu_keizai/headline/1731720832_photo.jpg
  :title: "「ちちぶコーヒー」が秩父夜祭をイメージした限定コーヒー　特別ラベル採用"
- :id: 748
  :src: https://chichibu.keizai.biz/mapnews/748
  :lat: 36.0676807
  :lng: 139.1271365
  :link: https://chichibu.keizai.biz/headline/748/
  :date: 2024.11.15
  :image: https://images.keizai.biz/chichibu_keizai/headline/1731677408_photo.jpg
  :title: 皆野で「サンデーピクニック」　クラシックカーと秋の自然を楽しむ　
- :id: 747
  :src: https://chichibu.keizai.biz/mapnews/747
  :lat: 35.98693360000001
  :lng: 139.1025278
  :link: https://chichibu.keizai.biz/headline/747/
  :date: 2024.11.15
  :image: https://images.keizai.biz/chichibu_keizai/headline/1731657885_photo.jpg
  :title: 横瀬町でよこらぼ採択スキンケアプロデューサーが「お肌の悩み相談会」　
- :id: 746
  :src: https://chichibu.keizai.biz/mapnews/746
  :lat: 35.98693360000001
  :lng: 139.1025278
  :link: https://chichibu.keizai.biz/headline/746/
  :date: 2024.11.13
  :image: https://images.keizai.biz/chichibu_keizai/headline/1731490603_photo.jpg
  :title: 横瀬町で「在宅ワーク入門セミナー」　AIツール活用し業務効率化学ぶ
- :id: 745
  :src: https://chichibu.keizai.biz/mapnews/745
  :lat: 35.9988245
  :lng: 139.0794146
  :link: https://chichibu.keizai.biz/headline/745/
  :date: 2024.11.13
  :image: https://images.keizai.biz/chichibu_keizai/headline/1731466772_photo.jpg
  :title: 秩父札所巡礼道に新たな道標設置　ロゴ刷新、案内地図も順次整備へ
- :id: 744
  :src: https://chichibu.keizai.biz/mapnews/744
  :lat: 36.0453622
  :lng: 139.0333879
  :link: https://chichibu.keizai.biz/headline/744/
  :date: 2024.11.13
  :image: https://images.keizai.biz/chichibu_keizai/headline/1731457150_photo.jpg
  :title: 秩父で「森のようちえんフォーラム」　自然体験からの学びを考える
- :id: 743
  :src: https://chichibu.keizai.biz/mapnews/743
  :lat: 36.0679896
  :lng: 139.1272651
  :link: https://chichibu.keizai.biz/headline/743/
  :date: 2024.11.09
  :image: https://images.keizai.biz/chichibu_keizai/headline/1731139994_photo.jpg
  :title: 皆野のカフェ「鹿のねどこ」が1周年　秩父みそ使ったナポリタンも提供
- :id: 742
  :src: https://chichibu.keizai.biz/mapnews/742
  :lat: 36.0770473
  :lng: 139.0889706
  :link: https://chichibu.keizai.biz/headline/742/
  :date: 2024.11.08
  :image: https://images.keizai.biz/chichibu_keizai/headline/1731056762_photo.jpg
  :title: 皆野町、世界一周大学と連携「町のファンづくり」に取り組む
- :id: 741
  :src: https://chichibu.keizai.biz/mapnews/741
  :lat: 35.985485
  :lng: 139.0978626
  :link: https://chichibu.keizai.biz/headline/741/
  :date: 2024.11.08
  :image: https://images.keizai.biz/chichibu_keizai/headline/1731050670_photo.jpg
  :title: 横瀬駅「夜の駅前食堂」が1周年　週替わり店主スタイルで週1営業
- :id: 740
  :src: https://chichibu.keizai.biz/mapnews/740
  :lat: 35.98693360000001
  :lng: 139.1025278
  :link: https://chichibu.keizai.biz/headline/740/
  :date: 2024.11.08
  :image: https://images.keizai.biz/chichibu_keizai/headline/1731038972_photo.jpg
  :title: 横瀬町で「埼玉いちご大学」ワークショップ　異業種かけあわせアイデア創出
- :id: 739
  :src: https://chichibu.keizai.biz/mapnews/739
  :lat: 36.0649925
  :lng: 139.0261692
  :link: https://chichibu.keizai.biz/headline/739/
  :date: 2024.11.06
  :image: https://images.keizai.biz/chichibu_keizai/headline/1730879596_photo.jpg
  :title: 秩父「天空の畑」完熟カボスの収穫ツアー　ワイナリー見学も
- :id: 738
  :src: https://chichibu.keizai.biz/mapnews/738
  :lat: 35.9988245
  :lng: 139.0794146
  :link: https://chichibu.keizai.biz/headline/738/
  :date: 2024.11.06
  :image: https://images.keizai.biz/chichibu_keizai/headline/1730857017_photo.jpg
  :title: 秩父で「サザエさん森へ行く植樹ツアー」　地域内外から130人参加
- :id: 737
  :src: https://chichibu.keizai.biz/mapnews/737
  :lat: 35.9870224
  :lng: 139.0830348
  :link: https://chichibu.keizai.biz/headline/737/
  :date: 2024.11.06
  :image: https://images.keizai.biz/chichibu_keizai/headline/1730853647_photo.jpg
  :title: "「秩父事件」140周年シンポジウム　地域の視点から事件の持つ意義を再考"
- :id: 736
  :src: https://chichibu.keizai.biz/mapnews/736
  :lat: 36.1157227
  :lng: 139.2196823
  :link: https://chichibu.keizai.biz/headline/736/
  :date: 2024.11.06
  :image: https://images.keizai.biz/chichibu_keizai/headline/1730852806_photo.jpg
  :title: 埼玉県立川の博物館で障害者ウイークイベント「みんなで展覧会」
- :id: 735
  :src: https://chichibu.keizai.biz/mapnews/735
  :lat: 36.1258553
  :lng: 139.1152099
  :link: https://chichibu.keizai.biz/headline/735/
  :date: 2024.11.05
  :image: https://images.keizai.biz/chichibu_keizai/headline/1730783796_photo.jpg
  :title: "「長瀞てらす」で秋のマルシェイベント　農産物・雑貨・植物など販売"
- :id: 734
  :src: https://chichibu.keizai.biz/mapnews/734
  :lat: 35.9987901
  :lng: 139.0847704
  :link: https://chichibu.keizai.biz/headline/734/
  :date: 2024.11.02
  :image: https://images.keizai.biz/chichibu_keizai/headline/1730511850_photo.jpg
  :title: 秩父「やきとん しん」が開店半年　移住先の秩父でホルモン串焼きなど提供
- :id: 733
  :src: https://chichibu.keizai.biz/mapnews/733
  :lat: 35.9871196
  :lng: 139.1036722
  :link: https://chichibu.keizai.biz/headline/733/
  :date: 2024.11.02
  :image: https://images.keizai.biz/chichibu_keizai/headline/1730509728_photo.jpg
  :title: 横瀬町産ブドウ規格外品使ったクラフトビール「くまさんのまごぶどう」発売
- :id: 732
  :src: https://chichibu.keizai.biz/mapnews/732
  :lat: 35.98693360000001
  :lng: 139.1025278
  :link: https://chichibu.keizai.biz/headline/732/
  :date: 2024.11.01
  :image: https://images.keizai.biz/chichibu_keizai/headline/1730444778_photo.jpg
  :title: 横瀬町で俳句大会　 海外赴任前の海外協力隊員が企画、町の魅力再発見
- :id: 731
  :src: https://chichibu.keizai.biz/mapnews/731
  :lat: 35.9986878
  :lng: 139.0857789
  :link: https://chichibu.keizai.biz/headline/731/
  :date: 2024.11.01
  :image: https://images.keizai.biz/chichibu_keizai/headline/1730443117_photo.jpg
  :title: 秩父で門倉貴史さんが講演会　新NISAや資産形成学び不安軽減
- :id: 730
  :src: https://chichibu.keizai.biz/mapnews/730
  :lat: 35.9489809
  :lng: 138.96764
  :link: https://chichibu.keizai.biz/headline/730/
  :date: 2024.10.31
  :image: https://images.keizai.biz/chichibu_keizai/headline/1730349954_photo.jpg
  :title: 秩父・大滝の紅葉、11月中旬まで見頃　週末には紅葉イベントも
- :id: 729
  :src: https://chichibu.keizai.biz/mapnews/729
  :lat: 35.99951850000001
  :lng: 139.0592499
  :link: https://chichibu.keizai.biz/headline/729/
  :date: 2024.10.30
  :image: https://images.keizai.biz/chichibu_keizai/headline/1730259912_photo.jpg
  :title: 秩父ミューズパークで「黄葉祭」　地元作家によるクラフトマルシェも
- :id: 728
  :src: https://chichibu.keizai.biz/mapnews/728
  :lat: 36.0031947
  :lng: 139.0944862
  :link: https://chichibu.keizai.biz/headline/728/
  :date: 2024.10.30
  :image: https://images.keizai.biz/chichibu_keizai/headline/1730250920_photo.jpg
  :title: 中大同窓組織「秩父白門会」が秋の懇親会　地元ネット媒体編集長の講演も
- :id: 727
  :src: https://chichibu.keizai.biz/mapnews/727
  :lat: 35.9925604
  :lng: 139.0752388
  :link: https://chichibu.keizai.biz/headline/727/
  :date: 2024.10.29
  :image: https://images.keizai.biz/chichibu_keizai/headline/1730170058_photo.jpg
  :title: 秩父で札所巡りツアー企画「札所へGO！」　秩父高の授業と連携して企画
- :id: 726
  :src: https://chichibu.keizai.biz/mapnews/726
  :lat: 36.0951551
  :lng: 139.1123518
  :link: https://chichibu.keizai.biz/headline/726/
  :date: 2024.10.28
  :image: https://images.keizai.biz/chichibu_keizai/headline/1730082711_photo.jpg
  :title: ちちぶエフエムが5周年記念でオリジナル楽曲　長瀞の地酒フェアで初披露
- :id: 725
  :src: https://chichibu.keizai.biz/mapnews/725
  :lat: 35.9902117
  :lng: 139.0835613
  :link: https://chichibu.keizai.biz/headline/725/
  :date: 2024.10.26
  :image: https://images.keizai.biz/chichibu_keizai/headline/1729934579_photo.jpg
  :title: 秩父・祭の湯にプライベートサウナエリア　マイナス20度の氷点下ルームも
- :id: 724
  :src: https://chichibu.keizai.biz/mapnews/724
  :lat: 35.985485
  :lng: 139.0978626
  :link: https://chichibu.keizai.biz/headline/724/
  :date: 2024.10.25
  :image: https://images.keizai.biz/chichibu_keizai/headline/1729848341_photo.jpg
  :title: 横瀬町で石灰岩をイメージした「武甲山ラムネ」発売　秩父のランナーを応援
- :id: 723
  :src: https://chichibu.keizai.biz/mapnews/723
  :lat: 35.9988245
  :lng: 139.0794146
  :link: https://chichibu.keizai.biz/headline/723/
  :date: 2024.10.25
  :image: https://images.keizai.biz/chichibu_keizai/headline/1729815920_photo.jpg
  :title: 横瀬に一棟貸切ホテル「teihaku」3号店　サウナと露天風呂、BBQも
- :id: 722
  :src: https://chichibu.keizai.biz/mapnews/722
  :lat: 35.98693360000001
  :lng: 139.1025278
  :link: https://chichibu.keizai.biz/headline/722/
  :date: 2024.10.24
  :image: https://images.keizai.biz/chichibu_keizai/headline/1729738081_photo.jpg
  :title: 横瀬町でグリーンインフラ勉強会　人と自然が共存するエコシステム目指す
- :id: 721
  :src: https://chichibu.keizai.biz/mapnews/721
  :lat: 35.9923447
  :lng: 139.0851871
  :link: https://chichibu.keizai.biz/headline/721/
  :date: 2024.10.23
  :image: https://images.keizai.biz/chichibu_keizai/headline/1729643205_photo.jpg
  :title: 秩父出身の写真家・清水武甲　秩父「ギャラリー武甲庵」で写真展　
- :id: 720
  :src: https://chichibu.keizai.biz/mapnews/720
  :lat: 35.985485
  :lng: 139.0978626
  :link: https://chichibu.keizai.biz/headline/720/
  :date: 2024.10.22
  :image: https://images.keizai.biz/chichibu_keizai/headline/1729564709_photo.jpg
  :title: "「西武秩父線」55周年イベント　秩父市と横瀬町で同時開催"
- :id: 719
  :src: https://chichibu.keizai.biz/mapnews/719
  :lat: 35.98693360000001
  :lng: 139.1025278
  :link: https://chichibu.keizai.biz/headline/719/
  :date: 2024.10.17
  :image: https://images.keizai.biz/chichibu_keizai/headline/1729151819_photo.jpg
  :title: 横瀬町「たてラボ」とよこらぼのプロジェクトが「ウッドデザイン賞」受賞
- :id: 718
  :src: https://chichibu.keizai.biz/mapnews/718
  :lat: 36.0628693
  :lng: 139.0993443
  :link: https://chichibu.keizai.biz/headline/718/
  :date: 2024.10.16
  :image: https://images.keizai.biz/chichibu_keizai/headline/1729072122_photo.jpg
  :title: 秩父のアートイベント「さとぴく」　52店の出店とアート体験を
- :id: 717
  :src: https://chichibu.keizai.biz/mapnews/717
  :lat: 35.9972121
  :lng: 139.0839028
  :link: https://chichibu.keizai.biz/headline/717/
  :date: 2024.10.15
  :image: https://images.keizai.biz/chichibu_keizai/headline/1728964797_photo.jpg
  :title: 秩父神社・妙見の森公園でライトアップイベント「ちちぶ夢あかり」
- :id: 716
  :src: https://chichibu.keizai.biz/mapnews/716
  :lat: 35.9823151
  :lng: 139.042722
  :link: https://chichibu.keizai.biz/headline/716/
  :date: 2024.10.11
  :image: https://images.keizai.biz/chichibu_keizai/headline/1728617498_photo.jpg
  :title: 秩父ミューズパークで「黄葉祭」　3キロの通りで500本のイチョウ楽しむ
- :id: 715
  :src: https://chichibu.keizai.biz/mapnews/715
  :lat: 35.94412459999999
  :lng: 138.8659787
  :link: https://chichibu.keizai.biz/headline/715/
  :date: 2024.10.10
  :image: https://images.keizai.biz/chichibu_keizai/headline/1728524347_photo.jpg
  :title: 大滝・栃本でキノコ狩り体験　絶滅危惧種「コウボウフデ」も発見
- :id: 714
  :src: https://chichibu.keizai.biz/mapnews/714
  :lat: 35.9925604
  :lng: 139.0752388
  :link: https://chichibu.keizai.biz/headline/714/
  :date: 2024.10.07
  :image: https://images.keizai.biz/chichibu_keizai/headline/1728284817_photo.jpg
  :title: 秩父高校で探究学習中間報告　地域企業と連携活動
- :id: 713
  :src: https://chichibu.keizai.biz/mapnews/713
  :lat: 35.9985019
  :lng: 139.1007918
  :link: https://chichibu.keizai.biz/headline/713/
  :date: 2024.10.06
  :image: https://images.keizai.biz/chichibu_keizai/headline/1728118657_photo.jpg
  :title: 横瀬町「カリラボ」、鹿肉を使った冷凍ラグーパスタセット発売
- :id: 712
  :src: https://chichibu.keizai.biz/mapnews/712
  :lat: 35.9743232
  :lng: 139.1094359
  :link: https://chichibu.keizai.biz/headline/712/
  :date: 2024.10.02
  :image: https://images.keizai.biz/chichibu_keizai/headline/1727861941_photo.jpg
  :title: 横瀬町・武甲山御嶽神社で「里宮太々神楽」奉納　世代を超えて継承
- :id: 711
  :src: https://chichibu.keizai.biz/mapnews/711
  :lat: 35.9763677
  :lng: 139.0539955
  :link: https://chichibu.keizai.biz/headline/711/
  :date: 2024.09.30
  :image: https://images.keizai.biz/chichibu_keizai/headline/1727689528_photo.jpg
  :title: 秩父のドッグランで「わん’sフェス」　保護犬の譲渡会やしつけ教室も
- :id: 710
  :src: https://chichibu.keizai.biz/mapnews/710
  :lat: 36.0861785
  :lng: 139.1134038
  :link: https://chichibu.keizai.biz/headline/710/
  :date: 2024.09.26
  :image: https://images.keizai.biz/chichibu_keizai/headline/1727659116_photo.jpg
  :title: 上長瀞駅前にジビエキッチンカー「桜東風」　秩父の食材にこだわり
- :id: 709
  :src: https://chichibu.keizai.biz/mapnews/709
  :lat: 36.0861785
  :lng: 139.1134038
  :link: https://chichibu.keizai.biz/headline/709/
  :date: 2024.09.25
  :image: https://images.keizai.biz/chichibu_keizai/headline/1727254191_photo.jpg
  :title: 長瀞に無人駅を活用した「瀞場TOROBA」　日本で一番面白い駅目指す
- :id: 708
  :src: https://chichibu.keizai.biz/mapnews/708
  :lat: 35.98693360000001
  :lng: 139.1025278
  :link: https://chichibu.keizai.biz/headline/708/
  :date: 2024.09.20
  :image: https://images.keizai.biz/chichibu_keizai/headline/1726839041_photo.jpg
  :title: 横瀬町で「在宅ワーク入門セミナー」 サウナきっかけで町に提案
- :id: 707
  :src: https://chichibu.keizai.biz/mapnews/707
  :lat: 36.0487649
  :lng: 139.0940287
  :link: https://chichibu.keizai.biz/headline/707/
  :date: 2024.09.19
  :image: https://images.keizai.biz/chichibu_keizai/headline/1726708910_photo.jpg
  :title: 秩父のカレー店にテーマ曲「それいけ！みぃちゃん」　三上隼さんがCD化
- :id: 706
  :src: https://chichibu.keizai.biz/mapnews/706
  :lat: 36.0621041
  :lng: 139.1011384
  :link: https://chichibu.keizai.biz/headline/706/
  :date: 2024.09.18
  :image: https://images.keizai.biz/chichibu_keizai/headline/1726651865_photo.jpg
  :title: 皆野町・Mahora稲穂山に西武文理大の研修拠点「ちちぶ伝習館」
- :id: 705
  :src: https://chichibu.keizai.biz/mapnews/705
  :lat: 36.0189888
  :lng: 138.9186594
  :link: https://chichibu.keizai.biz/headline/705/
  :date: 2024.09.17
  :image: https://images.keizai.biz/chichibu_keizai/headline/1726555490_photo.jpg
  :title: 小鹿野のダリア園、広大な土地に極小輪から巨大輪まで350種5000株
- :id: 704
  :src: https://chichibu.keizai.biz/mapnews/704
  :lat: 35.9986417
  :lng: 139.0857777
  :link: https://chichibu.keizai.biz/headline/704/
  :date: 2024.09.17
  :image: https://images.keizai.biz/chichibu_keizai/headline/1726539331_photo.jpg
  :title: 秩父で「ロボコンFIND秩父杯」　20機参戦、企画作りで高校生も参加
- :id: 703
  :src: https://chichibu.keizai.biz/mapnews/703
  :lat: 35.9988245
  :lng: 139.0794146
  :link: https://chichibu.keizai.biz/headline/703/
  :date: 2024.09.13
  :image: https://images.keizai.biz/chichibu_keizai/headline/1726211831_photo.jpg
  :title: 秩父の介護タクシー「あべケアタクシー」、移送件数6500件突破
- :id: 702
  :src: https://chichibu.keizai.biz/mapnews/702
  :lat: 35.9988245
  :lng: 139.0794146
  :link: https://chichibu.keizai.biz/headline/702/
  :date: 2024.09.12
  :image: https://images.keizai.biz/chichibu_keizai/headline/1726110646_photo.jpg
  :title: 秩父経済新聞、地域のハッピーニュースを届けて記事700本突破
- :id: 701
  :src: https://chichibu.keizai.biz/mapnews/701
  :lat: 35.98693360000001
  :lng: 139.1025278
  :link: https://chichibu.keizai.biz/headline/701/
  :date: 2024.09.11
  :image: https://images.keizai.biz/chichibu_keizai/headline/1726019360_photo.jpg
  :title: 横瀬町で「町長とお話ししましょう」最終回　町の課題や要望起点に議論
- :id: 700
  :src: https://chichibu.keizai.biz/mapnews/700
  :lat: 35.9988245
  :lng: 139.0794146
  :link: https://chichibu.keizai.biz/headline/700/
  :date: 2024.09.09
  :image: https://images.keizai.biz/chichibu_keizai/headline/1725868357_photo.jpg
  :title: 秩父「つる福祉タクシー」が1周年　 介護福祉士の経験生かし地元に恩返し
- :id: 699
  :src: https://chichibu.keizai.biz/mapnews/699
  :lat: 35.9988245
  :lng: 139.0794146
  :link: https://chichibu.keizai.biz/headline/699/
  :date: 2024.09.09
  :image: https://images.keizai.biz/chichibu_keizai/headline/1725845639_photo.png
  :title: 秩父で「平日湯めぐりスタンプラリー」　3温浴施設が地元客向けに合同企画
- :id: 698
  :src: https://chichibu.keizai.biz/mapnews/698
  :lat: 36.1147677
  :lng: 139.1096114
  :link: https://chichibu.keizai.biz/headline/698/
  :date: 2024.09.04
  :image: https://images.keizai.biz/chichibu_keizai/headline/1725424659_photo.jpg
  :title: 秋の七草寺を訪ねるバスツアー開催へ　御朱印や秋の味覚も
- :id: 697
  :src: https://chichibu.keizai.biz/mapnews/697
  :lat: 35.9516722
  :lng: 138.9625194
  :link: https://chichibu.keizai.biz/headline/697/
  :date: 2024.08.30
  :image: https://images.keizai.biz/chichibu_keizai/headline/1725000504_photo.jpg
  :title: 大滝の「ゲストハウス錦」、地域に根付いた宿を目指して10周年
- :id: 696
  :src: https://chichibu.keizai.biz/mapnews/696
  :lat: 35.987127
  :lng: 139.0839206
  :link: https://chichibu.keizai.biz/headline/696/
  :date: 2024.08.30
  :image: https://images.keizai.biz/chichibu_keizai/headline/1724992496_photo.jpg
  :title: 秩父「木亭」で藍染めの端切れを使った二人展　リース作りワークショップも
- :id: 695
  :src: https://chichibu.keizai.biz/mapnews/695
  :lat: 35.9704422
  :lng: 139.1024071
  :link: https://chichibu.keizai.biz/headline/695/
  :date: 2024.08.29
  :image: https://images.keizai.biz/chichibu_keizai/headline/1724924102_photo.jpg
  :title: 横瀬町在住の植物料理研究家ヨシベジさん、「なないろごはん」初出版
- :id: 694
  :src: https://chichibu.keizai.biz/mapnews/694
  :lat: 35.9189443
  :lng: 138.8598651
  :link: https://chichibu.keizai.biz/headline/694/
  :date: 2024.08.28
  :image: https://images.keizai.biz/chichibu_keizai/headline/1724836832_photo.jpg
  :title: 秩父大滝・栃本にキャンプ場「森と空」　初心者向けに手ぶらセットプランも
- :id: 693
  :src: https://chichibu.keizai.biz/mapnews/693
  :lat: 35.9866818
  :lng: 139.1029381
  :link: https://chichibu.keizai.biz/headline/693/
  :date: 2024.08.28
  :image: https://images.keizai.biz/chichibu_keizai/headline/1724834458_photo.jpg
  :title: 横瀬町で児童・生徒・学生と共に福祉を学ぶイベント　地元福祉事業者と連携
- :id: 692
  :src: https://chichibu.keizai.biz/mapnews/692
  :lat: 36.1258553
  :lng: 139.1152099
  :link: https://chichibu.keizai.biz/headline/692/
  :date: 2024.08.27
  :image: https://images.keizai.biz/chichibu_keizai/headline/1724721554_photo.jpg
  :title: 地元産のフルーツを使った新作ジェラート　長瀞てらすが夏季限定販売
- :id: 691
  :src: https://chichibu.keizai.biz/mapnews/691
  :lat: 35.9988245
  :lng: 139.0794146
  :link: https://chichibu.keizai.biz/headline/691/
  :date: 2024.08.22
  :image: https://images.keizai.biz/chichibu_keizai/headline/1724298599_photo.jpg
  :title: 児童・生徒・学生が「秩父銘仙」学ぶイベント　秩父出身の大学生が企画運営
- :id: 690
  :src: https://chichibu.keizai.biz/mapnews/690
  :lat: 36.092402
  :lng: 139.1055933
  :link: https://chichibu.keizai.biz/headline/690/
  :date: 2024.08.16
  :image: https://images.keizai.biz/chichibu_keizai/headline/1724230497_photo.jpg
  :title: 長瀞に限定お化け屋敷「FPS」　映画の世界観を元にプロデュース
- :id: 689
  :src: https://chichibu.keizai.biz/mapnews/689
  :lat: 36.0179875
  :lng: 139.086875
  :link: https://chichibu.keizai.biz/headline/689/
  :date: 2024.08.20
  :image: https://images.keizai.biz/chichibu_keizai/headline/1724116994_photo.jpg
  :title: 秩父にラーメン店「トリコ食堂」　元フレンチシェフが開業
- :id: 688
  :src: https://chichibu.keizai.biz/mapnews/688
  :lat: 35.99167790000001
  :lng: 139.0870406
  :link: https://chichibu.keizai.biz/headline/688/
  :date: 2024.08.17
  :image: https://images.keizai.biz/chichibu_keizai/headline/1723851103_photo.jpg
  :title: 秩父市役所近くに「ちちぶコーヒー」　秩父イメージのブレンドやちちぶ割も
- :id: 687
  :src: https://chichibu.keizai.biz/mapnews/687
  :lat: 36.0951551
  :lng: 139.1123518
  :link: https://chichibu.keizai.biz/headline/687/
  :date: 2024.08.16
  :image: https://images.keizai.biz/chichibu_keizai/headline/1723795675_photo.jpg
  :title: 小鹿野町出身大道芸ユニット「墨鹿屋」、長瀞駅前でパフォーマンス披露
- :id: 686
  :src: https://chichibu.keizai.biz/mapnews/686
  :lat: 35.9902117
  :lng: 139.0835613
  :link: https://chichibu.keizai.biz/headline/686/
  :date: 2024.08.15
  :image: https://images.keizai.biz/chichibu_keizai/headline/1723692686_photo.jpg
  :title: 秩父「祭の湯」とスマートフォンゲーム「ブルーアーカイブ」がコラボ
- :id: 685
  :src: https://chichibu.keizai.biz/mapnews/685
  :lat: 35.995073
  :lng: 139.0837746
  :link: https://chichibu.keizai.biz/headline/685/
  :date: 2024.08.11
  :image: https://images.keizai.biz/chichibu_keizai/headline/1723340653_photo.jpg
  :title: 秩父に「ドリンクスタンド マチカド」　特産物使ったドリンク・スイーツ提供
- :id: 684
  :src: https://chichibu.keizai.biz/mapnews/684
  :lat: 36.0926002
  :lng: 139.1072231
  :link: https://chichibu.keizai.biz/headline/684/
  :date: 2024.08.09
  :image: https://images.keizai.biz/chichibu_keizai/headline/1723203989_photo.jpg
  :title: 長瀞町郷土資料館で特別展 大正時代の絵はがきで100年前の長瀞を知る
- :id: 683
  :src: https://chichibu.keizai.biz/mapnews/683
  :lat: 35.9871196
  :lng: 139.1036722
  :link: https://chichibu.keizai.biz/headline/683/
  :date: 2024.08.09
  :image: https://images.keizai.biz/chichibu_keizai/headline/1723174914_photo.jpg
  :title: 横瀬町「ENgaWA」で縁日イベント　横瀬産果物ソースの特製かき氷も
- :id: 682
  :src: https://chichibu.keizai.biz/mapnews/682
  :lat: 36.0073282
  :lng: 138.9739127
  :link: https://chichibu.keizai.biz/headline/682/
  :date: 2024.08.08
  :image: https://images.keizai.biz/chichibu_keizai/headline/1723107881_photo.jpg
  :title: 小鹿野町で「全国中学生ボルダー競技大会」　国内初開催
- :id: 681
  :src: https://chichibu.keizai.biz/mapnews/681
  :lat: 35.987286
  :lng: 139.100051
  :link: https://chichibu.keizai.biz/headline/681/
  :date: 2024.08.07
  :image: https://images.keizai.biz/chichibu_keizai/headline/1723005252_photo.jpg
  :title: "「子ども懇談会」に横瀬小児童　自作資料を使ったプレゼンで町長へ直接提案"
- :id: 680
  :src: https://chichibu.keizai.biz/mapnews/680
  :lat: 35.9949753
  :lng: 139.0840114
  :link: https://chichibu.keizai.biz/headline/680/
  :date: 2024.08.07
  :image: https://images.keizai.biz/chichibu_keizai/headline/1723000804_photo.jpg
  :title: 秩父のブックカフェ「表参道てらす」に書庫　秩父産材使った本棚設置
- :id: 679
  :src: https://chichibu.keizai.biz/mapnews/679
  :lat: 36.0769613
  :lng: 139.1096597
  :link: https://chichibu.keizai.biz/headline/679/
  :date: 2024.08.02
  :image: https://images.keizai.biz/chichibu_keizai/headline/1722835797_photo.jpg
  :title: "「道の駅 みなの」が「ちちぶみそパン」　みそポテトのタレ生かし商品化"
- :id: 678
  :src: https://chichibu.keizai.biz/mapnews/678
  :lat: 35.9675228
  :lng: 139.0516058
  :link: https://chichibu.keizai.biz/headline/678/
  :date: 2024.08.04
  :image: https://images.keizai.biz/chichibu_keizai/headline/1722742569_photo.jpg
  :title: 熱湯を使った「除草システム」導入検討へ　秩父市荒川総合運動公園で勉強会
- :id: 677
  :src: https://chichibu.keizai.biz/mapnews/677
  :lat: 35.9947789
  :lng: 139.0815371
  :link: https://chichibu.keizai.biz/headline/677/
  :date: 2024.08.01
  :image: https://images.keizai.biz/chichibu_keizai/headline/1722508258_photo.jpg
  :title: ちちぶエフエム5周年で「ちちぶソング」制作へ　特番で進行状況紹介
- :id: 676
  :src: https://chichibu.keizai.biz/mapnews/676
  :lat: 35.9902117
  :lng: 139.0835613
  :link: https://chichibu.keizai.biz/headline/676/
  :date: 2024.07.24
  :image: https://images.keizai.biz/chichibu_keizai/headline/1721785527_photo.jpg
  :title: "「西武秩父駅前温泉 祭の湯」で園児が風鈴を飾り付け　涼を演出"
- :id: 675
  :src: https://chichibu.keizai.biz/mapnews/675
  :lat: 36.0024132
  :lng: 139.0722657
  :link: https://chichibu.keizai.biz/headline/675/
  :date: 2024.07.22
  :image: https://images.keizai.biz/chichibu_keizai/headline/1721651067_photo.jpg
  :title: "「秩父川瀬祭」に延べ9万4000人　8基の屋台・笠鉾が曳行"
- :id: 674
  :src: https://chichibu.keizai.biz/mapnews/674
  :lat: 36.1168048
  :lng: 139.1951618
  :link: https://chichibu.keizai.biz/headline/674/
  :date: 2024.07.22
  :image: https://images.keizai.biz/chichibu_keizai/headline/1721634775_photo.jpg
  :title: 寄居町で「朝顔まつり」　30種を展示・販売、珍しい「変化朝顔」も
- :id: 673
  :src: https://chichibu.keizai.biz/mapnews/673
  :lat: 35.9972121
  :lng: 139.0839028
  :link: https://chichibu.keizai.biz/headline/673/
  :date: 2024.07.17
  :image: https://images.keizai.biz/chichibu_keizai/headline/1721211066_photo.jpg
  :title: 秩父川瀬祭の給水用「引き車」新調 地元産木材使い伝統工法のデジタル化
- :id: 672
  :src: https://chichibu.keizai.biz/mapnews/672
  :lat: 35.990426
  :lng: 139.1020417
  :link: https://chichibu.keizai.biz/headline/672/
  :date: 2024.07.16
  :image: https://images.keizai.biz/chichibu_keizai/headline/1721091490_photo.jpg
  :title: 横瀬川で 環境保護を学ぶ子ども向けイベント　夏休みの自由研究にも
- :id: 671
  :src: https://chichibu.keizai.biz/mapnews/671
  :lat: 36.0142008
  :lng: 139.0289655
  :link: https://chichibu.keizai.biz/headline/671/
  :date: 2024.07.09
  :image: https://images.keizai.biz/chichibu_keizai/headline/1720496165_photo.jpg
  :title: 小鹿野町で「あじさい歌舞伎」　ヤマトタケル伝説にまつわる新作上演
- :id: 670
  :src: https://chichibu.keizai.biz/mapnews/670
  :lat: 36.0621041
  :lng: 139.1011384
  :link: https://chichibu.keizai.biz/headline/670/
  :date: 2024.07.03
  :image: https://images.keizai.biz/chichibu_keizai/headline/1719977708_photo.jpg
  :title: 秩父の高校生と地域おこし協力隊が初めての二人芝居　生徒が台本制作
- :id: 669
  :src: https://chichibu.keizai.biz/mapnews/669
  :lat: 35.9988245
  :lng: 139.0794146
  :link: https://chichibu.keizai.biz/headline/669/
  :date: 2024.07.03
  :image: https://images.keizai.biz/chichibu_keizai/headline/1719976879_photo.jpg
  :title: 秩父「ただかね農園」、コロンバンの「ナンバーワンイチゴ」3連覇
- :id: 668
  :src: https://chichibu.keizai.biz/mapnews/668
  :lat: 35.9988245
  :lng: 139.0794146
  :link: https://chichibu.keizai.biz/headline/668/
  :date: 2024.07.01
  :image: https://images.keizai.biz/chichibu_keizai/headline/1719823025_photo.jpg
  :title: 秩父経・上半期PV1位は三峯神社の交通混雑状況、AI活用し可視化へ
- :id: 667
  :src: https://chichibu.keizai.biz/mapnews/667
  :lat: 35.9892555
  :lng: 139.0837704
  :link: https://chichibu.keizai.biz/headline/667/
  :date: 2024.06.27
  :image: https://images.keizai.biz/chichibu_keizai/headline/1719466170_photo.jpg
  :title: 秩父札所34カ所で「エンジョイ散華」　ストラップ発売、札所巡りを身近に
- :id: 666
  :src: https://chichibu.keizai.biz/mapnews/666
  :lat: 35.990426
  :lng: 139.1020417
  :link: https://chichibu.keizai.biz/headline/666/
  :date: 2024.06.26
  :image: https://images.keizai.biz/chichibu_keizai/headline/1719397546_photo.jpg
  :title: 横瀬町の武甲温泉、25日を「武甲の日」に　毎月イベント開催へ
- :id: 665
  :src: https://chichibu.keizai.biz/mapnews/665
  :lat: 36.0788379
  :lng: 139.0932652
  :link: https://chichibu.keizai.biz/headline/665/
  :date: 2024.06.24
  :image: https://images.keizai.biz/chichibu_keizai/headline/1719207732_photo.jpg
  :title: 皆野幼稚園でカレーパーティー　大鍋に「おいしくなあれ」と声合わせる
- :id: 664
  :src: https://chichibu.keizai.biz/mapnews/664
  :lat: 36.0274007
  :lng: 139.1209966
  :link: https://chichibu.keizai.biz/headline/664/
  :date: 2024.06.24
  :image: https://images.keizai.biz/chichibu_keizai/headline/1719195877_photo.jpg
  :title: 秩父札所1番で銘仙を使い「御朱印帳作り」ワークショップ
- :id: 663
  :src: https://chichibu.keizai.biz/mapnews/663
  :lat: 35.9870224
  :lng: 139.0830348
  :link: https://chichibu.keizai.biz/headline/663/
  :date: 2024.06.17
  :image: https://images.keizai.biz/chichibu_keizai/headline/1718617230_photo.jpg
  :title: 秩父青年会議所が「五感で学ぶジビエ体験」　わなの実演や鹿肉試食も
- :id: 662
  :src: https://chichibu.keizai.biz/mapnews/662
  :lat: 35.9664076
  :lng: 139.0530204
  :link: https://chichibu.keizai.biz/headline/662/
  :date: 2024.06.14
  :image: https://images.keizai.biz/chichibu_keizai/headline/1718588581_photo.jpg
  :title: カヌーを使って「秩父さくら湖」のごみ拾い　地域住民と資源機構が協力
- :id: 661
  :src: https://chichibu.keizai.biz/mapnews/661
  :lat: 35.9976189
  :lng: 139.0841388
  :link: https://chichibu.keizai.biz/headline/661/
  :date: 2024.06.13
  :image: https://images.keizai.biz/chichibu_keizai/headline/1718258709_photo.jpg
  :title: "「ローカルサミットin武蔵国・ちちぶ」　地域の活性化を考える"
- :id: 660
  :src: https://chichibu.keizai.biz/mapnews/660
  :lat: 35.9988245
  :lng: 139.0794146
  :link: https://chichibu.keizai.biz/headline/660/
  :date: 2024.06.12
  :image: https://images.keizai.biz/chichibu_keizai/headline/1718183489_photo.jpg
  :title: 宮沢賢治「秩父地方地質巡検旅行」の足跡を短歌と岩石でたどるツアー
- :id: 659
  :src: https://chichibu.keizai.biz/mapnews/659
  :lat: 35.9917644
  :lng: 139.0854619
  :link: https://chichibu.keizai.biz/headline/659/
  :date: 2024.06.10
  :image: https://images.keizai.biz/chichibu_keizai/headline/1718010656_photo.jpg
  :title: 秩父市役所前で「クラフトフェア」　 2日間で4000人来場
- :id: 658
  :src: https://chichibu.keizai.biz/mapnews/658
  :lat: 36.1060456
  :lng: 139.1142033
  :link: https://chichibu.keizai.biz/headline/658/
  :date: 2024.06.03
  :image: https://images.keizai.biz/chichibu_keizai/headline/1717378402_photo.jpg
  :title: 長瀞で開業20年の吹きガラス職人、長瀞のホテル「セ・ラ・ヴィ」で作品展
- :id: 657
  :src: https://chichibu.keizai.biz/mapnews/657
  :lat: 36.0284665
  :lng: 139.0818426
  :link: https://chichibu.keizai.biz/headline/657/
  :date: 2024.05.31
  :image: https://images.keizai.biz/chichibu_keizai/headline/1717143854_photo.jpg
  :title: 秩父「寺尾工げい」　ウイスキー熟成だるを加工したコップやスモーカー発売
- :id: 656
  :src: https://chichibu.keizai.biz/mapnews/656
  :lat: 35.9905844
  :lng: 139.0873154
  :link: https://chichibu.keizai.biz/headline/656/
  :date: 2024.05.31
  :image: https://images.keizai.biz/chichibu_keizai/headline/1717140661_photo.jpg
  :title: 銘仙とアール・デコの融合「ちちぶ銘仙館」で展示
- :id: 655
  :src: https://chichibu.keizai.biz/mapnews/655
  :lat: 35.9949753
  :lng: 139.0840114
  :link: https://chichibu.keizai.biz/headline/655/
  :date: 2024.05.31
  :image: https://images.keizai.biz/chichibu_keizai/headline/1717138492_photo.jpg
  :title: 秩父・番場町のカフェ「表参道てらす」で風景を記録した旅人の写真展
- :id: 654
  :src: https://chichibu.keizai.biz/mapnews/654
  :lat: 36.0146219
  :lng: 139.0420909
  :link: https://chichibu.keizai.biz/headline/654/
  :date: 2024.05.30
  :image: https://images.keizai.biz/chichibu_keizai/headline/1717044374_photo.jpg
  :title: 小鹿野町・秩父ふるさと村で「雷部屋」が大相撲合宿　迫力ある稽古を間近に
- :id: 653
  :src: https://chichibu.keizai.biz/mapnews/653
  :lat: 35.9988245
  :lng: 139.0794146
  :link: https://chichibu.keizai.biz/headline/653/
  :date: 2024.05.29
  :image: https://images.keizai.biz/chichibu_keizai/headline/1716968947_photo.jpg
  :title: 横瀬町各所で「オープンガーデン」　21の庭でバラなど見頃迎える
- :id: 652
  :src: https://chichibu.keizai.biz/mapnews/652
  :lat: 35.9988245
  :lng: 139.0794146
  :link: https://chichibu.keizai.biz/headline/652/
  :date: 2024.05.28
  :image: https://images.keizai.biz/chichibu_keizai/headline/1716879520_photo.jpg
  :title: 横瀬町で子どもの「足育講座」　正しい靴の履き方など指導
- :id: 651
  :src: https://chichibu.keizai.biz/mapnews/651
  :lat: 36.0398628
  :lng: 139.1084381
  :link: https://chichibu.keizai.biz/headline/651/
  :date: 2024.05.27
  :image: https://images.keizai.biz/chichibu_keizai/headline/1716793301_photo.jpg
  :title: 秩父に「蔵カフェ山七」　銘仙の蔵を利活用、地域の伝統と文化をアピール
- :id: 650
  :src: https://chichibu.keizai.biz/mapnews/650
  :lat: 35.9924324
  :lng: 139.0852613
  :link: https://chichibu.keizai.biz/headline/650/
  :date: 2024.05.26
  :image: https://images.keizai.biz/chichibu_keizai/headline/1716682220_photo.jpg
  :title: 秩父出身の写真家・清水武甲の写真集出版　ギャラリー武甲庵で記念展
- :id: 649
  :src: https://chichibu.keizai.biz/mapnews/649
  :lat: 36.0948828
  :lng: 139.1141046
  :link: https://chichibu.keizai.biz/headline/649/
  :date: 2024.05.23
  :image: https://images.keizai.biz/chichibu_keizai/headline/1716457553_photo.jpg
  :title: 長瀞・岩畳通りにコーヒースタンド　焙煎専門店が出店、「おやつ会」も
- :id: 648
  :src: https://chichibu.keizai.biz/mapnews/648
  :lat: 35.9773635
  :lng: 139.1361029
  :link: https://chichibu.keizai.biz/headline/648/
  :date: 2024.05.23
  :image: https://images.keizai.biz/chichibu_keizai/headline/1716446296_photo.jpg
  :title: 横瀬町でハイキングイベント「里山まるマルシェ」　新緑とグルメを楽しむ
- :id: 647
  :src: https://chichibu.keizai.biz/mapnews/647
  :lat: 35.9988245
  :lng: 139.0794146
  :link: https://chichibu.keizai.biz/headline/647/
  :date: 2024.05.22
  :image: https://images.keizai.biz/chichibu_keizai/headline/1716378945_photo.jpg
  :title: 小鹿野町の車庫を改装したホールでコンサート　細く、長く、地道に継続
- :id: 646
  :src: https://chichibu.keizai.biz/mapnews/646
  :lat: 36.0621154
  :lng: 139.1011534
  :link: https://chichibu.keizai.biz/headline/646/
  :date: 2024.05.22
  :image: https://images.keizai.biz/chichibu_keizai/headline/1716365164_photo.jpg
  :title: 皆野町のアートイベント「さとぴく」　ビジュアルデザインを初公募
- :id: 645
  :src: https://chichibu.keizai.biz/mapnews/645
  :lat: 36.1043041
  :lng: 139.1075694
  :link: https://chichibu.keizai.biz/headline/645/
  :date: 2024.05.21
  :image: https://images.keizai.biz/chichibu_keizai/headline/1716293495_photo.jpg
  :title: 長瀞第一小、統合して1カ月半で記念式典　「たくさん友達ができた」
- :id: 644
  :src: https://chichibu.keizai.biz/mapnews/644
  :lat: 35.9873397
  :lng: 139.1000677
  :link: https://chichibu.keizai.biz/headline/644/
  :date: 2024.05.20
  :image: https://images.keizai.biz/chichibu_keizai/headline/1716191041_photo.jpg
  :title: "「ポケモンGO」に横瀬町の公式ルート　「子どもにも歩きやすいルートを」"
- :id: 643
  :src: https://chichibu.keizai.biz/mapnews/643
  :lat: 35.9897564
  :lng: 139.0648918
  :link: https://chichibu.keizai.biz/headline/643/
  :date: 2024.05.20
  :image: https://images.keizai.biz/chichibu_keizai/headline/1716169480_photo.jpg
  :title: 秩父にアメリカンスタイルの「510ダイナー」　コンテナ活用し家族で経営
- :id: 642
  :src: https://chichibu.keizai.biz/mapnews/642
  :lat: 36.0911579
  :lng: 139.1023576
  :link: https://chichibu.keizai.biz/headline/642/
  :date: 2024.05.16
  :image: https://images.keizai.biz/chichibu_keizai/headline/1715843899_photo.jpg
  :title: 長瀞でアウトドアギア展示・プチ体験イベント「フラッパーランドドアーズ」
- :id: 641
  :src: https://chichibu.keizai.biz/mapnews/641
  :lat: 35.9962822
  :lng: 139.0869026
  :link: https://chichibu.keizai.biz/headline/641/
  :date: 2024.05.15
  :image: https://images.keizai.biz/chichibu_keizai/headline/1715842967_photo.jpg
  :title: 秩父「パラダイスアレイ」によるバーベキューとスパイス料理を楽しむイベント
- :id: 640
  :src: https://chichibu.keizai.biz/mapnews/640
  :lat: 35.9892442
  :lng: 139.0837844
  :link: https://chichibu.keizai.biz/headline/640/
  :date: 2024.05.14
  :image: https://images.keizai.biz/chichibu_keizai/headline/1715671051_photo.jpg
  :title: 西武秩父駅前でビアフェス　新商品先行販売や立ち飲み処の改名発表も
- :id: 639
  :src: https://chichibu.keizai.biz/mapnews/639
  :lat: 35.98695590000001
  :lng: 139.1024563
  :link: https://chichibu.keizai.biz/headline/639/
  :date: 2024.05.14
  :image: https://images.keizai.biz/chichibu_keizai/headline/1715669764_photo.jpg
  :title: 横瀬町でノーベル物理学賞受賞の物理学者ファインマンを題材に対談ライブ
- :id: 638
  :src: https://chichibu.keizai.biz/mapnews/638
  :lat: 35.993818
  :lng: 139.0837795
  :link: https://chichibu.keizai.biz/headline/638/
  :date: 2024.05.13
  :image: https://images.keizai.biz/chichibu_keizai/headline/1715562935_photo.jpg
  :title: 秩父に宿泊施設「宿　絢乃（AYANO）番場通り」　薬剤師が監修
- :id: 637
  :src: https://chichibu.keizai.biz/mapnews/637
  :lat: 35.9971042
  :lng: 139.0834687
  :link: https://chichibu.keizai.biz/headline/637/
  :date: 2024.05.10
  :image: https://images.keizai.biz/chichibu_keizai/headline/1715320539_photo.jpg
  :title: よもぎ蒸しサロン「イース」、秩父エリアで営業始める　自宅サロンの準備も
- :id: 636
  :src: https://chichibu.keizai.biz/mapnews/636
  :lat: 36.0357
  :lng: 138.9825867
  :link: https://chichibu.keizai.biz/headline/636/
  :date: 2024.05.09
  :image: https://images.keizai.biz/chichibu_keizai/headline/1715221619_photo.jpg
  :title: 小鹿野町で「みどりの村 こどもマルシェ」　仕事体験など親子570人参加
- :id: 635
  :src: https://chichibu.keizai.biz/mapnews/635
  :lat: 36.0355133
  :lng: 139.1067994
  :link: https://chichibu.keizai.biz/headline/635/
  :date: 2024.05.03
  :image: https://images.keizai.biz/chichibu_keizai/headline/1714726410_photo.jpg
  :title: 秩父出身のアメリカNFLプロダンサー筒江瑠奈さん、秩父でワークショップ
- :id: 634
  :src: https://chichibu.keizai.biz/mapnews/634
  :lat: 36.0777154
  :lng: 139.1043909
  :link: https://chichibu.keizai.biz/headline/634/
  :date: 2024.04.22
  :image: https://images.keizai.biz/chichibu_keizai/headline/1713764849_photo.jpg
  :title: 皆野町「ファッションおぎわら」がマルシェ　母の日にご褒美を
- :id: 633
  :src: https://chichibu.keizai.biz/mapnews/633
  :lat: 35.9917644
  :lng: 139.0854619
  :link: https://chichibu.keizai.biz/headline/633/
  :date: 2024.04.17
  :image: https://images.keizai.biz/chichibu_keizai/headline/1713363913_photo.jpg
  :title: 秩父に「こども食堂　紙ひこうき」　食事だけでなく交流できる場所に
- :id: 632
  :src: https://chichibu.keizai.biz/mapnews/632
  :lat: 36.0918693
  :lng: 139.1121301
  :link: https://chichibu.keizai.biz/headline/632/
  :date: 2024.04.12
  :image: https://images.keizai.biz/chichibu_keizai/headline/1712852767_photo.jpg
  :title: 長瀞に農家民泊＆ファームスタンド「トロコロ」　築100年の古民家を改装
- :id: 631
  :src: https://chichibu.keizai.biz/mapnews/631
  :lat: 35.9856926
  :lng: 139.0977285
  :link: https://chichibu.keizai.biz/headline/631/
  :date: 2024.04.11
  :image: https://images.keizai.biz/chichibu_keizai/headline/1712804901_photo.jpg
  :title: 横瀬「駅前食堂」間借りのモーニング営業が1周年　「チャレンジ続ける」
- :id: 630
  :src: https://chichibu.keizai.biz/mapnews/630
  :lat: 36.0487649
  :lng: 139.0940287
  :link: https://chichibu.keizai.biz/headline/630/
  :date: 2024.04.10
  :image: https://images.keizai.biz/chichibu_keizai/headline/1712724343_photo.jpg
  :title: 秩父のカレー店が期間限定で焼き芋販売　予約のみで完売
- :id: 629
  :src: https://chichibu.keizai.biz/mapnews/629
  :lat: 35.9763677
  :lng: 139.0539955
  :link: https://chichibu.keizai.biz/headline/629/
  :date: 2024.04.09
  :image: https://images.keizai.biz/chichibu_keizai/headline/1712644573_photo.jpg
  :title: 秩父のドッグランで「わん’sフェス」　ハンドメード作家を中心に初開催
- :id: 628
  :src: https://chichibu.keizai.biz/mapnews/628
  :lat: 36.0060586
  :lng: 139.0624752
  :link: https://chichibu.keizai.biz/headline/628/
  :date: 2024.04.09
  :image: https://images.keizai.biz/chichibu_keizai/headline/1712643637_photo.jpg
  :title: 札所23番・音楽寺の「寺ピアノ」が1周年　「誰にでも弾いてほしい」
- :id: 627
  :src: https://chichibu.keizai.biz/mapnews/627
  :lat: 35.9968285
  :lng: 139.0825651
  :link: https://chichibu.keizai.biz/headline/627/
  :date: 2024.04.09
  :image: https://images.keizai.biz/chichibu_keizai/headline/1712636808_photo.jpg
  :title: 秩父の洋菓子店「スプーン」がブルーベリー植え付け　3年後の収穫目指す
- :id: 626
  :src: https://chichibu.keizai.biz/mapnews/626
  :lat: 35.9436394
  :lng: 138.8662834
  :link: https://chichibu.keizai.biz/headline/626/
  :date: 2024.04.05
  :image: https://images.keizai.biz/chichibu_keizai/headline/1712243972_photo.jpg
  :title: 蓄音機の音色、山間に響く　栃本「湯屋 月」で演奏会
- :id: 625
  :src: https://chichibu.keizai.biz/mapnews/625
  :lat: 35.9860412
  :lng: 139.1032755
  :link: https://chichibu.keizai.biz/headline/625/
  :date: 2024.04.04
  :image: https://images.keizai.biz/chichibu_keizai/headline/1712200079_photo.jpg
  :title: 横瀬町で「山の朝市」　旧横瀬町役場跡地活用、グルメやワークショップも
- :id: 624
  :src: https://chichibu.keizai.biz/mapnews/624
  :lat: 35.9988245
  :lng: 139.0794146
  :link: https://chichibu.keizai.biz/headline/624/
  :date: 2024.04.03
  :image: https://images.keizai.biz/chichibu_keizai/headline/1712122591_photo.jpg
  :title: 秩父出身の高大生が小学生向けイベント　養蚕業と林業を学ぶ
- :id: 623
  :src: https://chichibu.keizai.biz/mapnews/623
  :lat: 35.9977786
  :lng: 139.0828865
  :link: https://chichibu.keizai.biz/headline/623/
  :date: 2024.04.02
  :image: https://images.keizai.biz/chichibu_keizai/headline/1712031181_photo.jpg
  :title: "「大衆焼き肉ホルモンながしま」5周年　コロナ禍で始めた食肉販売にも注力"
- :id: 622
  :src: https://chichibu.keizai.biz/mapnews/622
  :lat: 35.9983115
  :lng: 139.0834687
  :link: https://chichibu.keizai.biz/headline/622/
  :date: 2024.03.31
  :image: https://images.keizai.biz/chichibu_keizai/headline/1711822486_photo.jpg
  :title: 秩父のドッグサロンが1周年　「人と犬が安心できる空間を」
- :id: 621
  :src: https://chichibu.keizai.biz/mapnews/621
  :lat: 35.9515809
  :lng: 139.0979909
  :link: https://chichibu.keizai.biz/headline/621/
  :date: 2024.03.31
  :image: https://images.keizai.biz/chichibu_keizai/headline/1711821979_photo.jpg
  :title: 武甲山「一の鳥居 登山口」手前に駐車場　新たに50台駐車可能に
- :id: 620
  :src: https://chichibu.keizai.biz/mapnews/620
  :lat: 35.9765926
  :lng: 139.1346825
  :link: https://chichibu.keizai.biz/headline/620/
  :date: 2024.03.28
  :image: https://images.keizai.biz/chichibu_keizai/headline/1711616602_photo.jpg
  :title: 横瀬町産・秩父の在来種「借金なし大豆」を使ったきな粉が商品化
- :id: 619
  :src: https://chichibu.keizai.biz/mapnews/619
  :lat: 36.0948763
  :lng: 139.111528
  :link: https://chichibu.keizai.biz/headline/619/
  :date: 2024.03.27
  :image: https://images.keizai.biz/chichibu_keizai/headline/1711528536_photo.jpg
  :title: 長瀞町に芋スイーツ専門店「芋うらら」2号店
- :id: 618
  :src: https://chichibu.keizai.biz/mapnews/618
  :lat: 36.0946319
  :lng: 139.1121015
  :link: https://chichibu.keizai.biz/headline/618/
  :date: 2024.03.27
  :image: https://images.keizai.biz/chichibu_keizai/headline/1711525409_photo.jpg
  :title: 長瀞町で桜を楽しむ「ながとろ桜フェス」　町を周遊するシールラリーも
- :id: 617
  :src: https://chichibu.keizai.biz/mapnews/617
  :lat: 35.9926101
  :lng: 139.0838732
  :link: https://chichibu.keizai.biz/headline/617/
  :date: 2024.03.26
  :image: https://images.keizai.biz/chichibu_keizai/headline/1711435449_photo.jpg
  :title: 秩父鉄道「御花畑駅」駅舎が改装　大正ロマン・開業当時の雰囲気に
- :id: 616
  :src: https://chichibu.keizai.biz/mapnews/616
  :lat: 35.987286
  :lng: 139.100051
  :link: https://chichibu.keizai.biz/headline/616/
  :date: 2024.03.25
  :image: https://images.keizai.biz/chichibu_keizai/headline/1711348647_photo.jpg
  :title: 横瀬町庁舎、県産材使いリニューアル　絵本の本棚やブコーさんのお家も
- :id: 615
  :src: https://chichibu.keizai.biz/mapnews/615
  :lat: 35.9922479
  :lng: 139.0811204
  :link: https://chichibu.keizai.biz/headline/615/
  :date: 2024.03.22
  :image: https://images.keizai.biz/chichibu_keizai/headline/1711078245_photo.jpg
  :title: "「秩父地域デザインセミナー」　外国人との交流から秩父地域の活性化考える"
- :id: 614
  :src: https://chichibu.keizai.biz/mapnews/614
  :lat: 35.9872839
  :lng: 139.1000149
  :link: https://chichibu.keizai.biz/headline/614/
  :date: 2024.03.22
  :image: https://images.keizai.biz/chichibu_keizai/headline/1711076936_photo.jpg
  :title: 横瀬町でウオーキングイベント　イチゴの試食やワンハンドグルメも
- :id: 613
  :src: https://chichibu.keizai.biz/mapnews/613
  :lat: 36.1156686
  :lng: 139.2196199
  :link: https://chichibu.keizai.biz/headline/613/
  :date: 2024.03.21
  :image: https://images.keizai.biz/chichibu_keizai/headline/1711012561_photo.jpg
  :title: 寄居町で「桜めぐり」　川の博物館では丸太を切る体験イベントも
- :id: 612
  :src: https://chichibu.keizai.biz/mapnews/612
  :lat: 36.0915758
  :lng: 139.1121499
  :link: https://chichibu.keizai.biz/headline/612/
  :date: 2024.03.21
  :image: https://images.keizai.biz/chichibu_keizai/headline/1710990904_photo.jpg
  :title: 長瀞町が新たに「ふるさと農園」　100平方メートル×22区画用意
- :id: 611
  :src: https://chichibu.keizai.biz/mapnews/611
  :lat: 36.0447935
  :lng: 139.086942
  :link: https://chichibu.keizai.biz/headline/611/
  :date: 2024.03.16
  :image: https://images.keizai.biz/chichibu_keizai/headline/1710523182_photo.jpg
  :title: 秩父の内田家住宅で創作舞台「天ノ虫」　養蚕業をテーマに
- :id: 610
  :src: https://chichibu.keizai.biz/mapnews/610
  :lat: 35.9988245
  :lng: 139.0794146
  :link: https://chichibu.keizai.biz/headline/610/
  :date: 2024.03.11
  :image: https://images.keizai.biz/chichibu_keizai/headline/1710298029_photo.jpg
  :title: スマホアプリ「ポケモンGO」に長瀞町の公式ルート
- :id: 609
  :src: https://chichibu.keizai.biz/mapnews/609
  :lat: 36.0922406
  :lng: 139.105457
  :link: https://chichibu.keizai.biz/headline/609/
  :date: 2024.03.06
  :image: https://images.keizai.biz/chichibu_keizai/headline/1710047519_photo.jpg
  :title: "「長瀞トリックアート有隣倶楽部」が1周年　着物で街歩き楽しむプランも"
- :id: 608
  :src: https://chichibu.keizai.biz/mapnews/608
  :lat: 36.1168172
  :lng: 139.1951556
  :link: https://chichibu.keizai.biz/headline/608/
  :date: 2024.03.01
  :image: https://images.keizai.biz/chichibu_keizai/headline/1709280270_photo.jpg
  :title: 寄居町で「時を超えて楽しむ」展　古い着物や家具に新しい命を
- :id: 607
  :src: https://chichibu.keizai.biz/mapnews/607
  :lat: 36.0375702
  :lng: 139.0287322
  :link: https://chichibu.keizai.biz/headline/607/
  :date: 2024.03.01
  :image: https://images.keizai.biz/chichibu_keizai/headline/1709258955_photo.jpg
  :title: 秩父ただかね農園「あまりん」　ショートケーキ考案店100周年記念に採用
- :id: 606
  :src: https://chichibu.keizai.biz/mapnews/606
  :lat: 35.9975977
  :lng: 139.0846341
  :link: https://chichibu.keizai.biz/headline/606/
  :date: 2024.02.26
  :image: https://images.keizai.biz/chichibu_keizai/headline/1708916815_photo.jpg
  :title: "「秩父ウイスキー祭」全国各地や海外から愛好家が4000人集う"
- :id: 605
  :src: https://chichibu.keizai.biz/mapnews/605
  :lat: 35.981837
  :lng: 139.109306
  :link: https://chichibu.keizai.biz/headline/605/
  :date: 2024.02.26
  :image: https://images.keizai.biz/chichibu_keizai/headline/1708913283_photo.jpg
  :title: 横瀬町保育所で折り紙教室　町のゆるキャラ「ブコーさん」モチーフに
- :id: 604
  :src: https://chichibu.keizai.biz/mapnews/604
  :lat: 35.990053
  :lng: 139.0832911
  :link: https://chichibu.keizai.biz/headline/604/
  :date: 2024.02.22
  :image: https://images.keizai.biz/chichibu_keizai/headline/1708608324_photo.jpg
  :title: 西武秩父駅で合同写真展　地元高校生と秩父ファンが撮影
- :id: 603
  :src: https://chichibu.keizai.biz/mapnews/603
  :lat: 35.9226201
  :lng: 138.9330551
  :link: https://chichibu.keizai.biz/headline/603/
  :date: 2024.02.22
  :image: https://images.keizai.biz/chichibu_keizai/headline/1708607327_photo.jpg
  :title: 三峯神社の交通混雑状況、AI活用し可視化へ　ネットで確認呼びかけ
- :id: 602
  :src: https://chichibu.keizai.biz/mapnews/602
  :lat: 35.9988245
  :lng: 139.0794146
  :link: https://chichibu.keizai.biz/headline/602/
  :date: 2024.02.22
  :image: https://images.keizai.biz/chichibu_keizai/headline/1708569550_photo.jpg
  :title: ちちぶシルク研究分科会、「地域再生大賞」優秀賞　秩父銘仙のPRで
- :id: 601
  :src: https://chichibu.keizai.biz/mapnews/601
  :lat: 35.9942617
  :lng: 139.0839818
  :link: https://chichibu.keizai.biz/headline/601/
  :date: 2024.02.20
  :image: https://images.keizai.biz/chichibu_keizai/headline/1708437220_photo.jpg
  :title: 秩父と自然をテーマに「サロンニューヤング」でクリエーターが空間展示
- :id: 600
  :src: https://chichibu.keizai.biz/mapnews/600
  :lat: 36.0151063
  :lng: 139.0419462
  :link: https://chichibu.keizai.biz/headline/600/
  :date: 2024.02.15
  :image: https://images.keizai.biz/chichibu_keizai/headline/1707979513_photo.jpg
  :title: 雷部屋、小鹿野町「秩父ふるさと村」で大相撲合宿へ　親方と当主の縁で実現
- :id: 599
  :src: https://chichibu.keizai.biz/mapnews/599
  :lat: 36.0133415
  :lng: 139.0876723
  :link: https://chichibu.keizai.biz/headline/599/
  :date: 2024.02.13
  :image: https://images.keizai.biz/chichibu_keizai/headline/1707831003_photo.jpg
  :title: 秩父「こども食堂ぱくぱく」1周年イベントに100人超
- :id: 598
  :src: https://chichibu.keizai.biz/mapnews/598
  :lat: 35.9872839
  :lng: 139.1000149
  :link: https://chichibu.keizai.biz/headline/598/
  :date: 2024.02.09
  :image: https://images.keizai.biz/chichibu_keizai/headline/1707464183_photo.jpg
  :title: 横瀬町で町民企画の「よこらぼ大会議」　参加者200人超集う
- :id: 597
  :src: https://chichibu.keizai.biz/mapnews/597
  :lat: 36.1251215
  :lng: 139.1148525
  :link: https://chichibu.keizai.biz/headline/597/
  :date: 2024.02.07
  :image: https://images.keizai.biz/chichibu_keizai/headline/1707282071_photo.jpg
  :title: 秩父に県内初の無人車中泊施設　「キャンピングカーで観光も楽しんで」
- :id: 596
  :src: https://chichibu.keizai.biz/mapnews/596
  :lat: 35.358008
  :lng: 136.86517
  :link: https://chichibu.keizai.biz/headline/596/
  :date: 2024.02.06
  :image: https://images.keizai.biz/chichibu_keizai/headline/1707213035_photo.jpg
  :title: "「秩父アサギマダラフォーラム」初開催　マーキングのルール作りも"
- :id: 595
  :src: https://chichibu.keizai.biz/mapnews/595
  :lat: 35.9871306
  :lng: 139.1037
  :link: https://chichibu.keizai.biz/headline/595/
  :date: 2024.01.29
  :image: https://images.keizai.biz/chichibu_keizai/headline/1706513441_photo.jpg
  :title: 横瀬町ENgaWAが「餅つき＆餅ビュッフェ」　十文字学園女子大もコラボ
- :id: 594
  :src: https://chichibu.keizai.biz/mapnews/594
  :lat: 36.0956287
  :lng: 139.1143218
  :link: https://chichibu.keizai.biz/headline/594/
  :date: 2024.01.26
  :image: https://images.keizai.biz/chichibu_keizai/headline/1706240191_photo.jpg
  :title: 秩父法人会女性部会がローカルメディアの勉強会
- :id: 593
  :src: https://chichibu.keizai.biz/mapnews/593
  :lat: 35.9905997
  :lng: 139.0848535
  :link: https://chichibu.keizai.biz/headline/593/
  :date: 2024.01.19
  :image: https://images.keizai.biz/chichibu_keizai/headline/1705647090_photo.jpg
  :title: 秩父市で採用力向上のヒントを学ぶ実践型ワークショップ　オンライン参加も
- :id: 592
  :src: https://chichibu.keizai.biz/mapnews/592
  :lat: 35.994284
  :lng: 139.0838634
  :link: https://chichibu.keizai.biz/headline/592/
  :date: 2024.01.18
  :image: https://images.keizai.biz/chichibu_keizai/headline/1705557598_photo.png
  :title: ナイトウオークイベント「秩父夜街 彩さんぽ」　ちょうちんレンタルも
- :id: 591
  :src: https://chichibu.keizai.biz/mapnews/591
  :lat: 35.98695590000001
  :lng: 139.1024563
  :link: https://chichibu.keizai.biz/headline/591/
  :date: 2024.01.17
  :image: https://images.keizai.biz/chichibu_keizai/headline/1705478325_photo.jpg
  :title: 横瀬町「タテノイト」地震学ぶチャリティー授業　400家族オンライン参加
- :id: 590
  :src: https://chichibu.keizai.biz/mapnews/590
  :lat: 35.9988245
  :lng: 139.0794146
  :link: https://chichibu.keizai.biz/headline/590/
  :date: 2024.01.12
  :image: https://images.keizai.biz/chichibu_keizai/headline/1705027187_photo.jpg
  :title: 長瀞に一棟貸切宿「teihaku」2号店　古民家を改装し五右衛門風呂も
- :id: 589
  :src: https://chichibu.keizai.biz/mapnews/589
  :lat: 35.9973546
  :lng: 139.0820084
  :link: https://chichibu.keizai.biz/headline/589/
  :date: 2023.12.31
  :image: https://images.keizai.biz/chichibu_keizai/headline/1704008645_photo.jpg
  :title: 秩父「パラダイスアレイ」3周年　スパイスカレーとコーヒーのイベントも
- :id: 588
  :src: https://chichibu.keizai.biz/mapnews/588
  :lat: 35.9892442
  :lng: 139.0837844
  :link: https://chichibu.keizai.biz/headline/588/
  :date: 2023.12.29
  :image: https://images.keizai.biz/chichibu_keizai/headline/1703855879_photo.jpg
  :title: 西武秩父駅前「祭の湯」にウオールタップエリア　つぎたての秩父の酒を提供
- :id: 587
  :src: https://chichibu.keizai.biz/mapnews/587
  :lat: 36.0269725
  :lng: 138.966958
  :link: https://chichibu.keizai.biz/headline/587/
  :date: 2023.12.22
  :image: https://images.keizai.biz/chichibu_keizai/headline/1703211727_photo.jpg
  :title: 秩父の祭り参加で「第2のふるさとづくり」　都内の高校生が参加
- :id: 586
  :src: https://chichibu.keizai.biz/mapnews/586
  :lat: 35.9933249
  :lng: 139.0518205
  :link: https://chichibu.keizai.biz/headline/586/
  :date: 2023.12.18
  :image: https://images.keizai.biz/chichibu_keizai/headline/1702887598_photo.jpg
  :title: 秩父ミューズパークで「parkrun」　開始7カ月で地域交流の場にも
- :id: 585
  :src: https://chichibu.keizai.biz/mapnews/585
  :lat: 36.0310858
  :lng: 139.1140651
  :link: https://chichibu.keizai.biz/headline/585/
  :date: 2023.12.18
  :image: https://images.keizai.biz/chichibu_keizai/headline/1702869423_photo.jpg
  :title: 秩父のみそポテト専門店がみそダレを浸けて食べるポテチ発売　創業50周年で
- :id: 584
  :src: https://chichibu.keizai.biz/mapnews/584
  :lat: 35.9988245
  :lng: 139.0794146
  :link: https://chichibu.keizai.biz/headline/584/
  :date: 2023.12.15
  :image: https://images.keizai.biz/chichibu_keizai/headline/1702617844_photo.jpg
  :title: 秩父経の年間PV1位は秩父で「フラダンスフェス」
- :id: 583
  :src: https://chichibu.keizai.biz/mapnews/583
  :lat: 35.9924481
  :lng: 139.0852251
  :link: https://chichibu.keizai.biz/headline/583/
  :date: 2023.12.07
  :image: https://images.keizai.biz/chichibu_keizai/headline/1701934737_photo.jpg
  :title: 秩父出身の植物学者「清水大典」特別展　冬虫夏草の細密詳細画など展示
- :id: 582
  :src: https://chichibu.keizai.biz/mapnews/582
  :lat: 35.9976189
  :lng: 139.0841388
  :link: https://chichibu.keizai.biz/headline/582/
  :date: 2023.12.07
  :image: https://images.keizai.biz/chichibu_keizai/headline/1701914906_photo.jpg
  :title: 秩父夜祭　「下郷笠鉾」囃子手、団子坂上れずも役目果たす
- :id: 581
  :src: https://chichibu.keizai.biz/mapnews/581
  :lat: 35.994284
  :lng: 139.0838634
  :link: https://chichibu.keizai.biz/headline/581/
  :date: 2023.12.06
  :image: https://images.keizai.biz/chichibu_keizai/headline/1701830748_photo.jpg
  :title: 秩父の食材を使った限定スイーツ　女子栄養大・食文化栄養学科の学生が開発
- :id: 580
  :src: https://chichibu.keizai.biz/mapnews/580
  :lat: 35.9957151
  :lng: 139.0821662
  :link: https://chichibu.keizai.biz/headline/580/
  :date: 2023.12.06
  :image: https://images.keizai.biz/chichibu_keizai/headline/1701820654_photo.jpg
  :title: "「秩父夜祭」に延べ36万人超　清掃ボランティアが「清潔な祭り」支える"
- :id: 579
  :src: https://chichibu.keizai.biz/mapnews/579
  :lat: 35.9988245
  :lng: 139.0794146
  :link: https://chichibu.keizai.biz/headline/579/
  :date: 2023.12.01
  :image: https://images.keizai.biz/chichibu_keizai/headline/1701416387_photo.jpg
  :title: 秩父で安全衛生表彰　厚労省労働基準局長、製造業5社へ無災害記録証伝達
- :id: 578
  :src: https://chichibu.keizai.biz/mapnews/578
  :lat: 35.9600588
  :lng: 139.0445769
  :link: https://chichibu.keizai.biz/headline/578/
  :date: 2023.11.30
  :image: https://images.keizai.biz/chichibu_keizai/headline/1701334284_photo.jpg
  :title: 豚めし弁当「ちちぶ弁」発売　秩父弁にかけて商品化、方言を身近に
- :id: 577
  :src: https://chichibu.keizai.biz/mapnews/577
  :lat: 36.0533909
  :lng: 139.0663616
  :link: https://chichibu.keizai.biz/headline/577/
  :date: 2023.11.29
  :image: https://images.keizai.biz/chichibu_keizai/headline/1701253663_photo.jpg
  :title: 空飛ぶランタンが夜空彩る　秩父市立大田小150周年で
- :id: 576
  :src: https://chichibu.keizai.biz/mapnews/576
  :lat: 36.0946319
  :lng: 139.1121015
  :link: https://chichibu.keizai.biz/headline/576/
  :date: 2023.11.28
  :image: https://images.keizai.biz/chichibu_keizai/headline/1701142296_photo.jpg
  :title: セレクトショップとレンタルスペース「アップドラフト」、長瀞駅前に移転
- :id: 575
  :src: https://chichibu.keizai.biz/mapnews/575
  :lat: 35.9916443
  :lng: 139.0855869
  :link: https://chichibu.keizai.biz/headline/575/
  :date: 2023.11.24
  :image: https://images.keizai.biz/chichibu_keizai/headline/1700815205_photo.jpg
  :title: 秩父で女性向け就職支援セミナー「She up!」
- :id: 574
  :src: https://chichibu.keizai.biz/mapnews/574
  :lat: 35.9947789
  :lng: 139.0815371
  :link: https://chichibu.keizai.biz/headline/574/
  :date: 2023.11.23
  :image: https://images.keizai.biz/chichibu_keizai/headline/1700717725_photo.jpg
  :title: 秩父で「夢のパン＆スイーツコンテスト」　地元ラジオ局主催で7店が参加
- :id: 573
  :src: https://chichibu.keizai.biz/mapnews/573
  :lat: 35.985485
  :lng: 139.0978626
  :link: https://chichibu.keizai.biz/headline/573/
  :date: 2023.11.22
  :image: https://images.keizai.biz/chichibu_keizai/headline/1700610067_photo.jpg
  :title: 横瀬町でウオーキングイベント「里山まるマルシェ」　札所巡礼やグルメも
- :id: 572
  :src: https://chichibu.keizai.biz/mapnews/572
  :lat: 35.9949515
  :lng: 139.0811105
  :link: https://chichibu.keizai.biz/headline/572/
  :date: 2023.11.21
  :image: https://images.keizai.biz/chichibu_keizai/headline/1700536978_photo.jpg
  :title: 秩父に初のインドアゴルフ練習場　「体感＆コミュニケーション」を目指す
- :id: 571
  :src: https://chichibu.keizai.biz/mapnews/571
  :lat: 36.1258553
  :lng: 139.1152099
  :link: https://chichibu.keizai.biz/headline/571/
  :date: 2023.11.16
  :image: https://images.keizai.biz/chichibu_keizai/headline/1700128070_photo.jpg
  :title: "「長瀞てらす」でマルシェ　ヤギとの触れ合いや園芸相談会も"
- :id: 570
  :src: https://chichibu.keizai.biz/mapnews/570
  :lat: 35.999006
  :lng: 139.1012718
  :link: https://chichibu.keizai.biz/headline/570/
  :date: 2023.11.16
  :image: https://images.keizai.biz/chichibu_keizai/headline/1700098675_photo.jpg
  :title: 横瀬町のコミュニティースペース「さくらんぼ」が5周年　記念イベントも
- :id: 569
  :src: https://chichibu.keizai.biz/mapnews/569
  :lat: 36.0621154
  :lng: 139.1011534
  :link: https://chichibu.keizai.biz/headline/569/
  :date: 2023.11.14
  :image: https://images.keizai.biz/chichibu_keizai/headline/1699951229_photo.jpg
  :title: 皆野町で「みなの里山アートピック」　初心者のアート表現も温かく応援
- :id: 568
  :src: https://chichibu.keizai.biz/mapnews/568
  :lat: 35.9988245
  :lng: 139.0794146
  :link: https://chichibu.keizai.biz/headline/568/
  :date: 2023.11.14
  :image: https://images.keizai.biz/chichibu_keizai/headline/1699938272_photo.jpg
  :title: ちちぶ雇用活性化協議会 新期スタートで 「DX推進」「雇用環境改善」力入れる
- :id: 567
  :src: https://chichibu.keizai.biz/mapnews/567
  :lat: 35.9988245
  :lng: 139.0794146
  :link: https://chichibu.keizai.biz/headline/567/
  :date: 2023.11.13
  :image: https://images.keizai.biz/chichibu_keizai/headline/1699846860_photo.jpg
  :title: 秩父・影森で「十日夜」　五穀豊穣やモグラ避け願う
- :id: 566
  :src: https://chichibu.keizai.biz/mapnews/566
  :lat: 36.0943645
  :lng: 139.1118142
  :link: https://chichibu.keizai.biz/headline/566/
  :date: 2023.11.11
  :image: https://images.keizai.biz/chichibu_keizai/headline/1699669572_photo.jpg
  :title: 長瀞で初の有料音楽フェス　埼玉にゆかりのあるアーティスト集まる
- :id: 565
  :src: https://chichibu.keizai.biz/mapnews/565
  :lat: 35.999848
  :lng: 139.085452
  :link: https://chichibu.keizai.biz/headline/565/
  :date: 2023.11.10
  :image: https://images.keizai.biz/chichibu_keizai/headline/1699596693_photo.jpg
  :title: 秩父のバーが熟成樽や蒸溜器を模したチョコレート　イチローズモルト使う
- :id: 564
  :src: https://chichibu.keizai.biz/mapnews/564
  :lat: 35.9917644
  :lng: 139.0854619
  :link: https://chichibu.keizai.biz/headline/564/
  :date: 2023.11.10
  :image: https://images.keizai.biz/chichibu_keizai/headline/1699578307_photo.jpg
  :title: "「日本ジオパーク全国大会 in 関東」　ジオパーク秩父もサテライト会場に"
- :id: 563
  :src: https://chichibu.keizai.biz/mapnews/563
  :lat: 36.0047508
  :lng: 139.0823915
  :link: https://chichibu.keizai.biz/headline/563/
  :date: 2023.11.09
  :image: https://images.keizai.biz/chichibu_keizai/headline/1699521566_photo.jpg
  :title: 秩父の菓子店「パティスリールリアン」がジャパン・ケーキショー東京で金賞
- :id: 562
  :src: https://chichibu.keizai.biz/mapnews/562
  :lat: 36.0679896
  :lng: 139.1272651
  :link: https://chichibu.keizai.biz/headline/562/
  :date: 2023.11.09
  :image: https://images.keizai.biz/chichibu_keizai/headline/1699492947_photo.jpg
  :title: 皆野町で「サンデーピクニック」　クラシックカーと共に秋の自然楽しむ
- :id: 561
  :src: https://chichibu.keizai.biz/mapnews/561
  :lat: 35.9988245
  :lng: 139.0794146
  :link: https://chichibu.keizai.biz/headline/561/
  :date: 2023.11.07
  :image: https://images.keizai.biz/chichibu_keizai/headline/1699362357_photo.jpg
  :title: 横瀬町でAI×アートのイベント　ウェルビーイングの世界観を表現
- :id: 560
  :src: https://chichibu.keizai.biz/mapnews/560
  :lat: 36.1156686
  :lng: 139.2196199
  :link: https://chichibu.keizai.biz/headline/560/
  :date: 2023.11.07
  :image: https://images.keizai.biz/chichibu_keizai/headline/1699339547_photo.jpg
  :title: 寄居町・かわはくで障がい者ウイークイベント　車いす体験も
- :id: 559
  :src: https://chichibu.keizai.biz/mapnews/559
  :lat: 36.1314734
  :lng: 139.1400553
  :link: https://chichibu.keizai.biz/headline/559/
  :date: 2023.11.06
  :image: https://images.keizai.biz/chichibu_keizai/headline/1699240814_photo.png
  :title: 秩父織塾工房横山、秩父美術展で2度目の埼玉県知事賞受賞
- :id: 558
  :src: https://chichibu.keizai.biz/mapnews/558
  :lat: 35.9719961
  :lng: 139.0658486
  :link: https://chichibu.keizai.biz/headline/558/
  :date: 2023.11.02
  :image: https://images.keizai.biz/chichibu_keizai/headline/1698908073_photo.jpg
  :title: 秩父で親子向け木育イベント　保育・林業事業者が連携して開催
- :id: 557
  :src: https://chichibu.keizai.biz/mapnews/557
  :lat: 36.0628693
  :lng: 139.0993443
  :link: https://chichibu.keizai.biz/headline/557/
  :date: 2023.11.01
  :image: https://images.keizai.biz/chichibu_keizai/headline/1698830676_photo.jpg
  :title: 皆野町でアートのお祭り「さとぴく」　今年は謎解きゲームも
- :id: 556
  :src: https://chichibu.keizai.biz/mapnews/556
  :lat: 35.9988245
  :lng: 139.0794146
  :link: https://chichibu.keizai.biz/headline/556/
  :date: 2023.11.01
  :image: https://images.keizai.biz/chichibu_keizai/headline/1698764850_photo.jpg
  :title: 秩父で「サザエさんと行く植樹ツアー」　横浜から120人が電車で参加
- :id: 555
  :src: https://chichibu.keizai.biz/mapnews/555
  :lat: 35.9800463
  :lng: 139.0766114
  :link: https://chichibu.keizai.biz/headline/555/
  :date: 2023.10.31
  :image: https://images.keizai.biz/chichibu_keizai/headline/1698719988_photo.jpg
  :title: 秩父「橋本製菓舗」、9カ月ぶりに営業再開　母から娘に継承しながら
- :id: 554
  :src: https://chichibu.keizai.biz/mapnews/554
  :lat: 36.006366
  :lng: 139.0826793
  :link: https://chichibu.keizai.biz/headline/554/
  :date: 2023.10.27
  :image: https://images.keizai.biz/chichibu_keizai/headline/1698394323_photo.jpg
  :title: 秩父・西小にアサギマダラ飛来　チョウの舞う小学校へ夢膨らむ
- :id: 553
  :src: https://chichibu.keizai.biz/mapnews/553
  :lat: 35.9948817
  :lng: 139.0840213
  :link: https://chichibu.keizai.biz/headline/553/
  :date: 2023.10.26
  :image: https://images.keizai.biz/chichibu_keizai/headline/1698308414_photo.jpg
  :title: 秩父表参道Lab.で初の「ちちぶパンフェスタ」　1市4町のパン店が出店
- :id: 552
  :src: https://chichibu.keizai.biz/mapnews/552
  :lat: 36.070856
  :lng: 139.098724
  :link: https://chichibu.keizai.biz/headline/552/
  :date: 2023.10.26
  :image: https://images.keizai.biz/chichibu_keizai/headline/1698247682_photo.jpg
  :title: 皆野町で4年ぶりの「ふれあいまつり」　健康チェックやパフォーマンスも
- :id: 551
  :src: https://chichibu.keizai.biz/mapnews/551
  :lat: 35.9765926
  :lng: 139.1346825
  :link: https://chichibu.keizai.biz/headline/551/
  :date: 2023.10.25
  :image: https://images.keizai.biz/chichibu_keizai/headline/1698152200_photo.jpg
  :title: 横瀬町で新そばの収穫開始　「よこぜまつり」「新そば祭り」で提供
- :id: 550
  :src: https://chichibu.keizai.biz/mapnews/550
  :lat: 35.9988245
  :lng: 139.0794146
  :link: https://chichibu.keizai.biz/headline/550/
  :date: 2023.10.24
  :image: https://images.keizai.biz/chichibu_keizai/headline/1698124777_photo.jpg
  :title: 小鹿野町でチェロ＆コントラバスによる「秋風コンサート」　抹茶も提供
- :id: 549
  :src: https://chichibu.keizai.biz/mapnews/549
  :lat: 35.9954016
  :lng: 139.0800054
  :link: https://chichibu.keizai.biz/headline/549/
  :date: 2023.10.24
  :image: https://images.keizai.biz/chichibu_keizai/headline/1698110705_photo.jpg
  :title: 秩父・中町の「ホルモン無人販売所」、オープンから半年
- :id: 548
  :src: https://chichibu.keizai.biz/mapnews/548
  :lat: 35.9975977
  :lng: 139.0846341
  :link: https://chichibu.keizai.biz/headline/548/
  :date: 2023.10.23
  :image: https://images.keizai.biz/chichibu_keizai/headline/1698051977_photo.jpg
  :title: 秩父・番場通りでアウトドアホッピング企画　屋外飲食店をはしご
- :id: 547
  :src: https://chichibu.keizai.biz/mapnews/547
  :lat: 35.9988245
  :lng: 139.0794146
  :link: https://chichibu.keizai.biz/headline/547/
  :date: 2023.10.23
  :image: https://images.keizai.biz/chichibu_keizai/headline/1698019335_photo.jpg
  :title: 横瀬町のログハウス型サウナの構法、「ウッドデザイン賞」受賞
- :id: 546
  :src: https://chichibu.keizai.biz/mapnews/546
  :lat: 35.9948881
  :lng: 139.1063651
  :link: https://chichibu.keizai.biz/headline/546/
  :date: 2023.10.20
  :image: https://images.keizai.biz/chichibu_keizai/headline/1697776184_photo.jpg
  :title: 横瀬町民グラウンドで4年ぶりの町民体育祭　延べ2千人が参加
- :id: 545
  :src: https://chichibu.keizai.biz/mapnews/545
  :lat: 35.9988245
  :lng: 139.0794146
  :link: https://chichibu.keizai.biz/headline/545/
  :date: 2023.10.19
  :image: https://images.keizai.biz/chichibu_keizai/headline/1697703672_photo.jpg
  :title: 秩父札所公認サイクリスト認定サービス始まる　秩父の魅力知るきっかけに
- :id: 544
  :src: https://chichibu.keizai.biz/mapnews/544
  :lat: 36.0014423
  :lng: 139.074284
  :link: https://chichibu.keizai.biz/headline/544/
  :date: 2023.10.17
  :image: https://images.keizai.biz/chichibu_keizai/headline/1697502625_photo.jpg
  :title: 秩父ファームステイで「収穫祭」　フリマや仮装大会、お化け屋敷も
- :id: 543
  :src: https://chichibu.keizai.biz/mapnews/543
  :lat: 35.9871306
  :lng: 139.1037
  :link: https://chichibu.keizai.biz/headline/543/
  :date: 2023.10.16
  :image: https://images.keizai.biz/chichibu_keizai/headline/1697440786_photo.jpg
  :title: 横瀬町「ENgaWA」がブドウを使ったチーズケーキ　孫世代がブドウ作り
- :id: 542
  :src: https://chichibu.keizai.biz/mapnews/542
  :lat: 36.0453552
  :lng: 139.0333655
  :link: https://chichibu.keizai.biz/headline/542/
  :date: 2023.10.16
  :image: https://images.keizai.biz/chichibu_keizai/headline/1697376285_photo.jpg
  :title: "「秩父吉田の龍勢」開催　手作りの農民ロケットが秋空高く舞う"
- :id: 541
  :src: https://chichibu.keizai.biz/mapnews/541
  :lat: 35.9905948
  :lng: 139.0872775
  :link: https://chichibu.keizai.biz/headline/541/
  :date: 2023.10.13
  :image: https://images.keizai.biz/chichibu_keizai/headline/1697184608_photo.jpg
  :title: "「ちちぶ銘仙館」で銘仙館まつり　パネル展示やくるみボタンづくりWSも"
- :id: 540
  :src: https://chichibu.keizai.biz/mapnews/540
  :lat: 35.989431
  :lng: 139.1062357
  :link: https://chichibu.keizai.biz/headline/540/
  :date: 2023.10.13
  :image: https://images.keizai.biz/chichibu_keizai/headline/1697175807_photo.jpg
  :title: 横瀬町・寺坂棚田で保育所児童が稲刈り　食育で好き嫌いの軽減も
- :id: 539
  :src: https://chichibu.keizai.biz/mapnews/539
  :lat: 36.0071094
  :lng: 139.0879288
  :link: https://chichibu.keizai.biz/headline/539/
  :date: 2023.10.12
  :image: https://images.keizai.biz/chichibu_keizai/headline/1697099020_photo.jpg
  :title: 秩父に関係人口創出拠点　ミッション取り入れ「観光以上」の体験を
- :id: 538
  :src: https://chichibu.keizai.biz/mapnews/538
  :lat: 35.9818758
  :lng: 139.1092278
  :link: https://chichibu.keizai.biz/headline/538/
  :date: 2023.10.09
  :image: https://images.keizai.biz/chichibu_keizai/headline/1696807913_photo.jpg
  :title: 横瀬町保育所で「歩育プログラム」　幼い頃から「正しい姿勢」を意識
- :id: 537
  :src: https://chichibu.keizai.biz/mapnews/537
  :lat: 35.912711
  :lng: 139.081247
  :link: https://chichibu.keizai.biz/headline/537/
  :date: 2023.10.06
  :image: https://images.keizai.biz/chichibu_keizai/headline/1696567901_photo.jpg
  :title: 秩父浦山大日堂の獅子舞　縁日大祭で演舞
- :id: 536
  :src: https://chichibu.keizai.biz/mapnews/536
  :lat: 35.9959199
  :lng: 139.088738
  :link: https://chichibu.keizai.biz/headline/536/
  :date: 2023.10.05
  :image: https://images.keizai.biz/chichibu_keizai/headline/1696434661_photo.jpg
  :title: "「イチローズモルト」を飲みながらウイスキー映画鑑賞　秩父で初企画"
- :id: 535
  :src: https://chichibu.keizai.biz/mapnews/535
  :lat: 35.9945288
  :lng: 139.0826695
  :link: https://chichibu.keizai.biz/headline/535/
  :date: 2023.10.04
  :image: https://images.keizai.biz/chichibu_keizai/headline/1696410564_photo.jpg
  :title: 秩父の染物店「るりばら銘仙」が半年 次世代の継承目指す
- :id: 534
  :src: https://chichibu.keizai.biz/mapnews/534
  :lat: 35.9988245
  :lng: 139.0794146
  :link: https://chichibu.keizai.biz/headline/534/
  :date: 2023.10.03
  :image: https://images.keizai.biz/chichibu_keizai/headline/1696310109_photo.jpg
  :title: 秩父で下刈り体験　森林の持続可能性を視野に入れ民間事業者が連携
- :id: 533
  :src: https://chichibu.keizai.biz/mapnews/533
  :lat: 36.0392927
  :lng: 139.034233
  :link: https://chichibu.keizai.biz/headline/533/
  :date: 2023.10.02
  :image: https://images.keizai.biz/chichibu_keizai/headline/1696241279_photo.jpg
  :title: 埼玉ワイルドナイツのラグビー選手と秩父を巡る日帰りツアー開催へ
- :id: 532
  :src: https://chichibu.keizai.biz/mapnews/532
  :lat: 36.1170365
  :lng: 139.1951062
  :link: https://chichibu.keizai.biz/headline/532/
  :date: 2023.10.02
  :image: https://images.keizai.biz/chichibu_keizai/headline/1696233418_photo.jpg
  :title: 寄居町で女性作家3人による「詩と版画と切り紙作品展」
- :id: 531
  :src: https://chichibu.keizai.biz/mapnews/531
  :lat: 35.9959199
  :lng: 139.088738
  :link: https://chichibu.keizai.biz/headline/531/
  :date: 2023.09.28
  :image: https://images.keizai.biz/chichibu_keizai/headline/1695879141_photo.jpg
  :title: 秩父高写真部と秩父ファンクラブ・カメラ部、ウニクス秩父で合同写真展
- :id: 530
  :src: https://chichibu.keizai.biz/mapnews/530
  :lat: 35.98695590000001
  :lng: 139.1024563
  :link: https://chichibu.keizai.biz/headline/530/
  :date: 2023.09.14
  :image: https://images.keizai.biz/chichibu_keizai/headline/1694678601_photo.jpg
  :title: 横瀬町「エリア898」に秩父産木材を使ったミーティングブース
- :id: 529
  :src: https://chichibu.keizai.biz/mapnews/529
  :lat: 35.9957308
  :lng: 139.0532538
  :link: https://chichibu.keizai.biz/headline/529/
  :date: 2023.09.13
  :image: https://images.keizai.biz/chichibu_keizai/headline/1694569718_photo.jpg
  :title: 秩父で「フラダンスフェス」　ダンサー300人超参加、90曲披露
- :id: 528
  :src: https://chichibu.keizai.biz/mapnews/528
  :lat: 35.9944241
  :lng: 139.0853237
  :link: https://chichibu.keizai.biz/headline/528/
  :date: 2023.09.12
  :image: https://images.keizai.biz/chichibu_keizai/headline/1694481197_photo.jpg
  :title: 秩父のカフェが「訳ありトマト」を使ったメニュー提供　ソルベやラタトゥイユに
- :id: 527
  :src: https://chichibu.keizai.biz/mapnews/527
  :lat: 36.0708172
  :lng: 139.0988043
  :link: https://chichibu.keizai.biz/headline/527/
  :date: 2023.09.11
  :image: https://images.keizai.biz/chichibu_keizai/headline/1694424457_photo.jpg
  :title: 皆野町で戦国期の城の様相を伝えるミニ企画展　第1弾は「竜ヶ谷城」
- :id: 526
  :src: https://chichibu.keizai.biz/mapnews/526
  :lat: 35.9873397
  :lng: 139.1000677
  :link: https://chichibu.keizai.biz/headline/526/
  :date: 2023.09.06
  :image: https://images.keizai.biz/chichibu_keizai/headline/1693966153_photo.jpg
  :title: 横瀬町・官民連携プラットフォーム「よこらぼ」が新規受付半年間休止　次のステップへ
- :id: 525
  :src: https://chichibu.keizai.biz/mapnews/525
  :lat: 35.9920101
  :lng: 139.0939881
  :link: https://chichibu.keizai.biz/headline/525/
  :date: 2023.09.06
  :image: https://images.keizai.biz/chichibu_keizai/headline/1693921782_photo.jpg
  :title: 横瀬町で移動販売車「うえたん号」営業開始　週45カ所を巡行
- :id: 524
  :src: https://chichibu.keizai.biz/mapnews/524
  :lat: 35.9988245
  :lng: 139.0794146
  :link: https://chichibu.keizai.biz/headline/524/
  :date: 2023.09.05
  :image: https://images.keizai.biz/chichibu_keizai/headline/1693903100_photo.jpg
  :title: 秩父出身の高大生が小学生向けにワークショップ　秩父神社の歴史学ぶ
- :id: 523
  :src: https://chichibu.keizai.biz/mapnews/523
  :lat: 36.0220588
  :lng: 139.0904748
  :link: https://chichibu.keizai.biz/headline/523/
  :date: 2023.09.04
  :image: https://images.keizai.biz/chichibu_keizai/headline/1693815826_photo.jpg
  :title: 鉄道写真家・中井精也さん、秩父農工科学高校写真部員に取り方など指導
- :id: 522
  :src: https://chichibu.keizai.biz/mapnews/522
  :lat: 36.02728
  :lng: 139.1208022
  :link: https://chichibu.keizai.biz/headline/522/
  :date: 2023.09.04
  :image: https://images.keizai.biz/chichibu_keizai/headline/1693796591_photo.jpg
  :title: 秩父・四萬部寺で供養祭「大施食会」　一般参列や出店も復活
- :id: 521
  :src: https://chichibu.keizai.biz/mapnews/521
  :lat: 35.9988245
  :lng: 139.0794146
  :link: https://chichibu.keizai.biz/headline/521/
  :date: 2023.09.03
  :image: https://images.keizai.biz/chichibu_keizai/headline/1693728724_photo.jpg
  :title: 秩父地域で高校生・大学生向けスタディーツアー 挑戦をテーマに将来を考える
- :id: 520
  :src: https://chichibu.keizai.biz/mapnews/520
  :lat: 36.1158076
  :lng: 139.1974493
  :link: https://chichibu.keizai.biz/headline/520/
  :date: 2023.08.31
  :image: https://images.keizai.biz/chichibu_keizai/headline/1693473417_photo.jpg
  :title: 寄居町の泊まれるオーガニックレストラン「むじゃき」が1周年
- :id: 519
  :src: https://chichibu.keizai.biz/mapnews/519
  :lat: 36.1156686
  :lng: 139.2196199
  :link: https://chichibu.keizai.biz/headline/519/
  :date: 2023.08.31
  :image: https://images.keizai.biz/chichibu_keizai/headline/1693464072_photo.jpg
  :title: 寄居町・かわはくで関東大震災イベント「災害時に荒川の水は飲める？」
- :id: 518
  :src: https://chichibu.keizai.biz/mapnews/518
  :lat: 35.978199
  :lng: 139.1363417
  :link: https://chichibu.keizai.biz/headline/518/
  :date: 2023.08.28
  :image: https://images.keizai.biz/chichibu_keizai/headline/1693186925_photo.jpg
  :title: 横瀬町「芦ヶ久保の獅子舞」が白鬚神社で4年ぶりの演舞 全演目を披露
- :id: 517
  :src: https://chichibu.keizai.biz/mapnews/517
  :lat: 35.9957308
  :lng: 139.0532538
  :link: https://chichibu.keizai.biz/headline/517/
  :date: 2023.08.22
  :image: https://images.keizai.biz/chichibu_keizai/headline/1692840035_photo.jpg
  :title: 秩父で音楽フェス「彩魂祭」　埼玉ゆかりのアーティスト出演、コラボSLも
- :id: 516
  :src: https://chichibu.keizai.biz/mapnews/516
  :lat: 36.0787803
  :lng: 139.099357
  :link: https://chichibu.keizai.biz/headline/516/
  :date: 2023.08.22
  :image: https://images.keizai.biz/chichibu_keizai/headline/1692689263_photo.jpg
  :title: 皆野中の生徒が校務のデジタル化に挑戦　教職員向け説明会に向け準備
- :id: 515
  :src: https://chichibu.keizai.biz/mapnews/515
  :lat: 35.9973215
  :lng: 139.0899419
  :link: https://chichibu.keizai.biz/headline/515/
  :date: 2023.08.22
  :image: https://images.keizai.biz/chichibu_keizai/headline/1692664727_photo.jpg
  :title: "「ホテルルートインGrand秩父」開業　宿泊で楽しむ秩父をアピール"
- :id: 514
  :src: https://chichibu.keizai.biz/mapnews/514
  :lat: 36.0178027
  :lng: 139.0062216
  :link: https://chichibu.keizai.biz/headline/514/
  :date: 2023.08.18
  :image: https://images.keizai.biz/chichibu_keizai/headline/1692327805_photo.jpg
  :title: 小鹿野町民歌舞伎劇場｢盛夏彩小鹿野賑｣　子ども向けに公開稽古
- :id: 513
  :src: https://chichibu.keizai.biz/mapnews/513
  :lat: 35.9973404
  :lng: 139.0826201
  :link: https://chichibu.keizai.biz/headline/513/
  :date: 2023.08.17
  :image: https://images.keizai.biz/chichibu_keizai/headline/1692252479_photo.jpg
  :title: 古民家宿泊施設「NIPPONIA秩父 門前町」が1周年　記念で駅長体験も
- :id: 512
  :src: https://chichibu.keizai.biz/mapnews/512
  :lat: 35.9988245
  :lng: 139.0794146
  :link: https://chichibu.keizai.biz/headline/512/
  :date: 2023.08.14
  :image: https://images.keizai.biz/chichibu_keizai/headline/1691975232_photo.jpg
  :title: 秩父音頭をベースにした「さとぴく音頭」　来年の秩父音頭まつりへ
- :id: 511
  :src: https://chichibu.keizai.biz/mapnews/511
  :lat: 35.994284
  :lng: 139.0838634
  :link: https://chichibu.keizai.biz/headline/511/
  :date: 2023.08.10
  :image: https://images.keizai.biz/chichibu_keizai/headline/1691662039_photo.jpg
  :title: 秩父の特産物を使ったパンナコッタ、女子栄養大生とコラボしカフェで提供
- :id: 510
  :src: https://chichibu.keizai.biz/mapnews/510
  :lat: 35.9988245
  :lng: 139.0794146
  :link: https://chichibu.keizai.biz/headline/510/
  :date: 2023.08.09
  :image: https://images.keizai.biz/chichibu_keizai/headline/1691571130_photo.jpg
  :title: 秩父で「木育おもちゃの広場」ボランティア・リーダー研修　
- :id: 509
  :src: https://chichibu.keizai.biz/mapnews/509
  :lat: 35.9988245
  :lng: 139.0794146
  :link: https://chichibu.keizai.biz/headline/509/
  :date: 2023.08.08
  :image: https://images.keizai.biz/chichibu_keizai/headline/1691481461_photo.jpg
  :title: "「ちちぶ乾杯共和国パスポート」　長瀞のコーヒー焙煎店がガイドブック発行"
- :id: 508
  :src: https://chichibu.keizai.biz/mapnews/508
  :lat: 36.0621154
  :lng: 139.1011534
  :link: https://chichibu.keizai.biz/headline/508/
  :date: 2023.08.04
  :image: https://images.keizai.biz/chichibu_keizai/headline/1691130224_photo.jpg
  :title: 皆野町「Mahora稲穂山」で自然素材のものづくりワークショップ
- :id: 507
  :src: https://chichibu.keizai.biz/mapnews/507
  :lat: 36.1156686
  :lng: 139.2196199
  :link: https://chichibu.keizai.biz/headline/507/
  :date: 2023.08.04
  :image: https://images.keizai.biz/chichibu_keizai/headline/1691114264_photo.jpg
  :title: 寄居町「かわはく」が地元染物店とコラボ　限定枚数でオリジナルTシャツ
- :id: 506
  :src: https://chichibu.keizai.biz/mapnews/506
  :lat: 35.9986417
  :lng: 139.0857777
  :link: https://chichibu.keizai.biz/headline/506/
  :date: 2023.08.03
  :image: https://images.keizai.biz/chichibu_keizai/headline/1691056689_photo.jpg
  :title: じばさん商店で「ちちぶ再発見フェア」　第1弾は皆野町
- :id: 505
  :src: https://chichibu.keizai.biz/mapnews/505
  :lat: 36.0621154
  :lng: 139.1011534
  :link: https://chichibu.keizai.biz/headline/505/
  :date: 2023.07.31
  :image: https://images.keizai.biz/chichibu_keizai/headline/1690809093_photo.jpg
  :title: 皆野町・猟師が店主のジビエ料理店「チルチルマサルキッチン」が3周年
- :id: 504
  :src: https://chichibu.keizai.biz/mapnews/504
  :lat: 36.0047508
  :lng: 139.0823915
  :link: https://chichibu.keizai.biz/headline/504/
  :date: 2023.07.28
  :image: https://images.keizai.biz/chichibu_keizai/headline/1690542066_photo.jpg
  :title: 秩父の菓子店「パティスリールリアン」店舗を模したギフトボックス発売
- :id: 503
  :src: https://chichibu.keizai.biz/mapnews/503
  :lat: 35.9948346
  :lng: 138.8008867
  :link: https://chichibu.keizai.biz/headline/503/
  :date: 2023.07.28
  :image: https://images.keizai.biz/chichibu_keizai/headline/1690524905_photo.jpg
  :title: 土砂災害から復旧、中津川「こまどり荘」「渓流釣り場」営業再開
- :id: 502
  :src: https://chichibu.keizai.biz/mapnews/502
  :lat: 35.992723
  :lng: 139.0822945
  :link: https://chichibu.keizai.biz/headline/502/
  :date: 2023.07.27
  :image: https://images.keizai.biz/chichibu_keizai/headline/1690445467_photo.jpg
  :title: 秩父の「だがしやたいへい」が1周年　「たい平美術館」と併せて楽しんで
- :id: 501
  :src: https://chichibu.keizai.biz/mapnews/501
  :lat: 35.9971419
  :lng: 139.0834623
  :link: https://chichibu.keizai.biz/headline/501/
  :date: 2023.07.26
  :image: https://images.keizai.biz/chichibu_keizai/headline/1690341948_photo.jpg
  :title: 秩父のフィットネスジム、子育て中の保護者向けに託児サービス始める
- :id: 500
  :src: https://chichibu.keizai.biz/mapnews/500
  :lat: 35.9966387
  :lng: 139.012962
  :link: https://chichibu.keizai.biz/headline/500/
  :date: 2023.07.25
  :image: https://images.keizai.biz/chichibu_keizai/headline/1690265351_photo.jpg
  :title: 小鹿野町・法性寺で仁王門解体修復チャリティーイベント ライブ企画も
- :id: 499
  :src: https://chichibu.keizai.biz/mapnews/499
  :lat: 35.9917644
  :lng: 139.0854619
  :link: https://chichibu.keizai.biz/headline/499/
  :date: 2023.07.24
  :image: https://images.keizai.biz/chichibu_keizai/headline/1690160734_photo.jpg
  :title: 秩父公園で「秩父肉フェスタ」今年はお盆開催で花火の打ち上げも
- :id: 498
  :src: https://chichibu.keizai.biz/mapnews/498
  :lat: 36.0142718
  :lng: 139.0753538
  :link: https://chichibu.keizai.biz/headline/498/
  :date: 2023.07.21
  :image: https://images.keizai.biz/chichibu_keizai/headline/1689950421_photo.jpg
  :title: 秩父で「CHANG-PONG FESTIVAL」　ワークショップやライブステージも
- :id: 497
  :src: https://chichibu.keizai.biz/mapnews/497
  :lat: 36.0027145
  :lng: 139.0925373
  :link: https://chichibu.keizai.biz/headline/497/
  :date: 2023.07.19
  :image: https://images.keizai.biz/chichibu_keizai/headline/1689755895_photo.jpg
  :title: 秩父第一小、「交通安全子供自転車全国大会」に向け練習
- :id: 496
  :src: https://chichibu.keizai.biz/mapnews/496
  :lat: 36.0274242
  :lng: 139.120996
  :link: https://chichibu.keizai.biz/headline/496/
  :date: 2023.07.18
  :image: https://images.keizai.biz/chichibu_keizai/headline/1689640043_photo.jpg
  :title: 秩父の四萬部寺で宿坊体験　「旅籠一番」とコラボで宿泊プラン
- :id: 495
  :src: https://chichibu.keizai.biz/mapnews/495
  :lat: 35.9942617
  :lng: 139.0839818
  :link: https://chichibu.keizai.biz/headline/495/
  :date: 2023.07.17
  :image: https://images.keizai.biz/chichibu_keizai/headline/1689520324_photo.jpg
  :title: 秩父「ヘアーサロンヤング」跡に週末ポップアップショップ　生花・菓子など販売
- :id: 494
  :src: https://chichibu.keizai.biz/mapnews/494
  :lat: 35.9944241
  :lng: 139.0853237
  :link: https://chichibu.keizai.biz/headline/494/
  :date: 2023.07.15
  :image: https://images.keizai.biz/chichibu_keizai/headline/1689320480_photo.jpg
  :title: 秩父に古民家を改修した宿泊施設　朝風呂や日帰りサウナ利用も
- :id: 493
  :src: https://chichibu.keizai.biz/mapnews/493
  :lat: 35.9922394
  :lng: 139.087692
  :link: https://chichibu.keizai.biz/headline/493/
  :date: 2023.07.12
  :image: https://images.keizai.biz/chichibu_keizai/headline/1689128120_photo.jpg
  :title: 熊木町のギャラリー「こぐま座α」でカナダ出身写真家の展示「埼玉の美しき」
- :id: 492
  :src: https://chichibu.keizai.biz/mapnews/492
  :lat: 35.98695590000001
  :lng: 139.1024563
  :link: https://chichibu.keizai.biz/headline/492/
  :date: 2023.07.11
  :image: https://images.keizai.biz/chichibu_keizai/headline/1689039747_photo.jpg
  :title: 横瀬町で「しあわせ」を考える「横瀬町しあわせ未来会議」
- :id: 491
  :src: https://chichibu.keizai.biz/mapnews/491
  :lat: 36.1170365
  :lng: 139.1951062
  :link: https://chichibu.keizai.biz/headline/491/
  :date: 2023.07.10
  :image: https://images.keizai.biz/chichibu_keizai/headline/1688949372_photo.jpg
  :title: 寄居で「朝顔まつり」　朝顔展や大輪の朝顔などの販売も
- :id: 490
  :src: https://chichibu.keizai.biz/mapnews/490
  :lat: 36.0375702
  :lng: 139.0287322
  :link: https://chichibu.keizai.biz/headline/490/
  :date: 2023.07.04
  :image: https://images.keizai.biz/chichibu_keizai/headline/1688457341_photo.jpg
  :title: 秩父「ただかね農園」のイチゴを使ったワッフル　イチゴ選手権で連続優勝
- :id: 489
  :src: https://chichibu.keizai.biz/mapnews/489
  :lat: 35.99313
  :lng: 139.0833898
  :link: https://chichibu.keizai.biz/headline/489/
  :date: 2023.07.03
  :image: https://images.keizai.biz/chichibu_keizai/headline/1688305415_photo.jpg
  :title: 秩父経・上半期PV1位は古着店「ウップス！」2号店
- :id: 488
  :src: https://chichibu.keizai.biz/mapnews/488
  :lat: 35.9988245
  :lng: 139.0794146
  :link: https://chichibu.keizai.biz/headline/488/
  :date: 2023.07.02
  :image: https://images.keizai.biz/chichibu_keizai/headline/1688278332_photo.jpg
  :title: 秩父宮記念市民会館で小学生向けに舞台体験ワークショップ　夏休みに開催
- :id: 487
  :src: https://chichibu.keizai.biz/mapnews/487
  :lat: 35.9988245
  :lng: 139.0794146
  :link: https://chichibu.keizai.biz/headline/487/
  :date: 2023.06.26
  :image: https://images.keizai.biz/chichibu_keizai/headline/1687785654_photo.jpg
  :title: 新工場建設に使われた皆野町の木材伐採跡地に苗を植樹　官民連携で
- :id: 486
  :src: https://chichibu.keizai.biz/mapnews/486
  :lat: 35.9988245
  :lng: 139.0794146
  :link: https://chichibu.keizai.biz/headline/486/
  :date: 2023.06.21
  :image: https://images.keizai.biz/chichibu_keizai/headline/1687273123_photo.jpg
  :title: 秩父第一中、学校の安全点検業務をDX化　秩父地域初
- :id: 485
  :src: https://chichibu.keizai.biz/mapnews/485
  :lat: 35.9988245
  :lng: 139.0794146
  :link: https://chichibu.keizai.biz/headline/485/
  :date: 2023.06.19
  :image: https://images.keizai.biz/chichibu_keizai/headline/1687184188_photo.jpg
  :title: 秩父で「共生社会」テーマにイベント　清心会さやかグループ40周年で
- :id: 484
  :src: https://chichibu.keizai.biz/mapnews/484
  :lat: 35.9932045
  :lng: 139.084452
  :link: https://chichibu.keizai.biz/headline/484/
  :date: 2023.06.13
  :image: https://images.keizai.biz/chichibu_keizai/headline/1686644528_photo.png
  :title: 秩父のゲストハウス「かめのこホステル」が5周年
- :id: 483
  :src: https://chichibu.keizai.biz/mapnews/483
  :lat: 36.1165557
  :lng: 139.1940879
  :link: https://chichibu.keizai.biz/headline/483/
  :date: 2023.06.08
  :image: https://images.keizai.biz/chichibu_keizai/headline/1686197517_photo.jpg
  :title: 寄居町「きぬのいえ」の服の染め直しサービス　数量限定で黒以外に対応
- :id: 482
  :src: https://chichibu.keizai.biz/mapnews/482
  :lat: 35.9959016
  :lng: 139.0819294
  :link: https://chichibu.keizai.biz/headline/482/
  :date: 2023.06.08
  :image: https://images.keizai.biz/chichibu_keizai/headline/1686193525_photo.jpg
  :title: 秩父・本町「お食事処 秩父新世界」が3周年　豚みそ丼・すき焼きなど提供
- :id: 481
  :src: https://chichibu.keizai.biz/mapnews/481
  :lat: 35.9988245
  :lng: 139.0794146
  :link: https://chichibu.keizai.biz/headline/481/
  :date: 2023.06.02
  :image: https://images.keizai.biz/chichibu_keizai/headline/1685695870_photo.jpg
  :title: 秩父の書道家が美文字練習帳出版　地元書店では特設コーナーも
- :id: 480
  :src: https://chichibu.keizai.biz/mapnews/480
  :lat: 36.0628693
  :lng: 139.0993443
  :link: https://chichibu.keizai.biz/headline/480/
  :date: 2023.06.02
  :image: https://images.keizai.biz/chichibu_keizai/headline/1685673696_photo.jpg
  :title: 皆野町で「やってみたい気持ち」をアートで育てる「さとぴく教室」
- :id: 479
  :src: https://chichibu.keizai.biz/mapnews/479
  :lat: 36.0941014
  :lng: 139.1095587
  :link: https://chichibu.keizai.biz/headline/479/
  :date: 2023.05.30
  :image: https://images.keizai.biz/chichibu_keizai/headline/1685427233_photo.jpg
  :title: 長瀞町「HODOSANDO COFFEE STAND」が1周年　店頭に自販機も
- :id: 478
  :src: https://chichibu.keizai.biz/mapnews/478
  :lat: 35.9905997
  :lng: 139.0848535
  :link: https://chichibu.keizai.biz/headline/478/
  :date: 2023.05.30
  :image: https://images.keizai.biz/chichibu_keizai/headline/1685369007_photo.jpg
  :title: 秩父でマーケティング勉強会　「DX学校秩父校」などが主催
- :id: 477
  :src: https://chichibu.keizai.biz/mapnews/477
  :lat: 35.9988245
  :lng: 139.0794146
  :link: https://chichibu.keizai.biz/headline/477/
  :date: 2023.05.29
  :image: https://images.keizai.biz/chichibu_keizai/headline/1685368397_photo.png
  :title: 皆野町で「みなのデジタルエコ農園」体験　DX遠隔農業通じた農地活用目指す
- :id: 476
  :src: https://chichibu.keizai.biz/mapnews/476
  :lat: 35.9988245
  :lng: 139.0794146
  :link: https://chichibu.keizai.biz/headline/476/
  :date: 2023.05.27
  :image: https://images.keizai.biz/chichibu_keizai/headline/1685196926_photo.jpg
  :title: 秩父地域で高校生・大学生向けのスタディーツアー　伝統や挑戦に触れる機会に
- :id: 475
  :src: https://chichibu.keizai.biz/mapnews/475
  :lat: 35.9988245
  :lng: 139.0794146
  :link: https://chichibu.keizai.biz/headline/475/
  :date: 2023.05.26
  :image: https://images.keizai.biz/chichibu_keizai/headline/1685087991_photo.jpg
  :title: 秩父の「ウッディーコイケ」が林業見学ツアー　一般向けツアーも計画
- :id: 474
  :src: https://chichibu.keizai.biz/mapnews/474
  :lat: 36.1156935
  :lng: 139.2196059
  :link: https://chichibu.keizai.biz/headline/474/
  :date: 2023.05.25
  :image: https://images.keizai.biz/chichibu_keizai/headline/1684991717_photo.jpg
  :title: 幻の朝顔「団十郎」　かわはくで鉢植え講習会
- :id: 473
  :src: https://chichibu.keizai.biz/mapnews/473
  :lat: 35.9988245
  :lng: 139.0794146
  :link: https://chichibu.keizai.biz/headline/473/
  :date: 2023.05.25
  :image: https://images.keizai.biz/chichibu_keizai/headline/1684977838_photo.jpg
  :title: 小鹿野町で津軽三味線と二胡のコンサート　秩父の奏者が「そよ風コンサート」
- :id: 472
  :src: https://chichibu.keizai.biz/mapnews/472
  :lat: 35.9988245
  :lng: 139.0794146
  :link: https://chichibu.keizai.biz/headline/472/
  :date: 2023.05.23
  :image: https://images.keizai.biz/chichibu_keizai/headline/1684829162_photo.jpg
  :title: 旅するチョウ「アサギマダラ」を呼ぶプロジェクト　秩父市立西小で始動
- :id: 471
  :src: https://chichibu.keizai.biz/mapnews/471
  :lat: 35.9988245
  :lng: 139.0794146
  :link: https://chichibu.keizai.biz/headline/471/
  :date: 2023.05.22
  :image: https://images.keizai.biz/chichibu_keizai/headline/1684735615_photo.jpg
  :title: 秩父出身の絵本作家・飯野和好さんが初の自叙伝「人生はチャンバラ劇」
- :id: 470
  :src: https://chichibu.keizai.biz/mapnews/470
  :lat: 35.9988245
  :lng: 139.0794146
  :link: https://chichibu.keizai.biz/headline/470/
  :date: 2023.05.19
  :image: https://images.keizai.biz/chichibu_keizai/headline/1684476333_photo.jpg
