---
- :id: 3479
  :src: https://funabashi.keizai.biz/mapnews/3479
  :lat: 35.6821713
  :lng: 139.9930346
  :link: https://funabashi.keizai.biz/headline/3479/
  :date: 2025.01.20
  :image: https://images.keizai.biz/funabashi_keizai/headline/1737366171_photo.jpg
  :title: ららアリ横の浜町中央公園にバスケコート　赤が基調のジェッツデザインに
- :id: 3478
  :src: https://funabashi.keizai.biz/mapnews/3478
  :lat: 35.7295983
  :lng: 140.0519824
  :link: https://funabashi.keizai.biz/headline/3478/
  :date: 2025.01.17
  :image: https://images.keizai.biz/funabashi_keizai/headline/1737105910_photo.jpg
  :title: 船橋アリーナで「船橋市成人式」　対象は昨年より多い6284人
- :id: 3477
  :src: https://funabashi.keizai.biz/mapnews/3477
  :lat: 35.6837578
  :lng: 139.9895901
  :link: https://funabashi.keizai.biz/headline/3477/
  :date: 2025.01.16
  :image: https://images.keizai.biz/funabashi_keizai/headline/1737027775_photo.jpg
  :title: "「ららアリーナ」でBリーグオールスターゲーム　南船橋駅周辺でイベントも"
- :id: 3476
  :src: https://funabashi.keizai.biz/mapnews/3476
  :lat: 35.70174
  :lng: 139.9831875
  :link: https://funabashi.keizai.biz
  :date: 2000.01.23
  :image: "/images/funabashi.png"
  :title: 404_Not_Found
- :id: 3475
  :src: https://funabashi.keizai.biz/mapnews/3475
  :lat: 35.6837578
  :lng: 139.9895901
  :link: https://funabashi.keizai.biz/headline/3475/
  :date: 2025.01.12
  :image: https://images.keizai.biz/funabashi_keizai/headline/1736674883_photo.jpg
  :title: 千葉ジェッツ、天皇杯クォーターファイナルで惜敗　天皇杯三連覇逃す
- :id: 3474
  :src: https://funabashi.keizai.biz/mapnews/3474
  :lat: 35.7295983
  :lng: 140.0519824
  :link: https://funabashi.keizai.biz/headline/3474/
  :date: 2025.01.09
  :image: https://images.keizai.biz/funabashi_keizai/headline/1736349917_photo.jpg
  :title: 船橋市内で「千葉ジェッツふなばしカップ」　年始に全国強豪校が対戦
- :id: 3473
  :src: https://funabashi.keizai.biz/mapnews/3473
  :lat: 35.7149482
  :lng: 139.9426557
  :link: https://funabashi.keizai.biz/headline/3473/
  :date: 2025.01.08
  :image: https://images.keizai.biz/funabashi_keizai/headline/1736318333_photo.jpg
  :title: 下総中山の「麺と酒 一」が1周年　熊本出身店主が熊本ラーメンなど提供
- :id: 3472
  :src: https://funabashi.keizai.biz/mapnews/3472
  :lat: 35.7018137
  :lng: 139.9991581
  :link: https://funabashi.keizai.biz/headline/3472/
  :date: 2024.12.28
  :image: https://images.keizai.biz/funabashi_keizai/headline/1735350975_photo.jpg
  :title: 市船バスケ部、2年ぶりウインターカップ出場も2回戦で敗退
- :id: 3471
  :src: https://funabashi.keizai.biz/mapnews/3471
  :lat: 35.7399519
  :lng: 139.9823364
  :link: https://funabashi.keizai.biz/headline/3471/
  :date: 2024.12.28
  :image: https://images.keizai.biz/funabashi_keizai/headline/1735351118_photo.jpg
  :title: ふなっしー、サンタになって船橋市内3施設で子どもたちにプレゼント
- :id: 3470
  :src: https://funabashi.keizai.biz/mapnews/3470
  :lat: 35.6953477
  :lng: 139.9849469
  :link: https://funabashi.keizai.biz/headline/3470/
  :date: 2024.12.25
  :image: https://images.keizai.biz/funabashi_keizai/headline/1735127955_photo.jpg
  :title: 船橋駅～南船橋周辺の「ファミリーマート」が千葉ジェッツ仕様に
- :id: 3469
  :src: https://funabashi.keizai.biz/mapnews/3469
  :lat: 35.7003196
  :lng: 139.9870389
  :link: https://funabashi.keizai.biz/headline/3469/
  :date: 2024.12.25
  :image: https://images.keizai.biz/funabashi_keizai/headline/1735085743_photo.jpg
  :title: 船橋「ワインバー　ニノニ」が3周年　ワイン100種超と各地の生ガキ提供
- :id: 3468
  :src: https://funabashi.keizai.biz/mapnews/3468
  :lat: 35.6903677
  :lng: 139.9971637
  :link: https://funabashi.keizai.biz/headline/3468/
  :date: 2024.12.21
  :image: https://images.keizai.biz/funabashi_keizai/headline/1734705496_photo.jpg
  :title: 船橋競馬場駅近くに「キロ・カフェ」　おにぎり店から転換、気軽に寄れる店に
- :id: 3467
  :src: https://funabashi.keizai.biz/mapnews/3467
  :lat: 35.7233649
  :lng: 140.0585609
  :link: https://funabashi.keizai.biz/headline/3467/
  :date: 2024.12.17
  :image: https://images.keizai.biz/funabashi_keizai/headline/1734436288_photo.jpg
  :title: 社会人サッカー「船橋FC」、NFTでチームオーナー権販売開始
- :id: 3466
  :src: https://funabashi.keizai.biz/mapnews/3466
  :lat: 35.6962214
  :lng: 139.9929871
  :link: https://funabashi.keizai.biz/headline/3466/
  :date: 2024.12.16
  :image: https://images.keizai.biz/funabashi_keizai/headline/1734339867_photo.jpg
  :title: 東邦大生、船橋大神宮境内の生態系を網羅的調査　自然観察パンフレット発行
- :id: 3465
  :src: https://funabashi.keizai.biz/mapnews/3465
  :lat: 35.6944565
  :lng: 139.9818135
  :link: https://funabashi.keizai.biz/headline/3465/
  :date: 2024.12.15
  :image: https://images.keizai.biz/funabashi_keizai/headline/1734227992_photo.jpg
  :title: 市立船橋高校4つの部が全国大会へ　船橋市役所で激励会
- :id: 3464
  :src: https://funabashi.keizai.biz/mapnews/3464
  :lat: 35.759082
  :lng: 140.0150044
  :link: https://funabashi.keizai.biz/headline/3464/
  :date: 2024.12.14
  :image: https://images.keizai.biz/funabashi_keizai/headline/1734186726_photo.jpg
  :title: 咲が丘にハワイアンレストラン「オハナ」　キッチンカーを経て念願の実店舗
- :id: 3463
  :src: https://funabashi.keizai.biz/mapnews/3463
  :lat: 35.70174
  :lng: 139.9831875
  :link: https://funabashi.keizai.biz/headline/3463/
  :date: 2024.12.13
  :image: https://images.keizai.biz/funabashi_keizai/headline/1734103564_photo.jpg
  :title: 船橋経済新聞・年間PVランキング1位は住宅地に開店した「コナズ珈琲」
- :id: 3462
  :src: https://funabashi.keizai.biz/mapnews/3462
  :lat: 35.7385639
  :lng: 140.0511813
  :link: https://funabashi.keizai.biz/headline/3462/
  :date: 2024.12.12
  :image: https://images.keizai.biz/funabashi_keizai/headline/1733991911_photo.jpg
  :title: 船橋拠点の野球チーム「千葉スカイセイラーズ」、BCリーグへの準加盟表明
- :id: 3461
  :src: https://funabashi.keizai.biz/mapnews/3461
  :lat: 35.7022691
  :lng: 140.0040092
  :link: https://funabashi.keizai.biz/headline/3461/
  :date: 2024.12.09
  :image: https://images.keizai.biz/funabashi_keizai/headline/1733751127_photo.jpg
  :title: 東船橋駅前で「ひがふなフェスタ」　開催10回目も盛況に
- :id: 3460
  :src: https://funabashi.keizai.biz/mapnews/3460
  :lat: 35.7150806
  :lng: 139.942464
  :link: https://funabashi.keizai.biz/headline/3460/
  :date: 2024.12.06
  :image: https://images.keizai.biz/funabashi_keizai/headline/1733406604_photo.jpg
  :title: 下総中山駅北口の「食堂Ao.」が1周年　おでんと鮮魚を主軸に
- :id: 3459
  :src: https://funabashi.keizai.biz/mapnews/3459
  :lat: 35.715553
  :lng: 139.9472182
  :link: https://funabashi.keizai.biz/headline/3459/
  :date: 2024.12.05
  :image: https://images.keizai.biz/funabashi_keizai/headline/1733406151_photo.jpg
  :title: 西部公民館で初となる「船橋オープンデータアイデアソン」　大学生らが参加
- :id: 3458
  :src: https://funabashi.keizai.biz/mapnews/3458
  :lat: 35.7553141
  :lng: 140.0297647
  :link: https://funabashi.keizai.biz/headline/3458/
  :date: 2024.12.04
  :image: https://images.keizai.biz/funabashi_keizai/headline/1733299879_photo.jpg
  :title: 三咲の文具店がガレージゼール「結ノ市」　地域の人がつながる場に
- :id: 3457
  :src: https://funabashi.keizai.biz/mapnews/3457
  :lat: 35.7334401
  :lng: 140.0467972
  :link: https://funabashi.keizai.biz/headline/3457/
  :date: 2024.12.03
  :image: https://images.keizai.biz/funabashi_keizai/headline/1733215590_photo.jpg
  :title: 松が丘に犬専門トリミングサロン「もんぶらん」　セルフフォトスペースも
- :id: 3456
  :src: https://funabashi.keizai.biz/mapnews/3456
  :lat: 35.728942
  :lng: 140.0300349
  :link: https://funabashi.keizai.biz/headline/3456/
  :date: 2024.12.02
  :image: https://images.keizai.biz/funabashi_keizai/headline/1733125432_photo.jpg
  :title: 高根公団駅近くに「シェアキッチン・クレアシオン」　販売ブースも時間貸し
- :id: 3455
  :src: https://funabashi.keizai.biz/mapnews/3455
  :lat: 35.705374
  :lng: 139.9849578
  :link: https://funabashi.keizai.biz/headline/3455/
  :date: 2024.12.01
  :image: https://images.keizai.biz/funabashi_keizai/headline/1733041878_photo.jpg
  :title: 天沼弁天池公園で「ふなばし絆フェス」　8チーム対抗綱引き大会は白熱
- :id: 3454
  :src: https://funabashi.keizai.biz/mapnews/3454
  :lat: 35.7299132
  :lng: 140.0134318
  :link: https://funabashi.keizai.biz/headline/3454/
  :date: 2024.11.28
  :image: https://images.keizai.biz/funabashi_keizai/headline/1732783095_photo.jpg
  :title: 船橋の不動産会社、休耕地で栽培したサツマイモを使い焼酎を商品化
- :id: 3453
  :src: https://funabashi.keizai.biz/mapnews/3453
  :lat: 35.690222
  :lng: 139.9902562
  :link: https://funabashi.keizai.biz/headline/3453/
  :date: 2024.11.28
  :image: https://images.keizai.biz/funabashi_keizai/headline/1732747449_photo.jpg
  :title: 船橋・浜町リサイクルショップ内にレンタル防音室　楽器やカラオケ練習に
- :id: 3452
  :src: https://funabashi.keizai.biz/mapnews/3452
  :lat: 35.7015625
  :lng: 140.0208969
  :link: https://funabashi.keizai.biz/headline/3452/
  :date: 2024.11.27
  :image: https://images.keizai.biz/funabashi_keizai/headline/1732696717_photo.jpg
  :title: 前原団地に「うちの米粉ベーカリー」　整体師が米粉パンを研究して開業
- :id: 3451
  :src: https://funabashi.keizai.biz/mapnews/3451
  :lat: 35.7209116
  :lng: 139.9492836
  :link: https://funabashi.keizai.biz/headline/3451/
  :date: 2024.11.26
  :image: https://images.keizai.biz/funabashi_keizai/headline/1732618069_photo.jpg
  :title: 中山法華経寺で「なかやま特別骨董市」 仏像や和洋食器など境内に70店
- :id: 3450
  :src: https://funabashi.keizai.biz/mapnews/3450
  :lat: 35.7589066
  :lng: 140.0581395
  :link: https://funabashi.keizai.biz/headline/3450/
  :date: 2024.11.23
  :image: https://images.keizai.biz/funabashi_keizai/headline/1732321401_photo.jpg
  :title: オーデンセ市姉妹都市35周年　アンデルセン公園子ども美術館で記念展示会
- :id: 3449
  :src: https://funabashi.keizai.biz/mapnews/3449
  :lat: 35.7208594
  :lng: 140.0435827
  :link: https://funabashi.keizai.biz/headline/3449/
  :date: 2024.11.22
  :image: https://images.keizai.biz/funabashi_keizai/headline/1732279531_photo.jpg
  :title: 北習志野「シウナススイーツ」、「猫の森」とのコラボドーナツを店頭販売
- :id: 3448
  :src: https://funabashi.keizai.biz/mapnews/3448
  :lat: 35.705374
  :lng: 139.9849578
  :link: https://funabashi.keizai.biz/headline/3448/
  :date: 2024.11.19
  :image: https://images.keizai.biz/funabashi_keizai/headline/1732068300_photo.jpg
  :title: 天沼弁天池公園で「船橋市農水産祭」　コノシロを使ったつみれ汁も
- :id: 3447
  :src: https://funabashi.keizai.biz/mapnews/3447
  :lat: 35.6837578
  :lng: 139.9895901
  :link: https://funabashi.keizai.biz/headline/3447/
  :date: 2024.11.18
  :image: https://images.keizai.biz/funabashi_keizai/headline/1731908044_photo.jpg
  :title: 市立船橋高男子バスケ部、ウインターカップ初戦相手は天理高校
- :id: 3446
  :src: https://funabashi.keizai.biz/mapnews/3446
  :lat: 35.6923639
  :lng: 140.0185198
  :link: https://funabashi.keizai.biz/headline/3446/
  :date: 2024.11.17
  :image: https://images.keizai.biz/funabashi_keizai/headline/1731830546_photo.jpg
  :title: 津田沼のフラダンス教室「ハラウ オ ケアラロゼラニ」、世界大会で優勝
- :id: 3445
  :src: https://funabashi.keizai.biz/mapnews/3445
  :lat: 35.6947103
  :lng: 139.9825097
  :link: https://funabashi.keizai.biz/headline/3445/
  :date: 2024.11.16
  :image: https://images.keizai.biz/funabashi_keizai/headline/1731716584_photo.jpg
  :title: 社会人サッカー「FC船橋40」が全国準優勝　大人のサッカー環境推進
- :id: 3444
  :src: https://funabashi.keizai.biz/mapnews/3444
  :lat: 35.6995971
  :lng: 139.9886153
  :link: https://funabashi.keizai.biz/headline/3444/
  :date: 2024.11.13
  :image: https://images.keizai.biz/funabashi_keizai/headline/1731491888_photo.jpg
  :title: 本町の居酒屋「すみか」で子ども食堂　FC店でできなかった念願かなえる
- :id: 3443
  :src: https://funabashi.keizai.biz/mapnews/3443
  :lat: 35.750021
  :lng: 140.0317249
  :link: https://funabashi.keizai.biz/headline/3443/
  :date: 2024.11.12
  :image: https://images.keizai.biz/funabashi_keizai/headline/1731356399_photo.jpg
  :title: 新京成三咲駅近くにカフェ「クラスタ」　建築設計事務所に併設
- :id: 3442
  :src: https://funabashi.keizai.biz/mapnews/3442
  :lat: 35.6954957
  :lng: 139.9922989
  :link: https://funabashi.keizai.biz/headline/3442/
  :date: 2024.11.11
  :image: https://images.keizai.biz/funabashi_keizai/headline/1731317997_photo.jpg
  :title: 船橋大神宮近くに米粉のワッフルクレープ店「プラスナチュリ」　
- :id: 3441
  :src: https://funabashi.keizai.biz/mapnews/3441
  :lat: 35.7399519
  :lng: 139.9823364
  :link: https://funabashi.keizai.biz/headline/3441/
  :date: 2024.11.07
  :image: https://images.keizai.biz/funabashi_keizai/headline/1730965605_photo.jpg
  :title: 藤原のロータスケアセンターで「解体祭」　福祉施設解体を機に地域と交流
- :id: 3440
  :src: https://funabashi.keizai.biz/mapnews/3440
  :lat: 35.6988879
  :lng: 139.9832644
  :link: https://funabashi.keizai.biz/headline/3440/
  :date: 2024.11.04
  :image: https://images.keizai.biz/funabashi_keizai/headline/1730690324_photo.jpg
  :title: 船橋駅近くにクラフトビールの店「クラフトポート船橋」　
- :id: 3439
  :src: https://funabashi.keizai.biz/mapnews/3439
  :lat: 35.70174
  :lng: 139.9831875
  :link: https://funabashi.keizai.biz
  :date: 2000.01.23
  :image: "/images/funabashi.png"
  :title: 404_Not_Found
- :id: 3438
  :src: https://funabashi.keizai.biz/mapnews/3438
  :lat: 35.7875402
  :lng: 140.0747353
  :link: https://funabashi.keizai.biz/headline/3438/
  :date: 2024.10.30
  :image: https://images.keizai.biz/funabashi_keizai/headline/1730297996_photo.jpg
  :title: 小室駅前に豊富・坪井域包括支援センターのサブセンター
- :id: 3437
  :src: https://funabashi.keizai.biz/mapnews/3437
  :lat: 35.7128088
  :lng: 140.0463318
  :link: https://funabashi.keizai.biz/headline/3437/
  :date: 2024.10.27
  :image: https://images.keizai.biz/funabashi_keizai/headline/1730032896_photo.jpg
  :title: 社会人サッカーチーム「船橋FC」、児童養護施設「おんちょう園」訪問
- :id: 3436
  :src: https://funabashi.keizai.biz/mapnews/3436
  :lat: 35.7292541
  :lng: 140.0398137
  :link: https://funabashi.keizai.biz/headline/3436/
  :date: 2024.10.26
  :image: https://images.keizai.biz/funabashi_keizai/headline/1729896861_photo.jpg
  :title: 船橋・高根台に「カフェコッソリ」　ひきこもりの過去を持つスタッフで運営
- :id: 3435
  :src: https://funabashi.keizai.biz/mapnews/3435
  :lat: 35.7304387
  :lng: 140.0311184
  :link: https://funabashi.keizai.biz/headline/3435/
  :date: 2024.10.25
  :image: https://images.keizai.biz/funabashi_keizai/headline/1729826254_photo.jpg
  :title: 船橋・エポカ高根台に「セレクトショップONWA」　房総の特産品そろえる
- :id: 3434
  :src: https://funabashi.keizai.biz/mapnews/3434
  :lat: 35.713517
  :lng: 140.0438461
  :link: https://funabashi.keizai.biz/headline/3434/
  :date: 2024.10.23
  :image: https://images.keizai.biz/funabashi_keizai/headline/1729674779_photo.jpg
  :title: 船橋和太鼓連盟、薬園台高校で5年ぶりの定期演奏会　5団体が共演
- :id: 3433
  :src: https://funabashi.keizai.biz/mapnews/3433
  :lat: 35.7014332
  :lng: 139.9865911
  :link: https://funabashi.keizai.biz/headline/3433/
  :date: 2024.10.22
  :image: https://images.keizai.biz/funabashi_keizai/headline/1729603265_photo.jpg
  :title: 東武百貨店船橋店で「さつまいもメニューフェア」　和洋女子大学とコラボ
- :id: 3432
  :src: https://funabashi.keizai.biz/mapnews/3432
  :lat: 35.7026012
  :lng: 139.9853089
  :link: https://funabashi.keizai.biz/headline/3432/
  :date: 2024.10.17
  :image: https://images.keizai.biz/funabashi_keizai/headline/1729175968_photo.jpg
  :title: 船橋最大の音楽イベント「ふなばしミュージックストリート」　92組参加へ
- :id: 3431
  :src: https://funabashi.keizai.biz/mapnews/3431
  :lat: 35.7068666
  :lng: 139.9860579
  :link: https://funabashi.keizai.biz/headline/3431/
  :date: 2024.10.16
  :image: https://images.keizai.biz/funabashi_keizai/headline/1729060885_photo.jpg
  :title: 船橋の散歩ガイド「ふなさんぽ」発行　船橋総合住宅展示場45周年記念で
- :id: 3430
  :src: https://funabashi.keizai.biz/mapnews/3430
  :lat: 35.7114559
  :lng: 139.978715
  :link: https://funabashi.keizai.biz/headline/3430/
  :date: 2024.10.15
  :image: https://images.keizai.biz/funabashi_keizai/headline/1728978479_photo.jpg
  :title: イオンモール船橋で千葉ジェッツのパブリックビューイング　船橋市が主催
- :id: 3429
  :src: https://funabashi.keizai.biz/mapnews/3429
  :lat: 35.6947103
  :lng: 139.9825097
  :link: https://funabashi.keizai.biz/headline/3429/
  :date: 2024.10.13
  :image: https://images.keizai.biz/funabashi_keizai/headline/1728812956_photo.jpg
  :title: 船橋の社会人サッカーチーム「FC船橋40」が全国へ　予選をトップ通過
- :id: 3428
  :src: https://funabashi.keizai.biz/mapnews/3428
  :lat: 35.7195495
  :lng: 140.0119321
  :link: https://funabashi.keizai.biz/headline/3428/
  :date: 2024.10.12
  :image: https://images.keizai.biz/funabashi_keizai/headline/1728672387_photo.jpg
  :title: 高根神明社神楽連、枠を広げ新たな担い手募集　男女の垣根も外す
- :id: 3427
  :src: https://funabashi.keizai.biz/mapnews/3427
  :lat: 35.6973585
  :lng: 139.981777
  :link: https://funabashi.keizai.biz/headline/3427/
  :date: 2024.10.09
  :image: https://images.keizai.biz/funabashi_keizai/headline/1728484467_photo.jpg
  :title: 船橋にボクシングジム「FUNABASHI E-BOX GYM」が開業
- :id: 3426
  :src: https://funabashi.keizai.biz/mapnews/3426
  :lat: 35.6861392
  :lng: 139.9901153
  :link: https://funabashi.keizai.biz/headline/3426/
  :date: 2024.10.08
  :image: https://images.keizai.biz/funabashi_keizai/headline/1728380145_photo.jpg
  :title: 船橋「ボーネルンド」で発達障害のある子ども向け親子イベント
- :id: 3425
  :src: https://funabashi.keizai.biz/mapnews/3425
  :lat: 35.6947103
  :lng: 139.9825097
  :link: https://funabashi.keizai.biz/headline/3425/
  :date: 2024.10.06
  :image: https://images.keizai.biz/funabashi_keizai/headline/1728226800_photo.jpg
  :title: 船橋市、オーデンセ・西安のメニューを「食べよう」キャンペーン
- :id: 3424
  :src: https://funabashi.keizai.biz/mapnews/3424
  :lat: 35.7017066
  :lng: 139.9866913
  :link: https://funabashi.keizai.biz/headline/3424/
  :date: 2024.10.05
  :image: https://images.keizai.biz/funabashi_keizai/headline/1728091400_photo.jpg
  :title: 船橋市最大のイベント「ふなばし市民まつり」　よさこいやみこしなど多彩に
- :id: 3423
  :src: https://funabashi.keizai.biz/mapnews/3423
  :lat: 35.6947103
  :lng: 139.9825097
  :link: https://funabashi.keizai.biz/headline/3423/
  :date: 2024.10.04
  :image: https://images.keizai.biz/funabashi_keizai/headline/1728030606_photo.jpg
  :title: 船橋在住の高校生・小川冬威さんが馬術日本一　夢は「大学で全種目日本一」
- :id: 3422
  :src: https://funabashi.keizai.biz/mapnews/3422
  :lat: 35.7075395
  :lng: 140.0974274
  :link: https://funabashi.keizai.biz/headline/3422/
  :date: 2024.10.02
  :image: https://images.keizai.biz/funabashi_keizai/headline/1727881203_photo.jpg
  :title: 船橋・八千代などで「グラノーラ散歩」　健康志向のカフェ11店とコラボ
- :id: 3421
  :src: https://funabashi.keizai.biz/mapnews/3421
  :lat: 35.7421975
  :lng: 139.9924934
  :link: https://funabashi.keizai.biz/headline/3421/
  :date: 2024.10.01
  :image: https://images.keizai.biz/funabashi_keizai/headline/1727734998_photo.jpg
  :title: 馬込沢駅近くに「馬喰ろう」経営のラーメン店　馬肉をのせた限定まぜそばも
- :id: 3420
  :src: https://funabashi.keizai.biz/mapnews/3420
  :lat: 35.6843262
  :lng: 139.9892566
  :link: https://funabashi.keizai.biz/headline/3420/
  :date: 2024.09.30
  :image: https://images.keizai.biz/funabashi_keizai/headline/1727700762_photo.jpg
  :title: 船橋港で「ふなばしミートフェスタ＆ボンバイエ」 サンプラザ中野くんも参加
- :id: 3419
  :src: https://funabashi.keizai.biz/mapnews/3419
  :lat: 35.6939458
  :lng: 140.0206903
  :link: https://funabashi.keizai.biz/headline/3419/
  :date: 2024.09.26
  :image: https://images.keizai.biz/funabashi_keizai/headline/1727331781_photo.jpg
  :title: 津田沼駅周辺の飲食店で「飲み歩きパスポート」企画　新しい店との出合いに
- :id: 3418
  :src: https://funabashi.keizai.biz/mapnews/3418
  :lat: 35.76247060000001
  :lng: 140.0655682
  :link: https://funabashi.keizai.biz/headline/3418/
  :date: 2024.09.19
  :image: https://images.keizai.biz/funabashi_keizai/headline/1726732117_photo.jpg
  :title: "「ふなばしシャインマスカットグランプリ」初開催、市内農家12軒が出品"
- :id: 3417
  :src: https://funabashi.keizai.biz/mapnews/3417
  :lat: 35.690907
  :lng: 139.9898979
  :link: https://funabashi.keizai.biz/headline/3417/
  :date: 2024.09.18
  :image: https://images.keizai.biz/funabashi_keizai/headline/1726618213_photo.jpg
  :title: 船橋・浜町の2自治会が合同で初の「防災フェア」　起震車で震度7を体験
- :id: 3416
  :src: https://funabashi.keizai.biz/mapnews/3416
  :lat: 35.6837578
  :lng: 139.9895901
  :link: https://funabashi.keizai.biz/headline/3416/
  :date: 2024.09.17
  :image: https://images.keizai.biz/funabashi_keizai/headline/1726522759_photo.jpg
  :title: 船橋港親水公園で「ふなばしミートフェスタ＆ボンバイエ」開催へ
- :id: 3415
  :src: https://funabashi.keizai.biz/mapnews/3415
  :lat: 35.6947103
  :lng: 139.9825097
  :link: https://funabashi.keizai.biz/headline/3415/
  :date: 2024.09.10
  :image: https://images.keizai.biz/funabashi_keizai/headline/1725962525_photo.jpg
  :title: 船橋・中野木小3年の常住美結さん、ゴルフで世界一に　市長に優勝報告
- :id: 3414
  :src: https://funabashi.keizai.biz/mapnews/3414
  :lat: 35.6944565
  :lng: 139.9818135
  :link: https://funabashi.keizai.biz/headline/3414/
  :date: 2024.09.09
  :image: https://images.keizai.biz/funabashi_keizai/headline/1725885561_photo.jpg
  :title: 船橋夏見特別支援学校・なっつみーズ、「ボッチャ甲子園」で全国優勝
- :id: 3413
  :src: https://funabashi.keizai.biz/mapnews/3413
  :lat: 35.6947103
  :lng: 139.9825097
  :link: https://funabashi.keizai.biz/headline/3413/
  :date: 2024.09.08
  :image: https://images.keizai.biz/funabashi_keizai/headline/1725785024_photo.jpg
  :title: 市立船橋出身のパリ五輪バレー女子代表・小島満菜美選手、アメリカ移籍を報告
- :id: 3412
  :src: https://funabashi.keizai.biz/mapnews/3412
  :lat: 35.6947103
  :lng: 139.9825097
  :link: https://funabashi.keizai.biz/headline/3412/
  :date: 2024.09.06
  :image: https://images.keizai.biz/funabashi_keizai/headline/1725630369_photo.jpg
  :title: パリ五輪金メダルの橋本大輝選手ら、船橋市特別功労表彰
- :id: 3411
  :src: https://funabashi.keizai.biz/mapnews/3411
  :lat: 35.7398205
  :lng: 140.0191463
  :link: https://funabashi.keizai.biz/headline/3411/
  :date: 2024.09.05
  :image: https://images.keizai.biz/funabashi_keizai/headline/1725492389_photo.jpg
  :title: 御瀧不動尊で恒例「開山祭」　台風接近で「夜みこし」中止も境内ににぎわい
- :id: 3410
  :src: https://funabashi.keizai.biz/mapnews/3410
  :lat: 35.6990266
  :lng: 139.9832744
  :link: https://funabashi.keizai.biz/headline/3410/
  :date: 2024.09.01
  :image: https://images.keizai.biz/funabashi_keizai/headline/1725152979_photo.jpg
  :title: 船橋駅近くにワインバル「八十郎」系列店　「イタリア」テーマに主力はピザ
- :id: 3409
  :src: https://funabashi.keizai.biz/mapnews/3409
  :lat: 35.6929047
  :lng: 140.0486533
  :link: https://funabashi.keizai.biz/headline/3409/
  :date: 2024.08.31
  :image: https://images.keizai.biz/funabashi_keizai/headline/1725110343_photo.jpg
  :title: 日大・東邦大で小学生向け「ふなっこ未来大学」　理科の楽しさ伝える
- :id: 3408
  :src: https://funabashi.keizai.biz/mapnews/3408
  :lat: 35.7897172
  :lng: 140.0742235
  :link: https://funabashi.keizai.biz/headline/3408/
  :date: 2024.08.23
  :image: https://images.keizai.biz/funabashi_keizai/headline/1724418690_photo.jpg
  :title: 船橋・小室公園で「小室夏まつり」　昨年に続き開催、今年は「おとなみこし」も
- :id: 3407
  :src: https://funabashi.keizai.biz/mapnews/3407
  :lat: 35.7021693
  :lng: 139.9874929
  :link: https://funabashi.keizai.biz/headline/3407/
  :date: 2024.08.13
  :image: https://images.keizai.biz/funabashi_keizai/headline/1723424256_photo.jpg
  :title: 船橋駅近くにイタリアンバル新店　エステサロン運営会社が出店
- :id: 3406
  :src: https://funabashi.keizai.biz/mapnews/3406
  :lat: 35.7209983
  :lng: 139.9792091
  :link: https://funabashi.keizai.biz/headline/3406/
  :date: 2024.08.10
  :image: https://images.keizai.biz/funabashi_keizai/headline/1723423279_photo.jpg
  :title: 船橋に「ふくろう珈琲カフェ」　隣の就労支援施設・コーヒー焙煎所が開く
- :id: 3405
  :src: https://funabashi.keizai.biz/mapnews/3405
  :lat: 35.6987728
  :lng: 139.9860224
  :link: https://funabashi.keizai.biz/headline/3405/
  :date: 2024.08.12
  :image: https://images.keizai.biz/funabashi_keizai/headline/1723377672_photo.jpg
  :title: 京成船橋駅近くにベーグル専門店　食事系サンド・スイーツ系22種
- :id: 3404
  :src: https://funabashi.keizai.biz/mapnews/3404
  :lat: 35.6966818
  :lng: 139.9833646
  :link: https://funabashi.keizai.biz/headline/3404/
  :date: 2024.08.11
  :image: https://images.keizai.biz/funabashi_keizai/headline/1723352621_photo.jpg
  :title: 船橋・石井食品本社で「ファンフェス」　ミートボール50周年で感謝祭
- :id: 3403
  :src: https://funabashi.keizai.biz/mapnews/3403
  :lat: 35.710145
  :lng: 140.0512094
  :link: https://funabashi.keizai.biz/headline/3403/
  :date: 2024.08.08
  :image: https://images.keizai.biz/funabashi_keizai/headline/1723124891_photo.jpg
  :title: 習志野駐屯地「夏まつり」に5万人　自衛隊員が演出するお化け屋敷も
- :id: 3402
  :src: https://funabashi.keizai.biz/mapnews/3402
  :lat: 35.7080695
  :lng: 140.0200487
  :link: https://funabashi.keizai.biz/headline/3402/
  :date: 2024.08.07
  :image: https://images.keizai.biz/funabashi_keizai/headline/1722988276_photo.jpg
  :title: NTT東日本、船橋グラウンドで小中学生向け野球教室開講　OBらが指導
- :id: 3401
  :src: https://funabashi.keizai.biz/mapnews/3401
  :lat: 35.7440773
  :lng: 139.9980233
  :link: https://funabashi.keizai.biz/headline/3401/
  :date: 2024.08.06
  :image: https://images.keizai.biz/funabashi_keizai/headline/1722820448_photo.jpg
  :title: 馬込沢駅近くにカフェ「ヨリドコロまにまに」　不登校支援・育児相談も
- :id: 3400
  :src: https://funabashi.keizai.biz/mapnews/3400
  :lat: 35.7622669
  :lng: 140.0717966
  :link: https://funabashi.keizai.biz/headline/3400/
  :date: 2024.08.05
  :image: https://images.keizai.biz/funabashi_keizai/headline/1722820059_photo.jpg
  :title: "「船橋のなし」の出荷シーズン到来、「一番梨のお披露目会」も"
- :id: 3399
  :src: https://funabashi.keizai.biz/mapnews/3399
  :lat: 35.6860064
  :lng: 139.9944865
  :link: https://funabashi.keizai.biz/headline/3399/
  :date: 2024.08.02
  :image: https://images.keizai.biz/funabashi_keizai/headline/1722557675_photo.jpg
  :title: 船橋競馬場で「カブクワすごいぞ」　稀少なカブトムシやクワガタを展示
- :id: 3398
  :src: https://funabashi.keizai.biz/mapnews/3398
  :lat: 35.6931427
  :lng: 140.0214505
  :link: https://funabashi.keizai.biz/headline/3398/
  :date: 2024.07.31
  :image: https://images.keizai.biz/funabashi_keizai/headline/1722345412_photo.jpg
  :title: 津田沼駅近くの繁華街に「らーめん和田屋」　野球選手・野球ファン集まる
- :id: 3397
  :src: https://funabashi.keizai.biz/mapnews/3397
  :lat: 35.7251691
  :lng: 140.0457207
  :link: https://funabashi.keizai.biz/headline/3397/
  :date: 2024.07.30
  :image: https://images.keizai.biz/funabashi_keizai/headline/1722344763_photo.jpg
  :title: 北習志野の4商店会が合同で「きたならマーケット」　キッズ職業体験など
- :id: 3396
  :src: https://funabashi.keizai.biz/mapnews/3396
  :lat: 35.76247060000001
  :lng: 140.0655682
  :link: https://funabashi.keizai.biz/headline/3396/
  :date: 2024.07.25
  :image: https://images.keizai.biz/funabashi_keizai/headline/1721890272_photo.jpg
  :title: "「船橋のなし」の梨箱に千葉ジェッツのデザイン　今季初登場"
- :id: 3395
  :src: https://funabashi.keizai.biz/mapnews/3395
  :lat: 35.7163776
  :lng: 139.9630276
  :link: https://funabashi.keizai.biz/headline/3395/
  :date: 2024.07.23
  :image: https://images.keizai.biz/funabashi_keizai/headline/1721889723_photo.jpg
  :title: 西船橋に「かまくら農園」の野菜自販機　自家製アイシングクッキーも
- :id: 3394
  :src: https://funabashi.keizai.biz/mapnews/3394
  :lat: 35.7149016
  :lng: 139.9786755
  :link: https://funabashi.keizai.biz/headline/3394/
  :date: 2024.07.25
  :image: https://images.keizai.biz/funabashi_keizai/headline/1721854847_photo.jpg
  :title: 船橋に初のハワイアンカフェ「コナズ珈琲」　チェーン初となる住宅街へ出店
- :id: 3393
  :src: https://funabashi.keizai.biz/mapnews/3393
  :lat: 35.7113795
  :lng: 139.9870636
  :link: https://funabashi.keizai.biz/headline/3393/
  :date: 2024.07.19
  :image: https://images.keizai.biz/funabashi_keizai/headline/1721406180_photo.jpg
  :title: 船橋在住の落語家・春風亭橋蔵さん、夏見台小で児童向けに落語会
- :id: 3392
  :src: https://funabashi.keizai.biz/mapnews/3392
  :lat: 35.7483439
  :lng: 139.9951893
  :link: https://funabashi.keizai.biz/headline/3392/
  :date: 2024.07.19
  :image: https://images.keizai.biz/funabashi_keizai/headline/1721405985_photo.jpg
  :title: 船橋にゴルフスタジオ「ゴルフ飛ばしてなんぼ！」　ユーチューバーが開設
- :id: 3391
  :src: https://funabashi.keizai.biz/mapnews/3391
  :lat: 35.6988704
  :lng: 139.9870821
  :link: https://funabashi.keizai.biz/headline/3391/
  :date: 2024.07.20
  :image: https://images.keizai.biz/funabashi_keizai/headline/1721401856_photo.jpg
  :title: 船橋・山口横丁に居酒屋「すみか」　焼き鳥と肉刺しを主力に
- :id: 3390
  :src: https://funabashi.keizai.biz/mapnews/3390
  :lat: 35.6945485
  :lng: 139.9827277
  :link: https://funabashi.keizai.biz/headline/3390/
  :date: 2024.07.16
  :image: https://images.keizai.biz/funabashi_keizai/headline/1721132554_photo.jpg
  :title: 御滝中出身の高橋佑二郎さんがプロ棋士に　船橋市では39年ぶり2人目
- :id: 3389
  :src: https://funabashi.keizai.biz/mapnews/3389
  :lat: 35.7074478
  :lng: 140.0055559
  :link: https://funabashi.keizai.biz/headline/3389/
  :date: 2024.07.16
  :image: https://images.keizai.biz/funabashi_keizai/headline/1721051156_photo.jpg
  :title: 船橋「プラネタリウム館」リニューアル　天の川や星の瞬きも鮮明に再現
- :id: 3388
  :src: https://funabashi.keizai.biz/mapnews/3388
  :lat: 35.6960216
  :lng: 139.9832517
  :link: https://funabashi.keizai.biz/headline/3388/
  :date: 2024.07.13
  :image: https://images.keizai.biz/funabashi_keizai/headline/1720823957_photo.jpg
  :title: 渡邊雄太選手、千葉ジェッツと契約合意　日本で新たな挑戦へ
- :id: 3387
  :src: https://funabashi.keizai.biz/mapnews/3387
  :lat: 35.7508451
  :lng: 140.0360723
  :link: https://funabashi.keizai.biz/headline/3387/
  :date: 2024.07.12
  :image: https://images.keizai.biz/funabashi_keizai/headline/1720734944_photo.jpg
  :title: 三咲に直売所「やなぎさわファーム」　50年続くトマト農家が代替わりで
- :id: 3386
  :src: https://funabashi.keizai.biz/mapnews/3386
  :lat: 35.7465992
  :lng: 140.0254429
  :link: https://funabashi.keizai.biz/headline/3386/
  :date: 2024.07.11
  :image: https://images.keizai.biz/funabashi_keizai/headline/1720702022_photo.jpg
  :title: 二和東・船橋梨街道の梨園で初の「梨まつり」　3500人来場
- :id: 3385
  :src: https://funabashi.keizai.biz/mapnews/3385
  :lat: 35.697747
  :lng: 139.9855483
  :link: https://funabashi.keizai.biz/headline/3385/
  :date: 2024.07.10
  :image: https://images.keizai.biz/funabashi_keizai/headline/1720566023_photo.jpg
  :title: 船橋ゆかりの詩人と画家が描く「逆鱗～GEKIRIN～」　船橋で二人展
- :id: 3384
  :src: https://funabashi.keizai.biz/mapnews/3384
  :lat: 35.7080695
  :lng: 140.0200487
  :link: https://funabashi.keizai.biz/headline/3384/
  :date: 2024.07.06
  :image: https://images.keizai.biz/funabashi_keizai/headline/1720176201_photo.jpg
  :title: 日本生命とNTT東日本が合同野球教室　杉浦正則さんと飯塚智広さんが企画
- :id: 3383
  :src: https://funabashi.keizai.biz/mapnews/3383
  :lat: 35.6966815
  :lng: 139.9920397
  :link: https://funabashi.keizai.biz/headline/3383/
  :date: 2024.07.05
  :image: https://images.keizai.biz/funabashi_keizai/headline/1720175449_photo.jpg
  :title: 船橋大神宮近くのカフェに「ねこ雑貨 ねこちる」　「ミスチル好き」も集う
- :id: 3382
  :src: https://funabashi.keizai.biz/mapnews/3382
  :lat: 35.7316692
  :lng: 140.0279296
  :link: https://funabashi.keizai.biz/headline/3382/
  :date: 2024.07.04
  :image: https://images.keizai.biz/funabashi_keizai/headline/1720020370_photo.jpg
  :title: 船橋・南三咲の住宅街にスイーツ店「たまごの発明」　プリンを主力に
- :id: 3381
  :src: https://funabashi.keizai.biz/mapnews/3381
  :lat: 35.7086718
  :lng: 139.9591843
  :link: https://funabashi.keizai.biz/headline/3381/
  :date: 2024.07.03
  :image: https://images.keizai.biz/funabashi_keizai/headline/1719950746_photo.jpg
  :title: 西船橋で農家DJらによる「ファーマーズナイト」　地元野菜と音楽を楽しむ
- :id: 3380
  :src: https://funabashi.keizai.biz/mapnews/3380
  :lat: 35.7425671
  :lng: 139.9927331
  :link: https://funabashi.keizai.biz/headline/3380/
  :date: 2024.07.03
  :image: https://images.keizai.biz/funabashi_keizai/headline/1719950028_photo.jpg
  :title: 馬込沢におにぎりの店「旨味庵」　自家製スイーツの提供も
- :id: 3379
  :src: https://funabashi.keizai.biz/mapnews/3379
  :lat: 35.7446093
  :lng: 140.0251822
  :link: https://funabashi.keizai.biz/headline/3379/
  :date: 2024.07.02
  :image: https://images.keizai.biz/funabashi_keizai/headline/1719924698_photo.jpg
  :title: 船橋梨街道で初の「梨まつり」開催へ　4つの梨園と連携
- :id: 3378
  :src: https://funabashi.keizai.biz/mapnews/3378
  :lat: 35.70174
  :lng: 139.9831875
  :link: https://funabashi.keizai.biz/headline/3378/
  :date: 2024.07.01
  :image: https://images.keizai.biz/funabashi_keizai/headline/1719617113_photo.jpg
  :title: 船橋経済新聞・上半期ページビューランキング1位は「ふなっしー梨箱2024」
- :id: 3377
  :src: https://funabashi.keizai.biz/mapnews/3377
  :lat: 35.7263905
  :lng: 140.0386598
  :link: https://funabashi.keizai.biz/headline/3377/
  :date: 2024.06.29
  :image: https://images.keizai.biz/funabashi_keizai/headline/1719638961_photo.jpg
  :title: 北習志野の商店会で「エビスきたなら祭り」　スタンプラリーやよさこいなど
- :id: 3376
  :src: https://funabashi.keizai.biz/mapnews/3376
  :lat: 35.7818811
  :lng: 139.9752887
  :link: https://funabashi.keizai.biz/headline/3376/
  :date: 2024.06.29
  :image: https://images.keizai.biz/funabashi_keizai/headline/1719610507_photo.jpg
  :title: 新京成線、来年4月から京成電鉄「松戸線」に　車両は京成カラーへ
- :id: 3375
  :src: https://funabashi.keizai.biz/mapnews/3375
  :lat: 35.6960216
  :lng: 139.9832517
  :link: https://funabashi.keizai.biz/headline/3375/
  :date: 2024.06.27
  :image: https://images.keizai.biz/funabashi_keizai/headline/1719440584_photo.jpg
  :title: 船橋市出身Bリーガー・田代直希選手がジェッツと契約　キングスから移籍
- :id: 3374
  :src: https://funabashi.keizai.biz/mapnews/3374
  :lat: 35.7014332
  :lng: 139.9865911
  :link: https://funabashi.keizai.biz/headline/3374/
  :date: 2024.06.27
  :image: https://images.keizai.biz/funabashi_keizai/headline/1719440153_photo.jpg
  :title: 船橋東武・ギフトセンターで「千葉・船橋銘産品ギフト」　76点そろえる
- :id: 3373
  :src: https://funabashi.keizai.biz/mapnews/3373
  :lat: 35.7294507
  :lng: 139.9970233
  :link: https://funabashi.keizai.biz/headline/3373/
  :date: 2024.06.26
  :image: https://images.keizai.biz/funabashi_keizai/headline/1719404871_photo.jpg
  :title: 市船商業科がプロデュース　社会人野球チーム「千葉スカイセイラーズ」戦
- :id: 3372
  :src: https://funabashi.keizai.biz/mapnews/3372
  :lat: 35.7116203
  :lng: 140.0496286
  :link: https://funabashi.keizai.biz/headline/3372/
  :date: 2024.06.25
  :image: https://images.keizai.biz/funabashi_keizai/headline/1719324140_photo.jpg
  :title: 船橋・郷土資料館で旧吉澤野球博物館収蔵美術品展　北大路魯山人の作品など
- :id: 3371
  :src: https://funabashi.keizai.biz/mapnews/3371
  :lat: 35.7114559
  :lng: 139.978715
  :link: https://funabashi.keizai.biz/headline/3371/
  :date: 2024.06.24
  :image: https://images.keizai.biz/funabashi_keizai/headline/1719205992_photo.jpg
  :title: イオンモール船橋で「もぐもぐマルシェ」　地元パン店など16店出店
- :id: 3370
  :src: https://funabashi.keizai.biz/mapnews/3370
  :lat: 35.6817357
  :lng: 139.9921427
  :link: https://funabashi.keizai.biz/headline/3370/
  :date: 2024.06.24
  :image: https://images.keizai.biz/funabashi_keizai/headline/1719205480_photo.jpg
  :title: IKEA Tokyo-Bayで「ファーマーズマーケット」　 農家が主催
- :id: 3369
  :src: https://funabashi.keizai.biz/mapnews/3369
  :lat: 35.7428766
  :lng: 139.995821
  :link: https://funabashi.keizai.biz/headline/3369/
  :date: 2024.06.22
  :image: https://images.keizai.biz/funabashi_keizai/headline/1719008182_photo.jpg
  :title: 馬込沢・ニコニコ横丁にカフェ新店　ミックスジュースなど提供
- :id: 3368
  :src: https://funabashi.keizai.biz/mapnews/3368
  :lat: 35.7017724
  :lng: 140.002655
  :link: https://funabashi.keizai.biz/headline/3368/
  :date: 2024.06.20
  :image: https://images.keizai.biz/funabashi_keizai/headline/1718712729_photo.jpg
  :title: 東船橋駅北口にオーガニックストア　塗装店が事務所兼ね開設
- :id: 3367
  :src: https://funabashi.keizai.biz/mapnews/3367
  :lat: 35.7239852
  :lng: 140.0490308
  :link: https://funabashi.keizai.biz/headline/3367/
  :date: 2024.06.19
  :image: https://images.keizai.biz/funabashi_keizai/headline/1718711891_photo.jpg
  :title: 保護猫活動団体がクラファン　池崎さん命名「シン・猫の森プロジェクト」
- :id: 3366
  :src: https://funabashi.keizai.biz/mapnews/3366
  :lat: 35.7306319
  :lng: 140.0298418
  :link: https://funabashi.keizai.biz/headline/3366/
  :date: 2024.06.18
  :image: https://images.keizai.biz/funabashi_keizai/headline/1718708065_photo.jpg
  :title: 高根公団「洋食堂バル369」が1周年　元バーテンダーこだわりの酒も
- :id: 3365
  :src: https://funabashi.keizai.biz/mapnews/3365
  :lat: 35.6985267
  :lng: 139.9872386
  :link: https://funabashi.keizai.biz/headline/3365/
  :date: 2024.06.17
  :image: https://images.keizai.biz/funabashi_keizai/headline/1718598187_photo.jpg
  :title: 船橋のアーティストコラボで元中学校教諭がCD制作　リリース記念ライブも
- :id: 3364
  :src: https://funabashi.keizai.biz/mapnews/3364
  :lat: 35.69895169999999
  :lng: 139.9864508
  :link: https://funabashi.keizai.biz/headline/3364/
  :date: 2024.06.16
  :image: https://images.keizai.biz/funabashi_keizai/headline/1718393842_photo.jpg
  :title: 京成船橋駅近くの大通りに「クオカフェプラス」　塚田から移転リニューアル
- :id: 3363
  :src: https://funabashi.keizai.biz/mapnews/3363
  :lat: 35.7398205
  :lng: 140.0191463
  :link: https://funabashi.keizai.biz/headline/3363/
  :date: 2024.06.15
  :image: https://images.keizai.biz/funabashi_keizai/headline/1718393173_photo.jpg
  :title: 御滝不動尊で「蛍の夕べ」　ホタルの自生目指しボランティアが環境保全
- :id: 3362
  :src: https://funabashi.keizai.biz/mapnews/3362
  :lat: 35.711028
  :lng: 139.9956703
  :link: https://funabashi.keizai.biz/headline/3362/
  :date: 2024.06.13
  :image: https://images.keizai.biz/funabashi_keizai/headline/1718201730_photo.jpg
  :title: 船橋市運動公園「ホタルの里」で観賞会　船橋の中心地でホタル舞う
- :id: 3361
  :src: https://funabashi.keizai.biz/mapnews/3361
  :lat: 35.7014332
  :lng: 139.9865911
  :link: https://funabashi.keizai.biz/headline/3361/
  :date: 2024.06.12
  :image: https://images.keizai.biz/funabashi_keizai/headline/1718196580_photo.jpg
  :title: 船橋東武で「ふなっしーコラボFOODS」　地上降臨12周年コラボ商品も
- :id: 3360
  :src: https://funabashi.keizai.biz/mapnews/3360
  :lat: 35.70174
  :lng: 139.9831875
  :link: https://funabashi.keizai.biz/headline/3360/
  :date: 2024.06.12
  :image: https://images.keizai.biz/funabashi_keizai/headline/1718137669_photo.jpg
  :title: 船橋「ふなっしー梨箱2024」デザイン決定　予約受付開始
- :id: 3359
  :src: https://funabashi.keizai.biz/mapnews/3359
  :lat: 35.715733
  :lng: 140.0547318
  :link: https://funabashi.keizai.biz/headline/3359/
  :date: 2024.06.11
  :image: https://images.keizai.biz/funabashi_keizai/headline/1718057605_photo.jpg
  :title: 習志野台の洋菓子店「シャルメ」が2周年　「ラ・パージュ」元スタッフが開業
- :id: 3358
  :src: https://funabashi.keizai.biz/mapnews/3358
  :lat: 35.76270179999999
  :lng: 139.9975144
  :link: https://funabashi.keizai.biz/headline/3358/
  :date: 2024.06.11
  :image: https://images.keizai.biz/funabashi_keizai/headline/1718038540_photo.jpg
  :title: 鎌ケ谷で初の「下町音楽祭」　地元出身ダンサーの応援きっかけに地域が結束
- :id: 3357
  :src: https://funabashi.keizai.biz/mapnews/3357
  :lat: 35.7062683
  :lng: 139.995991
  :link: https://funabashi.keizai.biz/headline/3357/
  :date: 2024.06.09
  :image: https://images.keizai.biz/funabashi_keizai/headline/1717889467_photo.jpg
  :title: "「海老川親水市民まつり」でカヌー乗船やドジョウすくいなど"
- :id: 3356
  :src: https://funabashi.keizai.biz/mapnews/3356
  :lat: 35.7430533
  :lng: 139.9953458
  :link: https://funabashi.keizai.biz/headline/3356/
  :date: 2024.06.10
  :image: https://images.keizai.biz/funabashi_keizai/headline/1717881308_photo.jpg
  :title: 馬込沢に鉄板焼き専門店「てっぱんおが和」　叔父の思いを継ぎ開く
- :id: 3355
  :src: https://funabashi.keizai.biz/mapnews/3355
  :lat: 35.6967943
  :lng: 139.986075
  :link: https://funabashi.keizai.biz/headline/3355/
  :date: 2024.06.08
  :image: https://images.keizai.biz/funabashi_keizai/headline/1717802754_photo.jpg
  :title: チェロ奏者の植草ひろみさん、地元船橋の浄勝寺でコンサート
- :id: 3354
  :src: https://funabashi.keizai.biz/mapnews/3354
  :lat: 35.7536487
  :lng: 140.0293936
  :link: https://funabashi.keizai.biz/headline/3354/
  :date: 2024.06.05
  :image: https://images.keizai.biz/funabashi_keizai/headline/1717598854_photo.jpg
  :title: 船橋第一自動車教習所で60周年記念祭「ふないちフェスタ」
- :id: 3353
  :src: https://funabashi.keizai.biz/mapnews/3353
  :lat: 35.6977319
  :lng: 139.9849216
  :link: https://funabashi.keizai.biz/headline/3353/
  :date: 2024.06.05
  :image: https://images.keizai.biz/funabashi_keizai/headline/1717519947_photo.jpg
  :title: 船橋市交響吹奏楽団の演奏会で詐欺に注意促す演目　二宮中の生徒が考案
- :id: 3352
  :src: https://funabashi.keizai.biz/mapnews/3352
  :lat: 35.7192203
  :lng: 140.044405
  :link: https://funabashi.keizai.biz/headline/3352/
  :date: 2024.06.04
  :image: https://images.keizai.biz/funabashi_keizai/headline/1717493375_photo.jpg
  :title: 船橋市内の障がい者福祉施設、ニホンミツバチの蜂蜜販売
- :id: 3351
  :src: https://funabashi.keizai.biz/mapnews/3351
  :lat: 35.7269042
  :lng: 140.0319933
  :link: https://funabashi.keizai.biz/headline/3351/
  :date: 2024.06.01
  :image: https://images.keizai.biz/funabashi_keizai/headline/1717197148_photo.jpg
  :title: 船橋・高根木戸駅近くにパン店「ノンニーノ」　祖父の思いと表具店受け継ぐ
- :id: 3350
  :src: https://funabashi.keizai.biz/mapnews/3350
  :lat: 35.710145
  :lng: 140.0512094
  :link: https://funabashi.keizai.biz/headline/3350/
  :date: 2024.05.31
  :image: https://images.keizai.biz/funabashi_keizai/headline/1717107896_photo.jpg
  :title: 船橋・陸上自衛隊第1空挺団バスケ部・柔道部が全国大会優勝
- :id: 3349
  :src: https://funabashi.keizai.biz/mapnews/3349
  :lat: 35.6929829
  :lng: 139.9863815
  :link: https://funabashi.keizai.biz/headline/3349/
  :date: 2024.05.30
  :image: https://images.keizai.biz/funabashi_keizai/headline/1717061850_photo.jpg
  :title: 湊町小「全校潮干狩り」、5年ぶりに復活　地域の海に親しむ伝統行事
- :id: 3348
  :src: https://funabashi.keizai.biz/mapnews/3348
  :lat: 35.6836436
  :lng: 139.9895026
  :link: https://funabashi.keizai.biz/headline/3348/
  :date: 2024.05.30
  :image: https://images.keizai.biz/funabashi_keizai/headline/1717048290_photo.jpg
  :title: 南船橋「ららアリーナ」お披露目イベントに千葉ジェッツ・富樫選手ら
- :id: 3347
  :src: https://funabashi.keizai.biz/mapnews/3347
  :lat: 35.7215876
  :lng: 140.0482885
  :link: https://funabashi.keizai.biz/headline/3347/
  :date: 2024.05.28
  :image: https://images.keizai.biz/funabashi_keizai/headline/1716900059_photo.jpg
  :title: 船橋・北習志野エビス通り商店会が「エビスきたなら商店会」に
- :id: 3346
  :src: https://funabashi.keizai.biz/mapnews/3346
  :lat: 35.7014332
  :lng: 139.9865911
  :link: https://funabashi.keizai.biz/headline/3346/
  :date: 2024.05.28
  :image: https://images.keizai.biz/funabashi_keizai/headline/1716817900_photo.jpg
  :title: "「パスタdeスマイル」　シャポー船橋から船橋東武に移転して1年"
- :id: 3345
  :src: https://funabashi.keizai.biz/mapnews/3345
  :lat: 35.7318891
  :lng: 140.010444
  :link: https://funabashi.keizai.biz/headline/3345/
  :date: 2024.05.27
  :image: https://images.keizai.biz/funabashi_keizai/headline/1716766567_photo.jpg
  :title: 船橋・金杉にすし店「鮨 輝」　地元樹脂メーカーが新業態、一品料理も
- :id: 3344
  :src: https://funabashi.keizai.biz/mapnews/3344
  :lat: 35.6988596
  :lng: 139.9838255
  :link: https://funabashi.keizai.biz/headline/3344/
  :date: 2024.05.24
  :image: https://images.keizai.biz/funabashi_keizai/headline/1716506336_photo.jpg
  :title: 船橋・老舗割烹「稲荷屋」で落語会　イラストレーター・小倉正巳さん主催
- :id: 3343
  :src: https://funabashi.keizai.biz/mapnews/3343
  :lat: 35.7839488
  :lng: 139.9738665
  :link: https://funabashi.keizai.biz/headline/3343/
  :date: 2024.05.22
  :image: https://images.keizai.biz/funabashi_keizai/headline/1716333828_photo.jpg
  :title: 新京成電鉄、ダイヤ改正　60回の「ダイヤヒストリー記念乗車券」も
- :id: 3342
  :src: https://funabashi.keizai.biz/mapnews/3342
  :lat: 35.7294115
  :lng: 140.0518966
  :link: https://funabashi.keizai.biz/headline/3342/
  :date: 2024.05.08
  :image: https://images.keizai.biz/funabashi_keizai/headline/1715154428_photo.jpg
  :title: 船橋アリーナで「こどもフェスタ」　消防車のミニカー運転やエコ体験も
- :id: 3341
  :src: https://funabashi.keizai.biz/mapnews/3341
  :lat: 35.7313454
  :lng: 139.9699588
  :link: https://funabashi.keizai.biz/headline/3341/
  :date: 2024.05.08
  :image: https://images.keizai.biz/funabashi_keizai/headline/1715139659_photo.jpg
  :title: 船橋法典駅近くに手作りギョーザ専門店「三葉茶軒」　仙台から移転
- :id: 3340
  :src: https://funabashi.keizai.biz/mapnews/3340
  :lat: 35.6860305
  :lng: 139.9944636
  :link: https://funabashi.keizai.biz/headline/3340/
  :date: 2024.05.07
  :image: https://images.keizai.biz/funabashi_keizai/headline/1715032664_photo.jpg
  :title: 船橋競馬場、2025年春に向け大規模リニューアル　新スタンドお披露目
- :id: 3339
  :src: https://funabashi.keizai.biz/mapnews/3339
  :lat: 35.7039488
  :lng: 139.9947333
  :link: https://funabashi.keizai.biz/headline/3339/
  :date: 2024.05.05
  :image: https://images.keizai.biz/funabashi_keizai/headline/1714863148_photo.jpg
  :title: 船橋にんじん「ベーターキャロット」初出荷　船橋市場でお披露目
- :id: 3338
  :src: https://funabashi.keizai.biz/mapnews/3338
  :lat: 35.7228212
  :lng: 140.0452393
  :link: https://funabashi.keizai.biz/headline/3338/
  :date: 2024.05.02
  :image: https://images.keizai.biz/funabashi_keizai/headline/1714601565_photo.jpg
  :title: 北習志野で5年ぶりの「花まつり」　80人の稚児行列が商店街を彩る
- :id: 3337
  :src: https://funabashi.keizai.biz/mapnews/3337
  :lat: 35.781887
  :lng: 139.9752691
  :link: https://funabashi.keizai.biz/headline/3337/
  :date: 2024.04.29
  :image: https://images.keizai.biz/funabashi_keizai/headline/1714381023_photo.jpg
  :title: 船橋など「新京成ラーメン得々スタンプラリー」　沿線ラーメン店9店舗が参加
- :id: 3336
  :src: https://funabashi.keizai.biz/mapnews/3336
  :lat: 35.7293471
  :lng: 140.0293435
  :link: https://funabashi.keizai.biz/headline/3336/
  :date: 2024.04.23
  :image: https://images.keizai.biz/funabashi_keizai/headline/1713761652_photo.jpg
  :title: 船橋・高根公団に弁当と総菜の店「鈴木屋」　親子で開業
- :id: 3335
  :src: https://funabashi.keizai.biz/mapnews/3335
  :lat: 35.6954325
  :lng: 139.9839959
  :link: https://funabashi.keizai.biz/headline/3335/
  :date: 2024.04.22
  :image: https://images.keizai.biz/funabashi_keizai/headline/1713754757_photo.jpg
  :title: 船橋市役所近くにベトナム人夫婦が経営する「ボーちゃんカフェ」
- :id: 3334
  :src: https://funabashi.keizai.biz/mapnews/3334
  :lat: 35.7476573
  :lng: 140.0443724
  :link: https://funabashi.keizai.biz/headline/3334/
  :date: 2024.04.19
  :image: https://images.keizai.biz/funabashi_keizai/headline/1713475890_photo.jpg
  :title: 船橋・大穴北に「キッチンなづな」　40年超営業した「いしかわ」を改装
- :id: 3333
  :src: https://funabashi.keizai.biz/mapnews/3333
  :lat: 35.7294115
  :lng: 140.0518966
  :link: https://funabashi.keizai.biz/headline/3333/
  :date: 2024.04.19
  :image: https://images.keizai.biz/funabashi_keizai/headline/1713475404_photo.jpg
  :title: 千葉ジェッツ「ありがとう船アリ」　最後の「船橋アリーナ」ホームゲーム
- :id: 3332
  :src: https://funabashi.keizai.biz/mapnews/3332
  :lat: 35.7398205
  :lng: 140.0191463
  :link: https://funabashi.keizai.biz/headline/3332/
  :date: 2024.04.18
  :image: https://images.keizai.biz/funabashi_keizai/headline/1713382556_photo.jpg
  :title: 桜満開の御滝不動尊で「高野太鼓と御滝ソーラン祭り」
- :id: 3331
  :src: https://funabashi.keizai.biz/mapnews/3331
  :lat: 35.6817357
  :lng: 139.9921427
  :link: https://funabashi.keizai.biz/headline/3331/
  :date: 2024.04.17
  :image: https://images.keizai.biz/funabashi_keizai/headline/1713359374_photo.jpg
  :title: 船橋の「IKEA Tokyo-Bay」、ゴールデンウイーク・イベント開催へ
- :id: 3330
  :src: https://funabashi.keizai.biz/mapnews/3330
  :lat: 35.6836436
  :lng: 139.9895026
  :link: https://funabashi.keizai.biz/headline/3330/
  :date: 2024.04.17
  :image: https://images.keizai.biz/funabashi_keizai/headline/1713285259_photo.jpg
  :title: 南船橋のアリーナ「LaLa arena TOKYO-BAY」　間もなく完成
- :id: 3329
  :src: https://funabashi.keizai.biz/mapnews/3329
  :lat: 35.7875358
  :lng: 140.0751768
  :link: https://funabashi.keizai.biz/headline/3329/
  :date: 2024.04.15
  :image: https://images.keizai.biz/funabashi_keizai/headline/1713180478_photo.jpg
  :title: 船橋・小室駅前に喫茶店「小室の茶屋」　半導体商社が倉庫敷地内に憩いの場
- :id: 3328
  :src: https://funabashi.keizai.biz/mapnews/3328
  :lat: 35.7331785
  :lng: 140.0131316
  :link: https://funabashi.keizai.biz/headline/3328/
  :date: 2024.04.13
  :image: https://images.keizai.biz/funabashi_keizai/headline/1712997854_photo.jpg
  :title: 船橋・馬込町で「ネギの引っこ抜き詰め放題」　インスタ告知に60組集まる
- :id: 3327
  :src: https://funabashi.keizai.biz/mapnews/3327
  :lat: 35.697151
  :lng: 140.0553606
  :link: https://funabashi.keizai.biz/headline/3327/
  :date: 2024.04.11
  :image: https://images.keizai.biz/funabashi_keizai/headline/1712820279_photo.jpg
  :title: 船橋・三山の「7丁目イタリア食堂 Makita」が3周年
- :id: 3326
  :src: https://funabashi.keizai.biz/mapnews/3326
  :lat: 35.7589066
  :lng: 140.0581395
  :link: https://funabashi.keizai.biz/headline/3326/
  :date: 2024.04.09
  :image: https://images.keizai.biz/funabashi_keizai/headline/1712627642_photo.jpg
  :title: ふなばしアンデルセン公園の風車、5年半ぶりに運転再開
- :id: 3325
  :src: https://funabashi.keizai.biz/mapnews/3325
  :lat: 35.7018137
  :lng: 139.9991581
  :link: https://funabashi.keizai.biz/headline/3325/
  :date: 2024.04.05
  :image: https://images.keizai.biz/funabashi_keizai/headline/1712280879_photo.jpg
  :title: 市船で「船橋招待U-18サッカー大会」　サッカー強豪チーム集う
- :id: 3324
  :src: https://funabashi.keizai.biz/mapnews/3324
  :lat: 35.7282119
  :lng: 140.0329535
  :link: https://funabashi.keizai.biz/headline/3324/
  :date: 2024.04.01
  :image: https://images.keizai.biz/funabashi_keizai/headline/1711967638_photo.jpg
  :title: "「ふなばし制服バンク」　市内公立高校5校の制服取扱開始から1年"
- :id: 3323
  :src: https://funabashi.keizai.biz/mapnews/3323
  :lat: 35.6873205
  :lng: 139.9877936
  :link: https://funabashi.keizai.biz/headline/3323/
  :date: 2024.03.31
  :image: https://images.keizai.biz/funabashi_keizai/headline/1711879207_photo.jpg
  :title: 船橋出身の若手俳優・綱啓永さん、ららぽーとで初の舞台あいさつ
- :id: 3322
  :src: https://funabashi.keizai.biz/mapnews/3322
  :lat: 35.7149889
  :lng: 139.9496671
  :link: https://funabashi.keizai.biz/headline/3322/
  :date: 2024.03.29
  :image: https://images.keizai.biz/funabashi_keizai/headline/1711666191_photo.jpg
  :title: 小栗原稲荷神社と子之神社で初の「おぐり朝市」
- :id: 3321
  :src: https://funabashi.keizai.biz/mapnews/3321
  :lat: 35.7204587
  :lng: 139.9838656
  :link: https://funabashi.keizai.biz/headline/3321/
  :date: 2024.03.27
  :image: https://images.keizai.biz/funabashi_keizai/headline/1711546337_photo.jpg
  :title: 塚田に民泊「白いおうち2」　オープンから3カ月、バリアフリー対応も
- :id: 3320
  :src: https://funabashi.keizai.biz/mapnews/3320
  :lat: 35.7116197
  :lng: 139.9552753
  :link: https://funabashi.keizai.biz/headline/3320/
  :date: 2024.03.23
  :image: https://images.keizai.biz/funabashi_keizai/headline/1711120749_photo.jpg
  :title: 船橋・山口病院と共立習志野台病院が連携協定　災害時等の妊産婦支援目的に
- :id: 3319
  :src: https://funabashi.keizai.biz/mapnews/3319
  :lat: 35.715553
  :lng: 139.9472182
  :link: https://funabashi.keizai.biz/headline/3319/
  :date: 2024.03.14
  :image: https://images.keizai.biz/funabashi_keizai/headline/1710366786_photo.jpg
  :title: こども食堂「中山ごはん」が炊き出し訓練　非常食の試食など通じて防災学ぶ
- :id: 3318
  :src: https://funabashi.keizai.biz/mapnews/3318
  :lat: 35.7114559
  :lng: 139.978715
  :link: https://funabashi.keizai.biz/headline/3318/
  :date: 2024.03.11
  :image: https://images.keizai.biz/funabashi_keizai/headline/1710069234_photo.jpg
  :title: イオンモール船橋で初の神楽公演　日本の伝統にちなんだマルシェも同時開催
- :id: 3317
  :src: https://funabashi.keizai.biz/mapnews/3317
  :lat: 35.7023561
  :lng: 140.0334254
  :link: https://funabashi.keizai.biz/headline/3317/
  :date: 2024.03.09
  :image: https://images.keizai.biz/funabashi_keizai/headline/1709911718_photo.jpg
  :title: 前原・御嶽神社内にフォトスタジオ　一般撮影不可の祈とう中の様子も撮影
- :id: 3316
  :src: https://funabashi.keizai.biz/mapnews/3316
  :lat: 35.701023
  :lng: 139.9872875
  :link: https://funabashi.keizai.biz/headline/3316/
  :date: 2024.03.07
  :image: https://images.keizai.biz/funabashi_keizai/headline/1709753400_photo.jpg
  :title: 船橋駅近くにアボカド料理専門店「トディーズ」　要望に応え業態復活
- :id: 3315
  :src: https://funabashi.keizai.biz/mapnews/3315
  :lat: 35.6843262
  :lng: 139.9892566
  :link: https://funabashi.keizai.biz/headline/3315/
  :date: 2024.03.07
  :image: https://images.keizai.biz/funabashi_keizai/headline/1709752468_photo.jpg
  :title: 船橋港親水公園で「フナテラス・ザ・ミュージック」開催へ　和太鼓演奏など
- :id: 3314
  :src: https://funabashi.keizai.biz/mapnews/3314
  :lat: 35.7206518
  :lng: 139.9473838
  :link: https://funabashi.keizai.biz/headline/3314/
  :date: 2024.02.22
  :image: https://images.keizai.biz/funabashi_keizai/headline/1708528849_photo.jpg
  :title: 法華経寺周辺で「中山のおひなまつり」　70カ所超にひな人形やつるしびな
- :id: 3313
  :src: https://funabashi.keizai.biz/mapnews/3313
  :lat: 35.7030875
  :lng: 140.032051
  :link: https://funabashi.keizai.biz/headline/3313/
  :date: 2024.02.21
  :image: https://images.keizai.biz/funabashi_keizai/headline/1708442928_photo.jpg
  :title: ピアニスト・関野直樹さん、母校・二宮小学校で演奏披露
- :id: 3312
  :src: https://funabashi.keizai.biz/mapnews/3312
  :lat: 35.6980012
  :lng: 139.9872173
  :link: https://funabashi.keizai.biz/headline/3312/
  :date: 2024.02.15
  :image: https://images.keizai.biz/funabashi_keizai/headline/1707961494_photo.jpg
  :title: 船橋市中央図書館、7カ月間の空調改修工事終え通常開館
- :id: 3311
  :src: https://funabashi.keizai.biz/mapnews/3311
  :lat: 35.7224324
  :lng: 139.9828836
  :link: https://funabashi.keizai.biz/headline/3311/
  :date: 2024.02.14
  :image: https://images.keizai.biz/funabashi_keizai/headline/1707917270_photo.jpg
  :title: 船橋・塚田駅近くにパン専門店「ベーカリーニノパン」　ボナペティ跡に出店
- :id: 3310
  :src: https://funabashi.keizai.biz/mapnews/3310
  :lat: 35.7093213
  :lng: 140.0366939
  :link: https://funabashi.keizai.biz/headline/3310/
  :date: 2024.02.09
  :image: https://images.keizai.biz/funabashi_keizai/headline/1707428808_photo.jpg
  :title: 船橋の障がい福祉事業者がカフェ新設　新しい形の就労移行支援目指す
- :id: 3309
  :src: https://funabashi.keizai.biz/mapnews/3309
  :lat: 35.7040486
  :lng: 139.9851896
  :link: https://funabashi.keizai.biz/headline/3309/
  :date: 2024.02.07
  :image: https://images.keizai.biz/funabashi_keizai/headline/1707301481_photo.jpg
  :title: 船橋商工会議所青年部と千葉商科大、規格外農産物を使ったケーキを商品化
- :id: 3308
  :src: https://funabashi.keizai.biz/mapnews/3308
  :lat: 35.6962214
  :lng: 139.9929871
  :link: https://funabashi.keizai.biz/headline/3308/
  :date: 2024.02.07
  :image: https://images.keizai.biz/funabashi_keizai/headline/1707300767_photo.jpg
  :title: 船橋大神宮で恒例の「節分祭」　4年ぶりの豆まきには大勢の参拝客
- :id: 3307
  :src: https://funabashi.keizai.biz/mapnews/3307
  :lat: 35.6873205
  :lng: 139.9877936
  :link: https://funabashi.keizai.biz/headline/3307/
  :date: 2024.02.05
  :image: https://images.keizai.biz/funabashi_keizai/headline/1707132429_photo.jpg
  :title: 船橋・浜町公民館でごみ拾いと地域猫の活動ボランティアを体験
- :id: 3306
  :src: https://funabashi.keizai.biz/mapnews/3306
  :lat: 35.7096994
  :lng: 139.9706607
  :link: https://funabashi.keizai.biz/headline/3306/
  :date: 2024.02.02
  :image: https://images.keizai.biz/funabashi_keizai/headline/1706838197_photo.jpg
  :title: 船橋・海神で公園のかまどベンチを使った炊き出し訓練
- :id: 3305
  :src: https://funabashi.keizai.biz/mapnews/3305
  :lat: 35.6947103
  :lng: 139.9825097
  :link: https://funabashi.keizai.biz/headline/3305/
  :date: 2024.02.01
  :image: https://images.keizai.biz/funabashi_keizai/headline/1706748073_photo.jpg
  :title: 船橋中出身の戸邉悠真さんがテニスのダブルスで全国優勝　活躍を市長に報告
- :id: 3304
  :src: https://funabashi.keizai.biz/mapnews/3304
  :lat: 35.6948916
  :lng: 139.9832375
  :link: https://funabashi.keizai.biz/headline/3304/
  :date: 2024.01.31
  :image: https://images.keizai.biz/funabashi_keizai/headline/1706705255_photo.jpg
  :title: 船橋市役所そばにグランドピアノが弾ける無人ピアノスタジオ
- :id: 3303
  :src: https://funabashi.keizai.biz/mapnews/3303
  :lat: 35.6815011
  :lng: 139.9952055
  :link: https://funabashi.keizai.biz/headline/3303/
  :date: 2024.01.30
  :image: https://images.keizai.biz/funabashi_keizai/headline/1706598266_photo.jpg
  :title: "「行くぞ！ふなばし朝市　駅スタンプラリー」　船橋大神宮の朝市とコラボも"
- :id: 3302
  :src: https://funabashi.keizai.biz/mapnews/3302
  :lat: 35.7137219
  :lng: 139.9957806
  :link: https://funabashi.keizai.biz/headline/3302/
  :date: 2024.01.25
  :image: https://images.keizai.biz/funabashi_keizai/headline/1706172364_photo.jpg
  :title: 運動公園で「市立船橋スポーツフェスティバル」　子どもたち650人超参加
- :id: 3301
  :src: https://funabashi.keizai.biz/mapnews/3301
  :lat: 35.7101319
  :lng: 140.0512176
  :link: https://funabashi.keizai.biz/headline/3301/
  :date: 2024.01.15
  :image: https://images.keizai.biz/funabashi_keizai/headline/1705248779_photo.jpg
  :title: 習志野駐屯地で陸自第1空挺団「降下訓練始め」　米英など7カ国も参加
- :id: 3300
  :src: https://funabashi.keizai.biz/mapnews/3300
  :lat: 35.717814
  :lng: 140.0532941
  :link: https://funabashi.keizai.biz/headline/3300/
  :date: 2023.12.30
  :image: https://images.keizai.biz/funabashi_keizai/headline/1703947932_photo.jpg
  :title: 船橋・習志野台に動物と触れ合えるカフェ　は虫類やマイクロブタも
- :id: 3299
  :src: https://funabashi.keizai.biz/mapnews/3299
  :lat: 35.7428944
  :lng: 139.9958073
  :link: https://funabashi.keizai.biz/headline/3299/
  :date: 2023.12.28
  :image: https://images.keizai.biz/funabashi_keizai/headline/1703704666_photo.jpg
  :title: 船橋・馬込沢にベーグル専門店　自家製あん入りベーグルも
- :id: 3298
  :src: https://funabashi.keizai.biz/mapnews/3298
  :lat: 35.6944565
  :lng: 139.9818135
  :link: https://funabashi.keizai.biz/headline/3298/
  :date: 2023.12.26
  :image: https://images.keizai.biz/funabashi_keizai/headline/1703554843_photo.jpg
  :title: 橋本選手、萱選手など船橋ゆかりの体操選手5人と市船生が市役所訪問
- :id: 3297
  :src: https://funabashi.keizai.biz/mapnews/3297
  :lat: 35.7463649
  :lng: 139.9941089
  :link: https://funabashi.keizai.biz/headline/3297/
  :date: 2023.12.25
  :image: https://images.keizai.biz/funabashi_keizai/headline/1703514735_photo.jpg
  :title: ふなっしーが地域の子育て施設を回る「ふなサンタ」が10回目
- :id: 3296
  :src: https://funabashi.keizai.biz/mapnews/3296
  :lat: 35.6966818
  :lng: 139.9833646
  :link: https://funabashi.keizai.biz/headline/3296/
  :date: 2023.12.23
  :image: https://images.keizai.biz/funabashi_keizai/headline/1703253580_photo.jpg
  :title: 船橋・石井食品本社で「琥珀のラオス展」　女性の自立を支援する団体が企画
- :id: 3295
  :src: https://funabashi.keizai.biz/mapnews/3295
  :lat: 35.7251691
  :lng: 140.0457207
  :link: https://funabashi.keizai.biz/headline/3295/
  :date: 2023.12.22
  :image: https://images.keizai.biz/funabashi_keizai/headline/1703252808_photo.jpg
  :title: 千葉工大生、船橋・北習志野の4商店会に「きたならシール」など活性化案
- :id: 3294
  :src: https://funabashi.keizai.biz/mapnews/3294
  :lat: 35.70311700000001
  :lng: 140.0017399
  :link: https://funabashi.keizai.biz/headline/3294/
  :date: 2023.12.21
  :image: https://images.keizai.biz/funabashi_keizai/headline/1703152064_photo.jpg
  :title: "「はるちゃん」こと倉持春希さんが一日警察署長に　船橋駅北口で「出発！」"
- :id: 3293
  :src: https://funabashi.keizai.biz/mapnews/3293
  :lat: 35.697747
  :lng: 139.9855483
  :link: https://funabashi.keizai.biz/headline/3293/
  :date: 2023.12.19
  :image: https://images.keizai.biz/funabashi_keizai/headline/1702974996_photo.jpg
  :title: 船橋でドキュメンタリー写真家・北井一夫さん写真展「フナバシストーリー」
- :id: 3292
  :src: https://funabashi.keizai.biz/mapnews/3292
  :lat: 35.70174
  :lng: 139.9831875
  :link: https://funabashi.keizai.biz/headline/3292/
  :date: 2023.12.15
  :image: https://images.keizai.biz/funabashi_keizai/headline/1702592661_photo.jpg
  :title: 船橋経済新聞・年間PVランキング　首位は石田純一さんの焼き肉店
- :id: 3291
  :src: https://funabashi.keizai.biz/mapnews/3291
  :lat: 35.717969
  :lng: 140.0531637
  :link: https://funabashi.keizai.biz/headline/3291/
  :date: 2023.12.16
  :image: https://images.keizai.biz/funabashi_keizai/headline/1702560195_photo.jpg
  :title: 船橋・習志野台に無人スイーツ販売店　SNSで話題の商品を24時間販売
- :id: 3290
  :src: https://funabashi.keizai.biz/mapnews/3290
  :lat: 35.7044515
  :lng: 139.9844295
  :link: https://funabashi.keizai.biz/headline/3290/
  :date: 2023.12.14
  :image: https://images.keizai.biz/funabashi_keizai/headline/1702559346_photo.jpg
  :title: 船橋情報ビジネス専門学校生が市民向けパソコン＆スマホ講座
- :id: 3289
  :src: https://funabashi.keizai.biz/mapnews/3289
  :lat: 35.6967943
  :lng: 139.986075
  :link: https://funabashi.keizai.biz/headline/3289/
  :date: 2023.12.13
  :image: https://images.keizai.biz/funabashi_keizai/headline/1702479004_photo.jpg
  :title: 船橋仏教会、85周年記念で大法要　ピアノ・マリンバの演奏で歌の奉納も
- :id: 3288
  :src: https://funabashi.keizai.biz/mapnews/3288
  :lat: 35.6996845
  :lng: 139.9575989
  :link: https://funabashi.keizai.biz/headline/3288/
  :date: 2023.12.11
  :image: https://images.keizai.biz/funabashi_keizai/headline/1702255816_photo.jpg
  :title: 東京経営短期大、地域に向けた子育て支援イベント　こども教育学科が企画
- :id: 3287
  :src: https://funabashi.keizai.biz/mapnews/3287
  :lat: 35.7294507
  :lng: 139.9970233
  :link: https://funabashi.keizai.biz/headline/3287/
  :date: 2023.12.09
  :image: https://images.keizai.biz/funabashi_keizai/headline/1702090469_photo.jpg
  :title: 船橋市運動公園で「ニッセイ軟式野球教室」 日本生命野球部が指導
- :id: 3286
  :src: https://funabashi.keizai.biz/mapnews/3286
  :lat: 35.6945485
  :lng: 139.9827277
  :link: https://funabashi.keizai.biz/headline/3286/
  :date: 2023.12.08
  :image: https://images.keizai.biz/funabashi_keizai/headline/1701974014_photo.jpg
  :title: 船橋・古和釜地区で「木曽馬」試乗会　元競馬関係者がホースセラピー目指す
- :id: 3285
  :src: https://funabashi.keizai.biz/mapnews/3285
  :lat: 35.7504108
  :lng: 140.0328633
  :link: https://funabashi.keizai.biz/headline/3285/
  :date: 2023.12.07
  :image: https://images.keizai.biz/funabashi_keizai/headline/1701916148_photo.jpg
  :title: 船橋北部・三咲本通りに中国料理店「ガチ麻婆」　独自仕入れの豆板醤使う
- :id: 3284
  :src: https://funabashi.keizai.biz/mapnews/3284
  :lat: 35.7203382
  :lng: 140.0421438
  :link: https://funabashi.keizai.biz/headline/3284/
  :date: 2023.12.03
  :image: https://images.keizai.biz/funabashi_keizai/headline/1701598744_photo.jpg
  :title: 北習志野駅近くにプロが指導する音楽教室アカデミー
- :id: 3283
  :src: https://funabashi.keizai.biz/mapnews/3283
  :lat: 35.7018137
  :lng: 139.9991581
  :link: https://funabashi.keizai.biz/headline/3283/
  :date: 2023.12.02
  :image: https://images.keizai.biz/funabashi_keizai/headline/1701507608_photo.jpg
  :title: 市船サッカー部が「全国高校サッカー選手権」全国大会へ　3年ぶり24回目
- :id: 3282
  :src: https://funabashi.keizai.biz/mapnews/3282
  :lat: 35.6858754
  :lng: 139.98356
  :link: https://funabashi.keizai.biz/headline/3282/
  :date: 2023.12.02
  :image: https://images.keizai.biz/funabashi_keizai/headline/1701483535_photo.jpg
  :title: 昭和産業船橋工場で親子見学会　自動化された工程見学、ホットケーキ調理も
- :id: 3281
  :src: https://funabashi.keizai.biz/mapnews/3281
  :lat: 35.7087575
  :lng: 139.9575588
  :link: https://funabashi.keizai.biz/headline/3281/
  :date: 2023.12.01
  :image: https://images.keizai.biz/funabashi_keizai/headline/1701395221_photo.jpg
  :title: "「まいぷれ」が船橋市の産品をカタログギフトに　市内外に販売開始"
- :id: 3280
  :src: https://funabashi.keizai.biz/mapnews/3280
  :lat: 35.7536249
  :lng: 140.0223747
  :link: https://funabashi.keizai.biz/headline/3280/
  :date: 2023.11.29
  :image: https://images.keizai.biz/funabashi_keizai/headline/1701259863_photo.jpg
  :title: 船橋北部地区の「郷土かるた」大会が初開催　地域住民の手描きかるた
- :id: 3279
  :src: https://funabashi.keizai.biz/mapnews/3279
  :lat: 35.727381
  :lng: 140.0573155
  :link: https://funabashi.keizai.biz/headline/3279/
  :date: 2023.11.24
  :image: https://images.keizai.biz/funabashi_keizai/headline/1700813604_photo.jpg
  :title: 船橋日大前駅そばにプライベートサウナ「ラクール」　社員教育も目的に
- :id: 3278
  :src: https://funabashi.keizai.biz/mapnews/3278
  :lat: 35.6820258
  :lng: 139.9892566
  :link: https://funabashi.keizai.biz/headline/3278/
  :date: 2023.11.18
  :image: https://images.keizai.biz/funabashi_keizai/headline/1700294768_photo.jpg
  :title: 4年ぶりに「船橋市農水産祭」　初めて船橋港親水公園も会場に
- :id: 3277
  :src: https://funabashi.keizai.biz/mapnews/3277
  :lat: 35.7008678
  :lng: 139.9709886
  :link: https://funabashi.keizai.biz/headline/3277/
  :date: 2023.11.18
  :image: https://images.keizai.biz/funabashi_keizai/headline/1700235553_photo.jpg
  :title: 船橋・海神町南にバリアフリーに配慮したカフェ　インクルーシブスイーツも
- :id: 3276
  :src: https://funabashi.keizai.biz/mapnews/3276
  :lat: 35.7465992
  :lng: 140.0254429
  :link: https://funabashi.keizai.biz/headline/3276/
  :date: 2023.11.16
  :image: https://images.keizai.biz/funabashi_keizai/headline/1700142722_photo.jpg
  :title: 船橋・二和の農家にカフェ、地元野菜を使ったスキレットパンケーキなど提供
- :id: 3275
  :src: https://funabashi.keizai.biz/mapnews/3275
  :lat: 35.7251691
  :lng: 140.0457207
  :link: https://funabashi.keizai.biz/headline/3275/
  :date: 2023.11.15
  :image: https://images.keizai.biz/funabashi_keizai/headline/1700051747_photo.jpg
  :title: 船橋・北習志野の27商店で「まちゼミ」　商店会や周辺企業が連携
- :id: 3274
  :src: https://funabashi.keizai.biz/mapnews/3274
  :lat: 35.6923624
  :lng: 140.0221341
  :link: https://funabashi.keizai.biz/headline/3274/
  :date: 2023.11.11
  :image: https://images.keizai.biz/funabashi_keizai/headline/1699599183_photo.jpg
  :title: 津田沼駅前・ビートに「ベイシア・フーズパーク」　ベイシア初の都市型店舗
- :id: 3273
  :src: https://funabashi.keizai.biz/mapnews/3273
  :lat: 35.7321318
  :lng: 140.0461019
  :link: https://funabashi.keizai.biz/headline/3273/
  :date: 2023.11.10
  :image: https://images.keizai.biz/funabashi_keizai/headline/1699532490_photo.jpg
  :title: 船橋・松が丘に観葉植物販売とサイホンでいれるコーヒーの店
- :id: 3272
  :src: https://funabashi.keizai.biz/mapnews/3272
  :lat: 35.6800454
  :lng: 139.9886153
  :link: https://funabashi.keizai.biz/headline/3272/
  :date: 2023.11.09
  :image: https://images.keizai.biz/funabashi_keizai/headline/1699486655_photo.jpg
  :title: ロジスティクスパーク「MFLP船橋」でイベント　アイスパークとも連携
- :id: 3271
  :src: https://funabashi.keizai.biz/mapnews/3271
  :lat: 35.7589066
  :lng: 140.0581395
  :link: https://funabashi.keizai.biz/headline/3271/
  :date: 2023.11.02
  :image: https://images.keizai.biz/funabashi_keizai/headline/1698912864_photo.jpg
  :title: ふなばしアンデルセン公園で「インターナショナルフェスティバル」
- :id: 3270
  :src: https://funabashi.keizai.biz/mapnews/3270
  :lat: 35.69291219999999
  :lng: 140.0486898
  :link: https://funabashi.keizai.biz/headline/3270/
  :date: 2023.11.02
  :image: https://images.keizai.biz/funabashi_keizai/headline/1698589338_photo.jpg
  :title: 東邦大生が船橋大神宮で植物調査　国が認める保護緑地登録目指す
- :id: 3269
  :src: https://funabashi.keizai.biz/mapnews/3269
  :lat: 35.7205006
  :lng: 139.9709011
  :link: https://funabashi.keizai.biz/headline/3269/
  :date: 2023.10.29
  :image: https://images.keizai.biz/funabashi_keizai/headline/1698588933_photo.jpg
  :title: 船橋・農作物直売所「ふなっこ畑」で「ふなばし朝市」　3イベント同時開催
- :id: 3268
  :src: https://funabashi.keizai.biz/mapnews/3268
  :lat: 35.6944565
  :lng: 139.9818135
  :link: https://funabashi.keizai.biz/headline/3268/
  :date: 2023.10.27
  :image: https://images.keizai.biz/funabashi_keizai/headline/1698390023_photo.jpg
  :title: 船橋の女子軟式野球「千葉マリンスターズ」全国大会優勝　中学生は準優勝
- :id: 3267
  :src: https://funabashi.keizai.biz/mapnews/3267
  :lat: 35.6843262
  :lng: 139.9892566
  :link: https://funabashi.keizai.biz/headline/3267/
  :date: 2023.10.27
  :image: https://images.keizai.biz/funabashi_keizai/headline/1698368440_photo.jpg
  :title: 4年ぶり「船橋港親水公園花火大会」　4000発の花火が観客を魅了
- :id: 3266
  :src: https://funabashi.keizai.biz/mapnews/3266
  :lat: 35.7032283
  :lng: 139.9827033
  :link: https://funabashi.keizai.biz/headline/3266/
  :date: 2023.10.25
  :image: https://images.keizai.biz/funabashi_keizai/headline/1698194122_photo.jpg
  :title: 船橋駅近くのタイ食堂、週末ランチ限定で「ラーメンぶうちゃん」に
- :id: 3265
  :src: https://funabashi.keizai.biz/mapnews/3265
  :lat: 35.705374
  :lng: 139.9849578
  :link: https://funabashi.keizai.biz/headline/3265/
  :date: 2023.10.18
  :image: https://images.keizai.biz/funabashi_keizai/headline/1697672928_photo.jpg
  :title: "「ふなばしミュージックストリート」開催へ　初の学生バンドコンテストも"
- :id: 3264
  :src: https://funabashi.keizai.biz/mapnews/3264
  :lat: 35.7017066
  :lng: 139.9866913
  :link: https://funabashi.keizai.biz/headline/3264/
  :date: 2023.10.14
  :image: https://images.keizai.biz/funabashi_keizai/headline/1697237833_photo.jpg
  :title: "「ふなばし市民まつり」　開催前日に恒例のごみ拾い"
- :id: 3263
  :src: https://funabashi.keizai.biz/mapnews/3263
  :lat: 35.7222629
  :lng: 140.0426114
  :link: https://funabashi.keizai.biz/headline/3263/
  :date: 2023.10.13
  :image: https://images.keizai.biz/funabashi_keizai/headline/1697202241_photo.jpg
  :title: 北習志野のコワーキング施設でハーブのワークショップ　ジートピアとコラボ
- :id: 3262
  :src: https://funabashi.keizai.biz/mapnews/3262
  :lat: 35.6944565
  :lng: 139.9818135
  :link: https://funabashi.keizai.biz/headline/3262/
  :date: 2023.10.11
  :image: https://images.keizai.biz/funabashi_keizai/headline/1697036280_photo.jpg
  :title: 市内5会場で「ふなばし市民まつり」　花火大会も初の秋開催
- :id: 3261
  :src: https://funabashi.keizai.biz/mapnews/3261
  :lat: 35.7014332
  :lng: 139.9865911
  :link: https://funabashi.keizai.biz/headline/3261/
  :date: 2023.10.11
  :image: https://images.keizai.biz/funabashi_keizai/headline/1696981983_photo.jpg
  :title: 東武百貨店船橋店にスイーツ・酒・嗜好品・ギフトの新エリア
- :id: 3260
  :src: https://funabashi.keizai.biz/mapnews/3260
  :lat: 35.6808528
  :lng: 139.9967928
  :link: https://funabashi.keizai.biz/headline/3260/
  :date: 2023.10.10
  :image: https://images.keizai.biz/funabashi_keizai/headline/1696939054_photo.jpg
  :title: 南船橋駅直結「ららテラスTOKYO-BAY」　11月グランドオープンへ
- :id: 3259
  :src: https://funabashi.keizai.biz/mapnews/3259
  :lat: 35.6973485
  :lng: 140.0046507
  :link: https://funabashi.keizai.biz/headline/3259/
  :date: 2023.10.06
  :image: https://images.keizai.biz/funabashi_keizai/headline/1696573334_photo.jpg
  :title: 東船橋のマンションで入居者が参加するスポーツプログラム
- :id: 3258
  :src: https://funabashi.keizai.biz/mapnews/3258
  :lat: 35.7114559
  :lng: 139.978715
  :link: https://funabashi.keizai.biz/headline/3258/
  :date: 2023.10.06
  :image: https://images.keizai.biz/funabashi_keizai/headline/1696559743_photo.jpg
  :title: イオンモール船橋で初のパンイベント「もぐもぐマルシェ」　開場前から行列
- :id: 3257
  :src: https://funabashi.keizai.biz/mapnews/3257
  :lat: 35.6986533
  :lng: 139.9848876
  :link: https://funabashi.keizai.biz/headline/3257/
  :date: 2023.10.04
  :image: https://images.keizai.biz/funabashi_keizai/headline/1696420607_photo.jpg
  :title: 船橋商工会議所で青年部主催のSDGs研修会　子ども食堂運営者が登壇
- :id: 3256
  :src: https://funabashi.keizai.biz/mapnews/3256
  :lat: 35.6724086
  :lng: 139.7703028
  :link: https://funabashi.keizai.biz/headline/3256/
  :date: 2023.10.01
  :image: https://images.keizai.biz/funabashi_keizai/headline/1696126812_photo.jpg
  :title: 船橋出身・在住の小野尾勝彦さん、「ガチャガチャの経済学」出版
- :id: 3255
  :src: https://funabashi.keizai.biz/mapnews/3255
  :lat: 35.6866004
  :lng: 139.9919022
  :link: https://funabashi.keizai.biz/headline/3255/
  :date: 2023.09.27
  :image: https://images.keizai.biz/funabashi_keizai/headline/1695799285_photo.jpg
  :title: 船橋ベイエリア一帯で「ふなばしハワイアンフェスティバル」　2万人来場
- :id: 3254
  :src: https://funabashi.keizai.biz/mapnews/3254
  :lat: 35.7589066
  :lng: 140.0581395
  :link: https://funabashi.keizai.biz/headline/3254/
  :date: 2023.09.26
  :image: https://images.keizai.biz/funabashi_keizai/headline/1695726213_photo.jpg
  :title: ふなばしアンデルセン公園子ども美術館で千葉工大生が体験型の空間演出
- :id: 3253
  :src: https://funabashi.keizai.biz/mapnews/3253
  :lat: 35.6843262
  :lng: 139.9892566
  :link: https://funabashi.keizai.biz/headline/3253/
  :date: 2023.09.24
  :image: https://images.keizai.biz/funabashi_keizai/headline/1695548252_photo.jpg
  :title: 船橋港親水公園で「ふなばしミートフェスタ＆ボンバイエ」　プロレスも
- :id: 3252
  :src: https://funabashi.keizai.biz/mapnews/3252
  :lat: 35.698674
  :lng: 140.019788
  :link: https://funabashi.keizai.biz/headline/3252/
  :date: 2023.09.19
  :image: https://images.keizai.biz/funabashi_keizai/headline/1695134626_photo.jpg
  :title: 船橋・前原に「小さな絵本カフェ アチェロ」　絵本をイメージしたメニューも
- :id: 3251
  :src: https://funabashi.keizai.biz/mapnews/3251
  :lat: 35.6918508
  :lng: 140.020578
  :link: https://funabashi.keizai.biz/headline/3251/
  :date: 2023.09.17
  :image: https://images.keizai.biz/funabashi_keizai/headline/1694919515_photo.jpg
  :title: 津田沼駅前のそば店「志な乃」がリニューアル　新メニューも
- :id: 3250
  :src: https://funabashi.keizai.biz/mapnews/3250
  :lat: 35.7624661
  :lng: 140.0655849
  :link: https://funabashi.keizai.biz/headline/3250/
  :date: 2023.09.14
  :image: https://images.keizai.biz/funabashi_keizai/headline/1694682448_photo.jpg
  :title: 船橋産新米の出荷始まる　JAいちかわ船橋選果場で
- :id: 3249
  :src: https://funabashi.keizai.biz/mapnews/3249
  :lat: 35.6843262
  :lng: 139.9892566
  :link: https://funabashi.keizai.biz/headline/3249/
  :date: 2023.09.13
  :image: https://images.keizai.biz/funabashi_keizai/headline/1694590399_photo.jpg
  :title: 船橋港親水公園で「ふなばしミートフェスタ＆ボンバイエ」　ご当地キャラも登場
- :id: 3248
  :src: https://funabashi.keizai.biz/mapnews/3248
  :lat: 35.7218252
  :lng: 140.0479024
  :link: https://funabashi.keizai.biz/headline/3248/
  :date: 2023.09.12
  :image: https://images.keizai.biz/funabashi_keizai/headline/1694500959_photo.jpg
  :title: 北習志野近隣公園で「キタナラわっしょい」　PTAのOB・OGらが初企画
- :id: 3247
  :src: https://funabashi.keizai.biz/mapnews/3247
  :lat: 35.6920544
  :lng: 139.9762857
  :link: https://funabashi.keizai.biz/headline/3247/
  :date: 2023.09.05
  :image: https://images.keizai.biz/funabashi_keizai/headline/1693873070_photo.jpg
  :title: 上行寺船橋別院で初の「お寺de縁日」イベント　200人超でにぎわう
- :id: 3246
  :src: https://funabashi.keizai.biz/mapnews/3246
  :lat: 35.70174
  :lng: 139.9831875
  :link: https://funabashi.keizai.biz
  :date: 2000.01.23
  :image: "/images/funabashi.png"
  :title: 404_Not_Found
- :id: 3245
  :src: https://funabashi.keizai.biz/mapnews/3245
  :lat: 35.7896993
  :lng: 140.0742235
  :link: https://funabashi.keizai.biz/headline/3245/
  :date: 2023.08.28
  :image: https://images.keizai.biz/funabashi_keizai/headline/1693226975_photo.jpg
  :title: 小室公園で4年ぶり「小室夏まつり」　初日は500発の打ち上げ花火も
- :id: 3244
  :src: https://funabashi.keizai.biz/mapnews/3244
  :lat: 35.6860305
  :lng: 139.9944636
  :link: https://funabashi.keizai.biz/headline/3244/
  :date: 2023.08.27
  :image: https://images.keizai.biz/funabashi_keizai/headline/1693095157_photo.jpg
  :title: 船橋競馬場で「スパイシーフードとクラフトビールまつり」　水鉄砲やダンスも
- :id: 3243
  :src: https://funabashi.keizai.biz/mapnews/3243
  :lat: 35.7039488
  :lng: 139.9947333
  :link: https://funabashi.keizai.biz/headline/3243/
  :date: 2023.08.25
  :image: https://images.keizai.biz/funabashi_keizai/headline/1692890602_photo.jpg
  :title: 船橋市場内「新生水産」がマグロと具材が1つになったチルド総菜品を開発
- :id: 3242
  :src: https://funabashi.keizai.biz/mapnews/3242
  :lat: 35.6996121
  :lng: 139.9806593
  :link: https://funabashi.keizai.biz/headline/3242/
  :date: 2023.08.18
  :image: https://images.keizai.biz/funabashi_keizai/headline/1692305910_photo.jpg
  :title: 船橋駅近くに「絵本カフェおはなしやさん」　米店を改築したカフェも
- :id: 3241
  :src: https://funabashi.keizai.biz/mapnews/3241
  :lat: 35.6944429
  :lng: 140.0171011
  :link: https://funabashi.keizai.biz/headline/3241/
  :date: 2023.08.17
  :image: https://images.keizai.biz/funabashi_keizai/headline/1692267298_photo.jpg
  :title: 津田沼にフランス料理店「タロ」、カウンターのみの店内でコース料理提供
- :id: 3240
  :src: https://funabashi.keizai.biz/mapnews/3240
  :lat: 35.6994705
  :lng: 139.9849257
  :link: https://funabashi.keizai.biz/headline/3240/
  :date: 2023.08.15
  :image: https://images.keizai.biz/funabashi_keizai/headline/1692110702_photo.jpg
  :title: 船橋駅近くに「大衆バルにくまん」　肉料理やシューマイ、冬はフレンチおでん
- :id: 3239
  :src: https://funabashi.keizai.biz/mapnews/3239
  :lat: 35.705374
  :lng: 139.9849578
  :link: https://funabashi.keizai.biz/headline/3239/
  :date: 2023.08.13
  :image: https://images.keizai.biz/funabashi_keizai/headline/1691938584_photo.jpg
  :title: 天沼公園で「天沼祭」初開催、地元飲食店とダンススクールがコラボ
- :id: 3238
  :src: https://funabashi.keizai.biz/mapnews/3238
  :lat: 35.697659
  :lng: 139.9850079
  :link: https://funabashi.keizai.biz/headline/3238/
  :date: 2023.08.12
  :image: https://images.keizai.biz/funabashi_keizai/headline/1691848606_photo.jpg
  :title: 船橋出身のチェリスト植草ひろみさん、新アルバム完成　地元の仲間と協力
- :id: 3237
  :src: https://funabashi.keizai.biz/mapnews/3237
  :lat: 35.7140008
  :lng: 139.9437273
  :link: https://funabashi.keizai.biz/headline/3237/
  :date: 2023.08.08
  :image: https://images.keizai.biz/funabashi_keizai/headline/1691485159_photo.jpg
  :title: 下総中山駅構内に「TOKYO豚骨BASE MADE by 一風堂」　船橋初出店
- :id: 3236
  :src: https://funabashi.keizai.biz/mapnews/3236
  :lat: 35.6875313
  :lng: 139.9927937
  :link: https://funabashi.keizai.biz/headline/3236/
  :date: 2023.08.07
  :image: https://images.keizai.biz/funabashi_keizai/headline/1691399633_photo.jpg
  :title: Eテレ「いないいないばあっ！」のはるちゃん、船橋警察署の一日署長に
- :id: 3235
  :src: https://funabashi.keizai.biz/mapnews/3235
  :lat: 35.7624661
  :lng: 140.0655849
  :link: https://funabashi.keizai.biz/headline/3235/
  :date: 2023.08.06
  :image: https://images.keizai.biz/funabashi_keizai/headline/1691283098_photo.jpg
  :title: "「船橋のなし」梨袋に千葉ジェッツロゴ　JAいちかわとジェッツのコラボで"
- :id: 3234
  :src: https://funabashi.keizai.biz/mapnews/3234
  :lat: 35.7150244
  :lng: 139.9536328
  :link: https://funabashi.keizai.biz/headline/3234/
  :date: 2023.08.04
  :image: https://images.keizai.biz/funabashi_keizai/headline/1691138785_photo.jpg
  :title: 東中山駅前に鶏丼と唐揚げの店「鶏然り」　北総台地「水郷どり」など使う
- :id: 3233
  :src: https://funabashi.keizai.biz/mapnews/3233
  :lat: 35.7023561
  :lng: 140.0334254
  :link: https://funabashi.keizai.biz/headline/3233/
  :date: 2023.08.02
  :image: https://images.keizai.biz/funabashi_keizai/headline/1690982728_photo.jpg
  :title: 前原の御嶽神社に専任の宮司が就任　鎮座350周年に神職が常駐する神社へ
- :id: 3232
  :src: https://funabashi.keizai.biz/mapnews/3232
  :lat: 35.7355751
  :lng: 139.9996236
  :link: https://funabashi.keizai.biz/headline/3232/
  :date: 2023.07.30
  :image: https://images.keizai.biz/funabashi_keizai/headline/1690680533_photo.jpg
  :title: 馬込の奈良養鶏園に「奈良たまカフェ」　直売所リニューアルで飲食営業も
- :id: 3231
  :src: https://funabashi.keizai.biz/mapnews/3231
  :lat: 35.70174
  :lng: 139.9831875
  :link: https://funabashi.keizai.biz
  :date: 2000.01.23
  :image: "/images/funabashi.png"
  :title: 404_Not_Found
- :id: 3230
  :src: https://funabashi.keizai.biz/mapnews/3230
  :lat: 35.6925926
  :lng: 140.0216729
  :link: https://funabashi.keizai.biz/headline/3230/
  :date: 2023.07.23
  :image: https://images.keizai.biz/funabashi_keizai/headline/1690120043_photo.jpg
  :title: 津田沼駅近くにハンドメードの店「チョイス・イン・オオツカ」　素材も販売
- :id: 3229
  :src: https://funabashi.keizai.biz/mapnews/3229
  :lat: 35.7018137
  :lng: 139.9991581
  :link: https://funabashi.keizai.biz/headline/3229/
  :date: 2023.07.21
  :image: https://images.keizai.biz/funabashi_keizai/headline/1689870124_photo.jpg
  :title: 全国高校野球千葉県大会準々決勝　市船野球部が習志野と対決へ
- :id: 3228
  :src: https://funabashi.keizai.biz/mapnews/3228
  :lat: 35.7040486
  :lng: 139.9851896
  :link: https://funabashi.keizai.biz/headline/3228/
  :date: 2023.07.19
  :image: https://images.keizai.biz/funabashi_keizai/headline/1689753215_photo.jpg
  :title: JAいちかわが「船橋のなし」箱をリニューアル　千葉工大がデザイン協力
- :id: 3227
  :src: https://funabashi.keizai.biz/mapnews/3227
  :lat: 35.7018137
  :lng: 139.9991581
  :link: https://funabashi.keizai.biz/headline/3227/
  :date: 2023.07.17
  :image: https://images.keizai.biz/funabashi_keizai/headline/1689603291_photo.jpg
  :title: アメリカ体操協会殿堂入りの富田さんとメダリストの橋本選手、市船で講演
- :id: 3226
  :src: https://funabashi.keizai.biz/mapnews/3226
  :lat: 35.6921305
  :lng: 140.0219301
  :link: https://funabashi.keizai.biz/headline/3226/
  :date: 2023.07.15
  :image: https://images.keizai.biz/funabashi_keizai/headline/1689388691_photo.jpg
  :title: 津田沼駅近くの商業施設「ビート」に新店舗　秋には「無印」やスーパーも
- :id: 3225
  :src: https://funabashi.keizai.biz/mapnews/3225
  :lat: 35.7263905
  :lng: 140.0386598
  :link: https://funabashi.keizai.biz/headline/3225/
  :date: 2023.07.12
  :image: https://images.keizai.biz/funabashi_keizai/headline/1689139832_photo.jpg
  :title: 北習志野エビス通り商店街で「エビスきたなら祭り」　雨天ながら5000人の人出
- :id: 3224
  :src: https://funabashi.keizai.biz/mapnews/3224
  :lat: 35.7077427
  :lng: 139.9672347
  :link: https://funabashi.keizai.biz/headline/3224/
  :date: 2023.07.11
  :image: https://images.keizai.biz/funabashi_keizai/headline/1689046855_photo.jpg
  :title: 西船・山野浅間神社で4年ぶりの祭礼　奉納演芸などは自粛
- :id: 3223
  :src: https://funabashi.keizai.biz/mapnews/3223
  :lat: 35.7029535
  :lng: 139.9872119
  :link: https://funabashi.keizai.biz/headline/3223/
  :date: 2023.07.09
  :image: https://images.keizai.biz/funabashi_keizai/headline/1688881226_photo.jpg
  :title: 船橋経済新聞、上半期PV1位は「船橋駅北口近くに焼肉ジュンチャン」
- :id: 3222
  :src: https://funabashi.keizai.biz/mapnews/3222
  :lat: 35.6873205
  :lng: 139.9877936
  :link: https://funabashi.keizai.biz/headline/3222/
  :date: 2023.07.05
  :image: https://images.keizai.biz/funabashi_keizai/headline/1688569013_photo.jpg
  :title: 生涯学習「ふなばし大学」、ららぽーとTOKYO-BAYに新たな拠点
- :id: 3221
  :src: https://funabashi.keizai.biz/mapnews/3221
  :lat: 35.7012349
  :lng: 140.0277667
  :link: https://funabashi.keizai.biz/headline/3221/
  :date: 2023.07.02
  :image: https://images.keizai.biz/funabashi_keizai/headline/1688267766_photo.jpg
  :title: 前原駅前にバインミー専門店「バインミー・サンドイッチ」　千葉県初出店
- :id: 3220
  :src: https://funabashi.keizai.biz/mapnews/3220
  :lat: 35.7149889
  :lng: 139.9496671
  :link: https://funabashi.keizai.biz/headline/3220/
  :date: 2023.06.26
  :image: https://images.keizai.biz/funabashi_keizai/headline/1687639786_photo.jpg
  :title: 小栗原稲荷神社大祭の開催決定　「下総中山で楽しもう－七夕に願いを」
- :id: 3219
  :src: https://funabashi.keizai.biz/mapnews/3219
  :lat: 35.6983494
  :lng: 139.9870821
  :link: https://funabashi.keizai.biz/headline/3219/
  :date: 2023.06.25
  :image: https://images.keizai.biz/funabashi_keizai/headline/1687639437_photo.jpg
  :title: 船橋駅近く山口横丁に「将泰庵」系列「肉バルSHOUTAIAN船橋店」
- :id: 3218
  :src: https://funabashi.keizai.biz/mapnews/3218
  :lat: 35.7014332
  :lng: 139.9865911
  :link: https://funabashi.keizai.biz/headline/3218/
  :date: 2023.06.22
  :image: https://images.keizai.biz/funabashi_keizai/headline/1687437971_photo.jpg
  :title: 東武百貨店船橋店のギフトセンターで「千葉・船橋　銘産品ギフト」特集
- :id: 3217
  :src: https://funabashi.keizai.biz/mapnews/3217
  :lat: 35.7029535
  :lng: 139.9872119
  :link: https://funabashi.keizai.biz/headline/3217/
  :date: 2023.06.20
  :image: https://images.keizai.biz/funabashi_keizai/headline/1687265309_photo.jpg
  :title: 船橋駅北口近くに「焼肉ジュンチャン」　石田純一さんらが経営
- :id: 3216
  :src: https://funabashi.keizai.biz/mapnews/3216
  :lat: 35.7062683
  :lng: 139.995991
  :link: https://funabashi.keizai.biz/headline/3216/
  :date: 2023.06.14
  :image: https://images.keizai.biz/funabashi_keizai/headline/1686695480_photo.jpg
  :title: 4年ぶりに「海老川親水市民まつり」　カヌー乗船体験や和太鼓演奏など
- :id: 3215
  :src: https://funabashi.keizai.biz/mapnews/3215
  :lat: 35.6873205
  :lng: 139.9877936
  :link: https://funabashi.keizai.biz/headline/3215/
  :date: 2023.06.14
  :image: https://images.keizai.biz/funabashi_keizai/headline/1686695049_photo.jpg
  :title: 千葉ジェッツ・富樫選手ら、ららぽーとで報告会　早朝からブースターが列
- :id: 3214
  :src: https://funabashi.keizai.biz/mapnews/3214
  :lat: 35.6710568
  :lng: 139.9985567
  :link: https://funabashi.keizai.biz/headline/3214/
  :date: 2023.06.13
  :image: https://images.keizai.biz/funabashi_keizai/headline/1686666441_photo.jpg
  :title: クボタスピアーズ、中学生サッカー「船橋FCアカデミー」でトレーニング指導
- :id: 3213
  :src: https://funabashi.keizai.biz/mapnews/3213
  :lat: 35.7039488
  :lng: 139.9947333
  :link: https://funabashi.keizai.biz/headline/3213/
  :date: 2023.06.11
  :image: https://images.keizai.biz/funabashi_keizai/headline/1686469300_photo.jpg
  :title: 船橋のなし「ふなっしー梨箱」今年のデザイン決定、予約販売開始
- :id: 3212
  :src: https://funabashi.keizai.biz/mapnews/3212
  :lat: 35.697659
  :lng: 139.9850079
  :link: https://funabashi.keizai.biz/headline/3212/
  :date: 2023.06.08
  :image: https://images.keizai.biz/funabashi_keizai/headline/1686153404_photo.jpg
  :title: 奥華子さん、地元・船橋で3年8カ月ぶりに単独コンサート
- :id: 3211
  :src: https://funabashi.keizai.biz/mapnews/3211
  :lat: 35.710145
  :lng: 140.0512094
  :link: https://funabashi.keizai.biz/headline/3211/
  :date: 2023.06.07
  :image: https://images.keizai.biz/funabashi_keizai/headline/1686126361_photo.jpg
  :title: 習志野駐屯地「空挺館」を一般開放　100年超前の歴史的な建物
- :id: 3210
  :src: https://funabashi.keizai.biz/mapnews/3210
  :lat: 35.7016542
  :lng: 139.9612055
  :link: https://funabashi.keizai.biz/headline/3210/
  :date: 2023.06.06
  :image: https://images.keizai.biz/funabashi_keizai/headline/1685895624_photo.jpg
  :title: 船橋にコミュニティースペース「KAINAN SPACE」　西船エリアの交流の場に
- :id: 3209
  :src: https://funabashi.keizai.biz/mapnews/3209
  :lat: 35.7278689
  :lng: 139.9957414
  :link: https://funabashi.keizai.biz/headline/3209/
  :date: 2023.06.02
  :image: https://images.keizai.biz/funabashi_keizai/headline/1685717864_photo.jpg
  :title: 船橋が本拠地の野球チーム「千葉スカイセイラーズ」、船橋市民球場で勝利
- :id: 3208
  :src: https://funabashi.keizai.biz/mapnews/3208
  :lat: 35.70174
  :lng: 139.9831875
  :link: https://funabashi.keizai.biz
  :date: 2000.01.23
  :image: "/images/funabashi.png"
  :title: 404_Not_Found
- :id: 3207
  :src: https://funabashi.keizai.biz/mapnews/3207
  :lat: 35.7149375
  :lng: 139.9434456
  :link: https://funabashi.keizai.biz/headline/3207/
  :date: 2023.06.01
  :image: https://images.keizai.biz/funabashi_keizai/headline/1685599183_photo.jpg
  :title: 下総中山駅近くにラーメン「麺やシバケン」　お子さまラーメンは無料提供
- :id: 3206
  :src: https://funabashi.keizai.biz/mapnews/3206
  :lat: 35.6960005
  :lng: 139.9832863
  :link: https://funabashi.keizai.biz/headline/3206/
  :date: 2023.05.30
  :image: https://images.keizai.biz/funabashi_keizai/headline/1685399942_photo.jpg
  :title: 千葉ジェッツ、Bリーグ決勝で惜敗　ららぽーとで選手報告会も
- :id: 3205
  :src: https://funabashi.keizai.biz/mapnews/3205
  :lat: 35.6947103
  :lng: 139.9825097
  :link: https://funabashi.keizai.biz/headline/3205/
  :date: 2023.05.23
  :image: https://images.keizai.biz/funabashi_keizai/headline/1684832631_photo.jpg
  :title: 3×3プロバスケ「SAKURA FUNABASHI」女子チーム始動
- :id: 3204
  :src: https://funabashi.keizai.biz/mapnews/3204
  :lat: 35.6861734
  :lng: 139.9723009
  :link: https://funabashi.keizai.biz/headline/3204/
  :date: 2023.05.22
  :image: https://images.keizai.biz/funabashi_keizai/headline/1684750427_photo.jpg
  :title: クボタスピアーズ、ラグビーリーグワンで初優勝　クラブ創部以来初の快挙
- :id: 3203
  :src: https://funabashi.keizai.biz/mapnews/3203
  :lat: 35.6843262
  :lng: 139.9892566
  :link: https://funabashi.keizai.biz/headline/3203/
  :date: 2023.05.22
  :image: https://images.keizai.biz/funabashi_keizai/headline/1684681417_photo.jpg
  :title: 船橋港親水公園で「船橋テラスマーケット」　ダンスイベントは雨天中止に
- :id: 3202
  :src: https://funabashi.keizai.biz/mapnews/3202
  :lat: 35.7294115
  :lng: 140.0518966
  :link: https://funabashi.keizai.biz/headline/3202/
  :date: 2023.05.17
  :image: https://images.keizai.biz/funabashi_keizai/headline/1684322242_photo.jpg
  :title: "「千葉ジェッツ」CS準決勝進出　再び船橋アリーナでアルバルク東京と対戦へ"
- :id: 3201
  :src: https://funabashi.keizai.biz/mapnews/3201
  :lat: 35.6947103
  :lng: 139.9825097
  :link: https://funabashi.keizai.biz/headline/3201/
  :date: 2023.05.13
  :image: https://images.keizai.biz/funabashi_keizai/headline/1683963659_photo.jpg
  :title: "「ふなばし市民まつり」「船橋港親水公園花火大会」　暑い時期避け秋開催へ"
- :id: 3200
  :src: https://funabashi.keizai.biz/mapnews/3200
  :lat: 35.7294115
  :lng: 140.0518966
  :link: https://funabashi.keizai.biz/headline/3200/
  :date: 2023.05.12
  :image: https://images.keizai.biz/funabashi_keizai/headline/1683862821_photo.jpg
  :title: こどもの日に「船橋アリーナこどもフェスタ」　ミニSL搭乗や施設無料開放など
- :id: 3199
  :src: https://funabashi.keizai.biz/mapnews/3199
  :lat: 35.7616407
  :lng: 140.0657044
  :link: https://funabashi.keizai.biz/headline/3199/
  :date: 2023.05.09
  :image: https://images.keizai.biz/funabashi_keizai/headline/1683600556_photo.jpg
  :title: "「猫の森」が移動手術車で猫の不妊去勢手術　船橋市と連携し初の取り組み"
- :id: 3198
  :src: https://funabashi.keizai.biz/mapnews/3198
  :lat: 35.7111843
  :lng: 139.9596003
  :link: https://funabashi.keizai.biz/headline/3198/
  :date: 2023.05.06
  :image: https://images.keizai.biz/funabashi_keizai/headline/1683353453_photo.jpg
  :title: 京成西船駅近くに牛カツサンド専門店「3°」　揚げたて牛タンカツサンド販売
- :id: 3197
  :src: https://funabashi.keizai.biz/mapnews/3197
  :lat: 35.7589066
  :lng: 140.0581395
  :link: https://funabashi.keizai.biz/headline/3197/
  :date: 2023.05.04
  :image: https://images.keizai.biz/funabashi_keizai/headline/1683192231_photo.jpg
  :title: ふなばしアンデルセン公園が「きりがみコンクール」　小学生が大賞受賞
- :id: 3196
  :src: https://funabashi.keizai.biz/mapnews/3196
  :lat: 35.7014332
  :lng: 139.9865911
  :link: https://funabashi.keizai.biz/headline/3196/
  :date: 2023.05.03
  :image: https://images.keizai.biz/funabashi_keizai/headline/1683042187_photo.jpg
  :title: 船橋東武に中華火鍋専門店「シャオフェイヤン」　千葉県初出店
- :id: 3195
  :src: https://funabashi.keizai.biz/mapnews/3195
  :lat: 35.7466152
  :lng: 140.025483
  :link: https://funabashi.keizai.biz/headline/3195/
  :date: 2023.04.27
  :image: https://images.keizai.biz/funabashi_keizai/headline/1682588798_photo.jpg
  :title: 船橋の梨農園「芳蔵園」で「梨の花マルシェ」　食事・音楽で地域盛り上げ
- :id: 3194
  :src: https://funabashi.keizai.biz/mapnews/3194
  :lat: 35.6861734
  :lng: 139.9723009
  :link: https://funabashi.keizai.biz/headline/3194/
  :date: 2023.04.26
  :image: https://images.keizai.biz/funabashi_keizai/headline/1682508461_photo.jpg
  :title: クボタスピアーズによる「ラグビーアカデミー船橋校」、タカスポで開講
- :id: 3193
  :src: https://funabashi.keizai.biz/mapnews/3193
  :lat: 35.7383428
  :lng: 140.051017
  :link: https://funabashi.keizai.biz/headline/3193/
  :date: 2023.04.22
  :image: https://images.keizai.biz/funabashi_keizai/headline/1682118174_photo.jpg
  :title: 船橋が本拠地の「千葉スカイセイラーズ」初戦勝利　5月には船橋で試合も
- :id: 3192
  :src: https://funabashi.keizai.biz/mapnews/3192
  :lat: 35.7463649
  :lng: 139.9941089
  :link: https://funabashi.keizai.biz/headline/3192/
  :date: 2023.04.18
  :image: https://images.keizai.biz/funabashi_keizai/headline/1681810188_photo.jpg
  :title: 船橋・健伸幼稚園でリーディングライブ　一般向け公演にホールを開放
- :id: 3191
  :src: https://funabashi.keizai.biz/mapnews/3191
  :lat: 35.7033252
  :lng: 139.9875531
  :link: https://funabashi.keizai.biz/headline/3191/
  :date: 2023.04.12
  :image: https://images.keizai.biz/funabashi_keizai/headline/1681262286_photo.jpg
  :title: 船橋駅北口に「蔵828 in 船橋 by 酒どっとcome」　角打ちスペースも
- :id: 3190
  :src: https://funabashi.keizai.biz/mapnews/3190
  :lat: 35.7014332
  :lng: 139.9865911
  :link: https://funabashi.keizai.biz/headline/3190/
  :date: 2023.04.10
  :image: https://images.keizai.biz/funabashi_keizai/headline/1681132229_photo.jpg
  :title: 船橋東武屋上に「青空バーベキューの庭」　全ブースにグランピングテントも
- :id: 3189
  :src: https://funabashi.keizai.biz/mapnews/3189
  :lat: 35.7044522
  :lng: 139.9844281
  :link: https://funabashi.keizai.biz/headline/3189/
  :date: 2023.04.10
  :image: https://images.keizai.biz/funabashi_keizai/headline/1681129178_photo.jpg
  :title: 映画「夢みる小学校」　船橋で初の自主上映へ、未来の学校考える機会に
- :id: 3188
  :src: https://funabashi.keizai.biz/mapnews/3188
  :lat: 35.7398205
  :lng: 140.0191463
  :link: https://funabashi.keizai.biz/headline/3188/
  :date: 2023.04.08
  :image: https://images.keizai.biz/funabashi_keizai/headline/1680961968_photo.jpg
  :title: 御瀧不動尊で「高野太鼓＆御瀧よさこいソーランまつり」　80台超の太鼓も
- :id: 3187
  :src: https://funabashi.keizai.biz/mapnews/3187
  :lat: 35.7405101
  :lng: 139.992744
  :link: https://funabashi.keizai.biz/headline/3187/
  :date: 2023.04.06
  :image: https://images.keizai.biz/funabashi_keizai/headline/1680744180_photo.jpg
  :title: 船橋・馬込沢で月1開催の「にじいろマルシェ」　4月から新会場へ
- :id: 3186
  :src: https://funabashi.keizai.biz/mapnews/3186
  :lat: 35.6728324
  :lng: 139.9684969
  :link: https://funabashi.keizai.biz/headline/3186/
  :date: 2023.04.05
  :image: https://images.keizai.biz/funabashi_keizai/headline/1680656626_photo.jpg
  :title: ふなばし三番瀬海浜公園「潮干狩り」は4月18日から　利用券は事前販売のみに
- :id: 3185
  :src: https://funabashi.keizai.biz/mapnews/3185
  :lat: 35.7079691
  :lng: 139.9576991
  :link: https://funabashi.keizai.biz/headline/3185/
  :date: 2023.04.01
  :image: https://images.keizai.biz/funabashi_keizai/headline/1680311898_photo.jpg
  :title: JR西船橋駅みどりの窓口にシャッターアート　葛飾小児童が描いた花で彩る
- :id: 3184
  :src: https://funabashi.keizai.biz/mapnews/3184
  :lat: 35.7018137
  :lng: 139.9991581
  :link: https://funabashi.keizai.biz/headline/3184/
  :date: 2023.03.29
  :image: https://images.keizai.biz/funabashi_keizai/headline/1680051373_photo.jpg
  :title: 強豪チームが集う「船橋招待U-18サッカー大会」、全17チームが参加
- :id: 3183
  :src: https://funabashi.keizai.biz/mapnews/3183
  :lat: 35.6817357
  :lng: 139.9921427
  :link: https://funabashi.keizai.biz/headline/3183/
  :date: 2023.03.27
  :image: https://images.keizai.biz/funabashi_keizai/headline/1679910426_photo.jpg
  :title: 船橋IKEAのキッズプレールーム「スモーランド」、3年ぶりにリニューアル
- :id: 3182
  :src: https://funabashi.keizai.biz/mapnews/3182
  :lat: 35.7095582
  :lng: 139.9963117
  :link: https://funabashi.keizai.biz/headline/3182/
  :date: 2023.03.24
  :image: https://images.keizai.biz/funabashi_keizai/headline/1679662588_photo.jpg
  :title: 船橋・海老川ジョギングロード桜並木に屋台50店　夜間ライトアップは行わず
- :id: 3181
  :src: https://funabashi.keizai.biz/mapnews/3181
  :lat: 35.7314461
  :lng: 140.0285212
  :link: https://funabashi.keizai.biz/headline/3181/
  :date: 2023.03.23
  :image: https://images.keizai.biz/funabashi_keizai/headline/1679575836_photo.jpg
  :title: 船橋・高根台に焼き菓子とケーキの店「かしことば」　菓子で気持ち伝える
- :id: 3180
  :src: https://funabashi.keizai.biz/mapnews/3180
  :lat: 35.6947098
  :lng: 139.982513
  :link: https://funabashi.keizai.biz/headline/3180/
  :date: 2023.03.19
  :image: https://images.keizai.biz/funabashi_keizai/headline/1679217372_photo.jpg
  :title: 船橋の小中高生チーム、マインクラフト全国2位に　仮想空間に地熱発電所など
- :id: 3179
  :src: https://funabashi.keizai.biz/mapnews/3179
  :lat: 35.7218252
  :lng: 140.0479024
  :link: https://funabashi.keizai.biz/headline/3179/
  :date: 2023.03.16
  :image: https://images.keizai.biz/funabashi_keizai/headline/1678972542_photo.jpg
  :title: 習志野台で東日本大震災復興支援イベント「花いっぱい」　最終回に1万人
- :id: 3178
  :src: https://funabashi.keizai.biz/mapnews/3178
  :lat: 35.781887
  :lng: 139.9752691
  :link: https://funabashi.keizai.biz/headline/3178/
  :date: 2023.03.15
  :image: https://images.keizai.biz/funabashi_keizai/headline/1678868465_photo.jpg
  :title: "「新京成電鉄×ふなっしー」コラボ・グルメスタンプラリー　各店でサービスも"
- :id: 3177
  :src: https://funabashi.keizai.biz/mapnews/3177
  :lat: 35.7344134
  :lng: 140.0121888
  :link: https://funabashi.keizai.biz/headline/3177/
  :date: 2023.03.14
  :image: https://images.keizai.biz/funabashi_keizai/headline/1678805967_photo.jpg
  :title: 船橋・金杉台公園で初の「金杉台わんぱくらんど」　キッチンカーなど40店
- :id: 3176
  :src: https://funabashi.keizai.biz/mapnews/3176
  :lat: 35.7311801
  :lng: 140.0350763
  :link: https://funabashi.keizai.biz/headline/3176/
  :date: 2023.03.12
  :image: https://images.keizai.biz/funabashi_keizai/headline/1678601926_photo.jpg
  :title: 船橋・高根台にハードパン専門店「せいわや」　手作り酵母と長時間・低温発酵にこだわり
- :id: 3175
  :src: https://funabashi.keizai.biz/mapnews/3175
  :lat: 35.6710568
  :lng: 139.9985567
  :link: https://funabashi.keizai.biz/headline/3175/
  :date: 2023.03.11
  :image: https://images.keizai.biz/funabashi_keizai/headline/1678511175_photo.jpg
  :title: 船橋で「新京成カップ沿線4市U-10サッカー大会」　船橋など4市の交流図る
- :id: 3174
  :src: https://funabashi.keizai.biz/mapnews/3174
  :lat: 35.6927812
  :lng: 140.0227357
  :link: https://funabashi.keizai.biz/headline/3174/
  :date: 2023.03.09
  :image: https://images.keizai.biz/funabashi_keizai/headline/1678336255_photo.jpg
  :title: 船橋・東部公民館で「さんしんの日」初開催　三線と沖縄の歌・踊り楽しむ
- :id: 3173
  :src: https://funabashi.keizai.biz/mapnews/3173
  :lat: 35.7009844
  :lng: 139.9871169
  :link: https://funabashi.keizai.biz/headline/3173/
  :date: 2023.03.05
  :image: https://images.keizai.biz/funabashi_keizai/headline/1678010917_photo.jpg
  :title: 船橋駅南口エリアに「大衆バル　トリーズ」　鶏肉使った料理を中心に
- :id: 3172
  :src: https://funabashi.keizai.biz/mapnews/3172
  :lat: 35.6923624
  :lng: 140.0221341
  :link: https://funabashi.keizai.biz/headline/3172/
  :date: 2023.03.04
  :image: https://images.keizai.biz/funabashi_keizai/headline/1677899132_photo.jpg
  :title: 津田沼パルコ、45年の歴史に幕　レーザー光線で感謝のメッセージも
- :id: 3171
  :src: https://funabashi.keizai.biz/mapnews/3171
  :lat: 35.7146062
  :lng: 139.9429378
  :link: https://funabashi.keizai.biz/headline/3171/
  :date: 2023.03.02
  :image: https://images.keizai.biz/funabashi_keizai/headline/1677729094_photo.jpg
  :title: 船橋・中山地区で「中山のおひなまつり」　法華経寺周辺がひな祭り一色に
- :id: 3170
  :src: https://funabashi.keizai.biz/mapnews/3170
  :lat: 35.7039488
  :lng: 139.9947333
  :link: https://funabashi.keizai.biz/headline/3170/
  :date: 2023.02.26
  :image: https://images.keizai.biz/funabashi_keizai/headline/1677404301_photo.jpg
  :title: 船橋市場の三代目田久保食堂が「こぼれ海鮮丼」　市場の新名物目指して開発
- :id: 3169
  :src: https://funabashi.keizai.biz/mapnews/3169
  :lat: 35.7208594
  :lng: 140.0435827
  :link: https://funabashi.keizai.biz/headline/3169/
  :date: 2023.02.19
  :image: https://images.keizai.biz/funabashi_keizai/headline/1676772318_photo.jpg
  :title: 北習志野にドーナツ店「シウナススイーツ」　野菜など使いカラフルに
- :id: 3168
  :src: https://funabashi.keizai.biz/mapnews/3168
  :lat: 35.697747
  :lng: 139.9855483
  :link: https://funabashi.keizai.biz/headline/3168/
  :date: 2023.02.15
  :image: https://images.keizai.biz/funabashi_keizai/headline/1676450400_photo.jpg
  :title: 船橋市民ギャラリーで「蔵出し展」　徳川家康による「天正検地帳」公開も
- :id: 3167
  :src: https://funabashi.keizai.biz/mapnews/3167
  :lat: 35.6945622
  :lng: 139.9822825
  :link: https://funabashi.keizai.biz/headline/3167/
  :date: 2023.02.12
  :image: https://images.keizai.biz/funabashi_keizai/headline/1676194311_photo.jpg
  :title: 船橋が拠点の3人制プロバスケ「SAKURA」、市長を表敬訪問　意気込み語る
- :id: 3166
  :src: https://funabashi.keizai.biz/mapnews/3166
  :lat: 35.7965606
  :lng: 140.0248882
  :link: https://funabashi.keizai.biz/headline/3166/
  :date: 2023.02.10
  :image: https://images.keizai.biz/funabashi_keizai/headline/1675997136_photo.jpg
  :title: 鎌ケ谷にキャンプ場「シェルターベース」　船橋の企業が開設、初心者向けプランも
- :id: 3165
  :src: https://funabashi.keizai.biz/mapnews/3165
  :lat: 35.7294115
  :lng: 140.0518966
  :link: https://funabashi.keizai.biz/headline/3165/
  :date: 2023.02.09
  :image: https://images.keizai.biz/funabashi_keizai/headline/1675854916_photo.jpg
  :title: 船橋アリーナで「音楽のまち・ふなばし 千人の音楽祭」　3年ぶりにリアル開催
- :id: 3164
  :src: https://funabashi.keizai.biz/mapnews/3164
  :lat: 35.6728324
  :lng: 139.9684969
  :link: https://funabashi.keizai.biz/headline/3164/
  :date: 2023.02.08
  :image: https://images.keizai.biz/funabashi_keizai/headline/1675847485_photo.jpg
  :title: 船橋で廃ペットボトルを活用した道路修繕　関東の自治体で初の試み
- :id: 3163
  :src: https://funabashi.keizai.biz/mapnews/3163
  :lat: 35.6965048
  :lng: 139.9845839
  :link: https://funabashi.keizai.biz/headline/3163/
  :date: 2023.02.04
  :image: https://images.keizai.biz/funabashi_keizai/headline/1675569411_photo.jpg
  :title: 船橋市民文化ホールでニューイヤー・ガラコンサート　船橋ゆかりのソリストら集結
- :id: 3162
  :src: https://funabashi.keizai.biz/mapnews/3162
  :lat: 35.7855041
  :lng: 140.0793738
  :link: https://funabashi.keizai.biz/headline/3162/
  :date: 2023.02.01
  :image: https://images.keizai.biz/funabashi_keizai/headline/1675243544_photo.jpg
  :title: 小室駅近くにイチゴ狩りスポット「やまざきファーム」　直売所も併設
- :id: 3161
  :src: https://funabashi.keizai.biz/mapnews/3161
  :lat: 35.781887
  :lng: 139.9752691
  :link: https://funabashi.keizai.biz/headline/3161/
  :date: 2023.01.27
  :image: https://images.keizai.biz/funabashi_keizai/headline/1674828338_photo.jpg
  :title: 新京成電鉄が「新京成で行くいちご狩り」　過去最多9園と連携
- :id: 3160
  :src: https://funabashi.keizai.biz/mapnews/3160
  :lat: 35.7214813
  :lng: 140.0433135
  :link: https://funabashi.keizai.biz/headline/3160/
  :date: 2023.01.26
  :image: https://images.keizai.biz/funabashi_keizai/headline/1674739244_photo.jpg
  :title: 北習志野駅近くに「千葉ベーカリー　ランツェ」　地元食材を使ったパンを販売
- :id: 3159
  :src: https://funabashi.keizai.biz/mapnews/3159
  :lat: 35.7294115
  :lng: 140.0518966
  :link: https://funabashi.keizai.biz/headline/3159/
  :date: 2023.01.23
  :image: https://images.keizai.biz/funabashi_keizai/headline/1674471863_photo.jpg
  :title: 体操五輪代表・杉原愛子選手、船橋で子どもたちに模範演技披露　跳び箱指導も
- :id: 3158
  :src: https://funabashi.keizai.biz/mapnews/3158
  :lat: 35.723158
  :lng: 140.0458612
  :link: https://funabashi.keizai.biz/headline/3158/
  :date: 2023.01.22
  :image: https://images.keizai.biz/funabashi_keizai/headline/1674371673_photo.jpg
  :title: JuJuきたならに「北習志野てわたし図書館」　レンタルスペースも併設
- :id: 3157
  :src: https://funabashi.keizai.biz/mapnews/3157
  :lat: 35.6819257
  :lng: 139.9940668
  :link: https://funabashi.keizai.biz/headline/3157/
  :date: 2023.01.19
  :image: https://images.keizai.biz/funabashi_keizai/headline/1674139791_photo.jpg
  :title: JR東日本「駅ハイ」　京葉線南船橋駅がスタート地点のイベント始まる
- :id: 3156
  :src: https://funabashi.keizai.biz/mapnews/3156
  :lat: 35.6945622
  :lng: 139.9822825
  :link: https://funabashi.keizai.biz/headline/3156/
  :date: 2023.01.17
  :image: https://images.keizai.biz/funabashi_keizai/headline/1673967080_photo.jpg
  :title: 女子ソフトボールの濱村ゆかり選手がMVP受賞　松戸徹市長に報告
- :id: 3155
  :src: https://funabashi.keizai.biz/mapnews/3155
  :lat: 35.7294115
  :lng: 140.0518966
  :link: https://funabashi.keizai.biz/headline/3155/
  :date: 2023.01.13
  :image: https://images.keizai.biz/funabashi_keizai/headline/1673618718_photo.jpg
  :title: 船橋アリーナで「船橋市成人式」　新成人によるパフォーマンスも
- :id: 3154
  :src: https://funabashi.keizai.biz/mapnews/3154
  :lat: 35.6945622
  :lng: 139.9822825
  :link: https://funabashi.keizai.biz/headline/3154/
  :date: 2023.01.11
  :image: https://images.keizai.biz/funabashi_keizai/headline/1673416996_photo.jpg
  :title: 船橋市役所前で新春恒例のはしご乗り、高さ6メートル超での伝統芸に歓声
- :id: 3153
  :src: https://funabashi.keizai.biz/mapnews/3153
  :lat: 35.781871
  :lng: 139.9752983
  :link: https://funabashi.keizai.biz/headline/3153/
  :date: 2023.01.05
  :image: https://images.keizai.biz/funabashi_keizai/headline/1672897761_photo.jpg
  :title: 新京成線乗り降り自由の「年末年始1日乗車券」　飲食などの割引サービスも
- :id: 3152
  :src: https://funabashi.keizai.biz/mapnews/3152
  :lat: 35.7111777
  :lng: 140.0518596
  :link: https://funabashi.keizai.biz/headline/3152/
  :date: 2023.01.03
  :image: https://images.keizai.biz/funabashi_keizai/headline/1672758497_photo.jpg
  :title: 陸上自衛隊習志野演習場で落下傘部隊の「降下訓練始め」 3年ぶりに一般公開
- :id: 3151
  :src: https://funabashi.keizai.biz/mapnews/3151
  :lat: 35.6962214
  :lng: 139.9929871
  :link: https://funabashi.keizai.biz/headline/3151/
  :date: 2023.01.03
  :image: https://images.keizai.biz/funabashi_keizai/headline/1672709541_photo.jpg
  :title: 初詣参拝者でにぎわう船橋大神宮　元日の神楽は今年は中止に
- :id: 3150
  :src: https://funabashi.keizai.biz/mapnews/3150
  :lat: 35.7214813
  :lng: 140.0433135
  :link: https://funabashi.keizai.biz/headline/3150/
  :date: 2022.12.29
  :image: https://images.keizai.biz/funabashi_keizai/headline/1672282101_photo.jpg
  :title: 北習志野駅近くにラーメン居酒屋「麺小屋らっぺ」　「乾杯から〆まで」提供
- :id: 3149
  :src: https://funabashi.keizai.biz/mapnews/3149
  :lat: 35.6793077
  :lng: 139.9898479
  :link: https://funabashi.keizai.biz/headline/3149/
  :date: 2022.12.24
  :image: https://images.keizai.biz/funabashi_keizai/headline/1671852336_photo.jpg
  :title: "「街ガチャin船橋」第3弾、販売開始　市船SOUL・ジャンボくんなど10種"
- :id: 3148
  :src: https://funabashi.keizai.biz/mapnews/3148
  :lat: 35.6945387
  :lng: 139.9823176
  :link: https://funabashi.keizai.biz/headline/3148/
  :date: 2022.12.23
  :image: https://images.keizai.biz/funabashi_keizai/headline/1671759679_photo.jpg
  :title: 巨人に入団する市船の森本哲星選手、船橋市長と教育長に意気込み語る
- :id: 3147
  :src: https://funabashi.keizai.biz/mapnews/3147
  :lat: 35.7279074
  :lng: 139.9958307
  :link: https://funabashi.keizai.biz/headline/3147/
  :date: 2022.12.21
  :image: https://images.keizai.biz/funabashi_keizai/headline/1671627540_photo.jpg
  :title: "「市立船橋スポーツフェス」に200人超　市船サッカー部と野球部が小学生を指導"
- :id: 3146
  :src: https://funabashi.keizai.biz/mapnews/3146
  :lat: 35.7565204
  :lng: 140.0691761
  :link: https://funabashi.keizai.biz/headline/3146/
  :date: 2022.12.20
  :image: https://images.keizai.biz/funabashi_keizai/headline/1671517935_photo.jpg
