---
- :id: 1854
  :src: https://omiya.keizai.biz/mapnews/1854
  :lat: 35.94850479999999
  :lng: 139.6964962
  :link: https://omiya.keizai.biz/headline/1854/
  :date: 2024.05.08
  :image: https://images.keizai.biz/omiya_keizai/headline/1715150229_photo.jpg
  :title: さいたま・岩槻にクロワッサンのスイーツカフェ　シェアキッチンで週一営業
- :id: 1853
  :src: https://omiya.keizai.biz/mapnews/1853
  :lat: 35.9126104
  :lng: 139.6526836
  :link: https://omiya.keizai.biz/headline/1853/
  :date: 2024.05.01
  :image: https://images.keizai.biz/omiya_keizai/headline/1714569087_photo.jpg
  :title: 珠洲市の被災農家にケール苗3万株　さいたまのトキタ種苗が無償提供
- :id: 1852
  :src: https://omiya.keizai.biz/mapnews/1852
  :lat: 35.9084665
  :lng: 139.5943981
  :link: https://omiya.keizai.biz/headline/1852/
  :date: 2024.04.30
  :image: https://images.keizai.biz/omiya_keizai/headline/1714486486_photo.jpg
  :title: さいたまに8階建て純木造ビル　CO2削減し環境問題解決に貢献
- :id: 1851
  :src: https://omiya.keizai.biz/mapnews/1851
  :lat: 35.8748021
  :lng: 139.6244902
  :link: https://omiya.keizai.biz/headline/1851/
  :date: 2024.04.27
  :image: https://images.keizai.biz/omiya_keizai/headline/1714191196_photo.jpg
  :title: さいたまで「植物にいやされるマルシェ」　みどりの日に10回目の開催へ
- :id: 1850
  :src: https://omiya.keizai.biz/mapnews/1850
  :lat: 35.9732257
  :lng: 139.5897726
  :link: https://omiya.keizai.biz/headline/1850/
  :date: 2024.04.23
  :image: https://images.keizai.biz/omiya_keizai/headline/1714011394_photo.jpg
  :title: 丸広百貨店上尾店屋上で初の「上尾串ぎょうざフェス」　9店舗出店へ
- :id: 1849
  :src: https://omiya.keizai.biz/mapnews/1849
  :lat: 35.9274191
  :lng: 139.6160044
  :link: https://omiya.keizai.biz/headline/1849/
  :date: 2024.04.19
  :image: https://images.keizai.biz/omiya_keizai/headline/1713511810_photo.jpg
  :title: 大宮の「おふろカフェ」に北欧メニューのカフェ　オーロラパフェも
- :id: 1848
  :src: https://omiya.keizai.biz/mapnews/1848
  :lat: 35.9083348
  :lng: 139.6254456
  :link: https://omiya.keizai.biz/headline/1848/
  :date: 2024.04.13
  :image: https://images.keizai.biz/omiya_keizai/headline/1712959646_photo.jpg
  :title: "「大宮ホコ天ライブパフォーマンス」が3箇所で開催　9年目、70回記念を迎える"
- :id: 1847
  :src: https://omiya.keizai.biz/mapnews/1847
  :lat: 36.0057522
  :lng: 139.6135395
  :link: https://omiya.keizai.biz/headline/1847/
  :date: 2024.04.08
  :image: https://images.keizai.biz/omiya_keizai/headline/1712564380_photo.jpg
  :title: 伊奈町で梨の「花粉銀行」　今年は寒気の影響で例年より遅い実施に
- :id: 1846
  :src: https://omiya.keizai.biz/mapnews/1846
  :lat: 35.8833466
  :lng: 139.6354856
  :link: https://omiya.keizai.biz/headline/1846/
  :date: 2024.04.05
  :image: https://images.keizai.biz/omiya_keizai/headline/1712310033_photo.jpg
  :title: 与野に「おむすびとお惣菜のお店 おとなりさん」　さいたま市産の米・野菜使う
- :id: 1845
  :src: https://omiya.keizai.biz/mapnews/1845
  :lat: 35.9169402
  :lng: 139.6311827
  :link: https://omiya.keizai.biz/headline/1845/
  :date: 2024.03.27
  :image: https://images.keizai.biz/omiya_keizai/headline/1711512093_photo.jpg
  :title: 大宮・氷川神社の参道で和傘イベント　ミニ新幹線、盆栽や似顔絵コーナーも
- :id: 1844
  :src: https://omiya.keizai.biz/mapnews/1844
  :lat: 35.8958255
  :lng: 139.6350177
  :link: https://omiya.keizai.biz/headline/1844/
  :date: 2024.03.18
  :image: https://images.keizai.biz/omiya_keizai/headline/1710751851_photo.jpg
  :title: コクーンシティでパンフェス「パンタスティック」　県内・関東から63店
- :id: 1843
  :src: https://omiya.keizai.biz/mapnews/1843
  :lat: 35.9299458
  :lng: 139.6509777
  :link: https://omiya.keizai.biz/headline/1843/
  :date: 2024.03.16
  :image: https://images.keizai.biz/omiya_keizai/headline/1710516704_photo.jpg
  :title: さいたまの予約制飲食店が1周年　自作の野菜や米で季節のメニュー
- :id: 1842
  :src: https://omiya.keizai.biz/mapnews/1842
  :lat: 35.8770996
  :lng: 139.6221037
  :link: https://omiya.keizai.biz/headline/1842/
  :date: 2024.03.14
  :image: https://images.keizai.biz/omiya_keizai/headline/1710387254_photo.jpg
  :title: さいたま芸術劇場にアート遊びスペース「クリップ」　県内初出店
- :id: 1841
  :src: https://omiya.keizai.biz/mapnews/1841
  :lat: 35.8701689
  :lng: 139.6300423
  :link: https://omiya.keizai.biz/headline/1841/
  :date: 2024.03.13
  :image: https://images.keizai.biz/omiya_keizai/headline/1710204088_photo.jpg
  :title: 南与野駅西口・Kaya-Machi（かやまち）に「ドトール」のドッグカフェ業態　全国4店舗目
- :id: 1840
  :src: https://omiya.keizai.biz/mapnews/1840
  :lat: 35.8770332
  :lng: 139.6319597
  :link: https://omiya.keizai.biz/headline/1840/
  :date: 2024.03.10
  :image: https://images.keizai.biz/omiya_keizai/headline/1710032980_photo.jpg
  :title: 与野でオープンミーティング　与野中央公園アリーナ建設等の整備計画について話し合う
- :id: 1839
  :src: https://omiya.keizai.biz/mapnews/1839
  :lat: 35.9059712
  :lng: 139.6250169
  :link: https://omiya.keizai.biz/headline/1839/
  :date: 2024.03.02
  :image: https://images.keizai.biz/omiya_keizai/headline/1709302221_photo.jpg
  :title: 大宮駅の駅ナカに体験型ショールーミング店　アバター接客も
- :id: 1838
  :src: https://omiya.keizai.biz/mapnews/1838
  :lat: 35.9064627
  :lng: 139.6257643
  :link: https://omiya.keizai.biz/headline/1838/
  :date: 2024.03.01
  :image: https://images.keizai.biz/omiya_keizai/headline/1709255991_photo.jpg
  :title: 大宮の路上アートマーケット「画家の小道」で初のライブペイント祭り
- :id: 1837
  :src: https://omiya.keizai.biz/mapnews/1837
  :lat: 35.9500948
  :lng: 139.6932484
  :link: https://omiya.keizai.biz/headline/1837/
  :date: 2024.02.29
  :image: https://images.keizai.biz/omiya_keizai/headline/1709187031_photo.jpg
  :title: さいたま・岩槻で子どもと遊びをテーマにしたセミナー
- :id: 1836
  :src: https://omiya.keizai.biz/mapnews/1836
  :lat: 35.9055332
  :lng: 139.6241707
  :link: https://omiya.keizai.biz/headline/1836/
  :date: 2024.02.28
  :image: https://images.keizai.biz/omiya_keizai/headline/1709093090_photo.jpg
  :title: SUUMO住みたい街ランキング2024発表　大宮が2位に
- :id: 1835
  :src: https://omiya.keizai.biz/mapnews/1835
  :lat: 35.948181
  :lng: 139.6420211
  :link: https://omiya.keizai.biz/headline/1835/
  :date: 2024.02.27
  :image: https://images.keizai.biz/omiya_keizai/headline/1708997372_photo.jpg
  :title: 東大宮に寒天専門店「かんてんぱぱショップ」　埼玉県内初の直営店
- :id: 1834
  :src: https://omiya.keizai.biz/mapnews/1834
  :lat: 35.9077694
  :lng: 139.6255083
  :link: https://omiya.keizai.biz/headline/1834/
  :date: 2024.02.26
  :image: https://images.keizai.biz/omiya_keizai/headline/1708866391_photo.jpg
  :title: 大宮で公園に役立つアプリやサービスを考えるイベント
- :id: 1833
  :src: https://omiya.keizai.biz/mapnews/1833
  :lat: 35.9519653
  :lng: 139.7109231
  :link: https://omiya.keizai.biz/headline/1833/
  :date: 2024.02.23
  :image: https://images.keizai.biz/omiya_keizai/headline/1708661096_photo.jpg
  :title: 岩槻城址公園の菖蒲池で流しびな　子どもの無病息災願う
- :id: 1832
  :src: https://omiya.keizai.biz/mapnews/1832
  :lat: 35.9791042
  :lng: 139.5983188
  :link: https://omiya.keizai.biz/headline/1832/
  :date: 2024.02.19
  :image: https://images.keizai.biz/omiya_keizai/headline/1708350777_photo.jpg
  :title: 子どもの居場所を描いた実録映画「ゆめパの時間」　上尾で上映会
- :id: 1831
  :src: https://omiya.keizai.biz/mapnews/1831
  :lat: 35.8770996
  :lng: 139.6221037
  :link: https://omiya.keizai.biz/headline/1831/
  :date: 2024.02.16
  :image: https://images.keizai.biz/omiya_keizai/headline/1708071745_photo.jpg
  :title: さいたま芸術劇場がリニューアルオープン 劇場内覧会に3000人
- :id: 1830
  :src: https://omiya.keizai.biz/mapnews/1830
  :lat: 35.9085742
  :lng: 139.6251605
  :link: https://omiya.keizai.biz/headline/1830/
  :date: 2024.02.15
  :image: https://images.keizai.biz/omiya_keizai/headline/1707979678_photo.jpg
  :title: 大宮でメキシコ料理を楽しむイベント　
- :id: 1829
  :src: https://omiya.keizai.biz/mapnews/1829
  :lat: 35.91148039999999
  :lng: 139.631042
  :link: https://omiya.keizai.biz/headline/1829/
  :date: 2024.02.12
  :image: https://images.keizai.biz/omiya_keizai/headline/1707745251_photo.jpg
  :title: 大宮・氷川参道沿いに小劇場　地域や文化をつなぐにぎわいの拠点に
- :id: 1828
  :src: https://omiya.keizai.biz/mapnews/1828
  :lat: 35.9017494
  :lng: 139.631406
  :link: https://omiya.keizai.biz/headline/1828/
  :date: 2024.02.09
  :image: https://images.keizai.biz/omiya_keizai/headline/1707450532_photo.jpg
  :title: 大宮・氷川参道にイタリアンカフェ　20年越しの夫婦の夢を形に
- :id: 1827
  :src: https://omiya.keizai.biz/mapnews/1827
  :lat: 35.9078587
  :lng: 139.6206849
  :link: https://omiya.keizai.biz/headline/1827/
  :date: 2024.02.06
  :image: https://images.keizai.biz/omiya_keizai/headline/1707186534_photo.jpg
  :title: さいたまの相続関連の専門家が事業継承に関する本を自費出版
- :id: 1826
  :src: https://omiya.keizai.biz/mapnews/1826
  :lat: 35.9511268
  :lng: 139.6952365
  :link: https://omiya.keizai.biz/headline/1826/
  :date: 2024.02.02
  :image: https://images.keizai.biz/omiya_keizai/headline/1706876524_photo.jpg
  :title: 岩槻にハワイ料理・ポケ丼専門店「ポケヤ」　スプーンで食べる海鮮丼提供
- :id: 1825
  :src: https://omiya.keizai.biz/mapnews/1825
  :lat: 35.90792950000001
  :lng: 139.624792
  :link: https://omiya.keizai.biz/headline/1825/
  :date: 2024.02.01
  :image: https://images.keizai.biz/omiya_keizai/headline/1706798233_photo.jpg
  :title: 大宮東口でチャリティーライブ　能登地震被災者支援募金呼びかけ
- :id: 1824
  :src: https://omiya.keizai.biz/mapnews/1824
  :lat: 35.8949557
  :lng: 139.6307672
  :link: https://omiya.keizai.biz/headline/1824/
  :date: 2024.01.29
  :image: https://images.keizai.biz/omiya_keizai/headline/1706537811_photo.jpg
  :title: さいたまスーパーアリーナで展示会「彩の国ビジネスアリーナ」
- :id: 1823
  :src: https://omiya.keizai.biz/mapnews/1823
  :lat: 35.90398830000001
  :lng: 139.6203463
  :link: https://omiya.keizai.biz/headline/1823/
  :date: 2024.01.27
  :image: https://images.keizai.biz/omiya_keizai/headline/1706281812_photo.jpg
  :title: 大宮で「20歳未満喫煙防止協議会」　9団体が参加し取り組み報告
- :id: 1822
  :src: https://omiya.keizai.biz/mapnews/1822
  :lat: 35.8601856
  :lng: 139.6543079
  :link: https://omiya.keizai.biz/headline/1822/
  :date: 2024.01.25
  :image: https://images.keizai.biz/omiya_keizai/headline/1706165803_photo.jpg
  :title: "「さいたま市長杯 ヨーロッパ野菜料理コンテスト」 受賞者決まる"
- :id: 1821
  :src: https://omiya.keizai.biz/mapnews/1821
  :lat: 35.8840641
  :lng: 139.6285482
  :link: https://omiya.keizai.biz/headline/1821/
  :date: 2024.01.22
  :image: https://images.keizai.biz/omiya_keizai/headline/1705913426_photo.jpg
  :title: 児童虐待を経験した若者たちの声を集めた実録映画　さいたまで上映
- :id: 1820
  :src: https://omiya.keizai.biz/mapnews/1820
  :lat: 35.9323494
  :lng: 139.6618301
  :link: https://omiya.keizai.biz/headline/1820/
  :date: 2024.01.17
  :image: https://images.keizai.biz/omiya_keizai/headline/1705403384_photo.jpg
  :title: さいたま市見沼区の小沢農園直売所、イチゴの販売始める
- :id: 1819
  :src: https://omiya.keizai.biz/mapnews/1819
  :lat: 35.9458176
  :lng: 139.6344898
  :link: https://omiya.keizai.biz/headline/1819/
  :date: 2024.01.10
  :image: https://images.keizai.biz/omiya_keizai/headline/1704857742_photo.jpg
  :title: 私立中入試始まる　さいたま市栄東中学校で5600人受験
- :id: 1818
  :src: https://omiya.keizai.biz/mapnews/1818
  :lat: 35.8937697
  :lng: 139.6336693
  :link: https://omiya.keizai.biz/headline/1818/
  :date: 2024.01.09
  :image: https://images.keizai.biz/omiya_keizai/headline/1704779906_photo.jpg
  :title: さいたま新都心駅コンコースにDJブース　「さいたま市二十歳の集い」祝う
- :id: 1817
  :src: https://omiya.keizai.biz/mapnews/1817
  :lat: 35.90792950000001
  :lng: 139.624792
  :link: https://omiya.keizai.biz/headline/1817/
  :date: 2024.01.07
  :image: https://images.keizai.biz/omiya_keizai/headline/1704588094_photo.jpg
  :title: 大宮で「副業・起業のスモールビジネスの秘訣セミナー」
- :id: 1816
  :src: https://omiya.keizai.biz/mapnews/1816
  :lat: 35.9102734
  :lng: 139.6238321
  :link: https://omiya.keizai.biz/headline/1816/
  :date: 2024.01.06
  :image: https://images.keizai.biz/omiya_keizai/headline/1704533719_photo.jpg
  :title: 大宮東口にカイロプラクティック　はり・きゅうの施術も
- :id: 1815
  :src: https://omiya.keizai.biz/mapnews/1815
  :lat: 35.9274191
  :lng: 139.6160044
  :link: https://omiya.keizai.biz/headline/1815/
  :date: 2024.01.03
  :image: https://images.keizai.biz/omiya_keizai/headline/1704288201_photo.jpg
  :title: 大宮の温浴施設で「成人割」　若者にお風呂文化体験の機会提供
- :id: 1814
  :src: https://omiya.keizai.biz/mapnews/1814
  :lat: 35.893661
  :lng: 139.634318
  :link: https://omiya.keizai.biz/headline/1814/
  :date: 2023.12.27
  :image: https://images.keizai.biz/omiya_keizai/headline/1703636422_photo.jpg
  :title: さいたま新都心のシェアキッチンにラーメン「麺屋夏鈴」　子連れ客にも配慮
- :id: 1813
  :src: https://omiya.keizai.biz/mapnews/1813
  :lat: 35.8844344
  :lng: 139.6326949
  :link: https://omiya.keizai.biz/headline/1813/
  :date: 2023.12.21
  :image: https://images.keizai.biz/omiya_keizai/headline/1703127938_photo.jpg
  :title: 与野のコーヒー店が1周年　自家焙煎のコーヒー豆を販売、自家製焼き菓子も
- :id: 1812
  :src: https://omiya.keizai.biz/mapnews/1812
  :lat: 35.9344424
  :lng: 139.6574525
  :link: https://omiya.keizai.biz/headline/1812/
  :date: 2023.12.19
  :image: https://images.keizai.biz/omiya_keizai/headline/1702963507_photo.jpg
  :title: さいたま市・図書館隣りにエシカルカフェ　人と自然と地域社会つなぐ拠点に
- :id: 1811
  :src: https://omiya.keizai.biz/mapnews/1811
  :lat: 35.883941
  :lng: 139.6263619
  :link: https://omiya.keizai.biz/headline/1811/
  :date: 2023.12.18
  :image: https://images.keizai.biz/omiya_keizai/headline/1702909950_photo.jpg
  :title: さいたま・中央区役所壁面アート完成披露会　チョウとバラで歴史と未来描く
- :id: 1810
  :src: https://omiya.keizai.biz/mapnews/1810
  :lat: 35.9078994
  :lng: 139.6304396
  :link: https://omiya.keizai.biz/headline/1810/
  :date: 2023.12.15
  :image: https://images.keizai.biz/omiya_keizai/headline/1702620581_photo.jpg
  :title: 大宮経の年間PV1位は「給食カフェ1年6組」　現役大学生が期間限定営業
- :id: 1809
  :src: https://omiya.keizai.biz/mapnews/1809
  :lat: 35.9047487
  :lng: 139.6185139
  :link: https://omiya.keizai.biz/headline/1809/
  :date: 2023.12.04
  :image: https://images.keizai.biz/omiya_keizai/headline/1701672053_photo.jpg
  :title: 埼玉県オープンイノベーションセミナー　起業家や異業種企業の交流を目指す
- :id: 1808
  :src: https://omiya.keizai.biz/mapnews/1808
  :lat: 35.90792950000001
  :lng: 139.624792
  :link: https://omiya.keizai.biz/headline/1808/
  :date: 2023.12.02
  :image: https://images.keizai.biz/omiya_keizai/headline/1701528643_photo.jpg
  :title: 大宮で、若手の税理士・公認会計士の交流会イベント「ふらっと」
- :id: 1807
  :src: https://omiya.keizai.biz/mapnews/1807
  :lat: 35.8966458
  :lng: 139.6224477
  :link: https://omiya.keizai.biz/headline/1807/
  :date: 2023.11.30
  :image: https://images.keizai.biz/omiya_keizai/headline/1701321581_photo.jpg
  :title: 北与野に本と人をつなぐ「でこぼこ書店」　書店×教育をコンセプトに
- :id: 1806
  :src: https://omiya.keizai.biz/mapnews/1806
  :lat: 35.9208756
  :lng: 139.6314616
  :link: https://omiya.keizai.biz/headline/1806/
  :date: 2023.11.27
  :image: https://images.keizai.biz/omiya_keizai/headline/1701072378_photo.jpg
  :title: 大宮公園で「ボート池復活祭」　落ち葉拾いで焼き芋大会、人力車体験も
- :id: 1805
  :src: https://omiya.keizai.biz/mapnews/1805
  :lat: 35.9073402
  :lng: 139.6271701
  :link: https://omiya.keizai.biz/headline/1805/
  :date: 2023.11.22
  :image: https://images.keizai.biz/omiya_keizai/headline/1700620382_photo.jpg
  :title: 大宮でアート展「わたしたちの種」　古着ニットの糸で「未来へ届ける種」
- :id: 1804
  :src: https://omiya.keizai.biz/mapnews/1804
  :lat: 35.9073402
  :lng: 139.6271701
  :link: https://omiya.keizai.biz/headline/1804/
  :date: 2023.11.20
  :image: https://images.keizai.biz/omiya_keizai/headline/1700396613_photo.jpg
  :title: 大宮駅東口で公共空間利活用の社会実験　古着店・飲食店の市やダンスなど披露
- :id: 1803
  :src: https://omiya.keizai.biz/mapnews/1803
  :lat: 35.90792950000001
  :lng: 139.624792
  :link: https://omiya.keizai.biz/headline/1803/
  :date: 2023.11.19
  :image: https://images.keizai.biz/omiya_keizai/headline/1700368056_photo.jpg
  :title: 子どもの商売体験プロジェクト「あきないキッズ」が焼き芋販売
- :id: 1802
  :src: https://omiya.keizai.biz/mapnews/1802
  :lat: 35.9274191
  :lng: 139.6160044
  :link: https://omiya.keizai.biz/headline/1802/
  :date: 2023.11.18
  :image: https://images.keizai.biz/omiya_keizai/headline/1700235605_photo.jpg
  :title: 大宮の温浴施設で「そこらへんの草の湯」　映画「翔んで埼玉」とコラボ
- :id: 1801
  :src: https://omiya.keizai.biz/mapnews/1801
  :lat: 35.9052385
  :lng: 139.6195496
  :link: https://omiya.keizai.biz/headline/1801/
  :date: 2023.11.16
  :image: https://images.keizai.biz/omiya_keizai/headline/1700101836_photo.jpg
  :title: 大宮でリバーサル商品合同発表会　コロナ禍で埋もれた新商品を改良発売
- :id: 1800
  :src: https://omiya.keizai.biz/mapnews/1800
  :lat: 35.9033598
  :lng: 139.6302464
  :link: https://omiya.keizai.biz/headline/1800/
  :date: 2023.11.13
  :image: https://images.keizai.biz/omiya_keizai/headline/1699875741_photo.jpg
  :title: 大宮ソニックシティで「親子の健康フェス」　歯科医師会が口の健康呼びかけ
- :id: 1799
  :src: https://omiya.keizai.biz/mapnews/1799
  :lat: 35.9078994
  :lng: 139.6304396
  :link: https://omiya.keizai.biz/headline/1799/
  :date: 2023.11.11
  :image: https://images.keizai.biz/omiya_keizai/headline/1699627493_photo.jpg
  :title: 大宮のコーヒータンドが「鉄道のまち大宮ブレンド」　JR東日本とコラボ
- :id: 1798
  :src: https://omiya.keizai.biz/mapnews/1798
  :lat: 35.9315024
  :lng: 139.620187
  :link: https://omiya.keizai.biz/headline/1798/
  :date: 2023.11.09
  :image: https://images.keizai.biz/omiya_keizai/headline/1699502296_photo.jpg
  :title: さいたま・北区で「ミニさいたま」　大人は入場禁止のこどものまち
- :id: 1797
  :src: https://omiya.keizai.biz/mapnews/1797
  :lat: 35.8919342
  :lng: 139.6252255
  :link: https://omiya.keizai.biz/headline/1797/
  :date: 2023.11.03
  :image: https://images.keizai.biz/omiya_keizai/headline/1698994765_photo.jpg
  :title: さいたまでハロウィーンイベント　参加枠400人、30分で満員に
- :id: 1796
  :src: https://omiya.keizai.biz/mapnews/1796
  :lat: 35.9189126
  :lng: 139.6318202
  :link: https://omiya.keizai.biz/headline/1796/
  :date: 2023.10.31
  :image: https://images.keizai.biz/omiya_keizai/headline/1698734908_photo.jpg
  :title: 大宮公園で「樹木を知る」観察会　初秋の草花やどんぐりも
- :id: 1795
  :src: https://omiya.keizai.biz/mapnews/1795
  :lat: 35.9089272
  :lng: 139.6259834
  :link: https://omiya.keizai.biz/headline/1795/
  :date: 2023.10.27
  :image: https://images.keizai.biz/omiya_keizai/headline/1698392389_photo.jpg
  :title: 大宮東口の焼き鳥店「新鶏」が3周年　記念の限定メニューも
- :id: 1794
  :src: https://omiya.keizai.biz/mapnews/1794
  :lat: 35.9092954
  :lng: 139.6291507
  :link: https://omiya.keizai.biz/headline/1794/
  :date: 2023.10.24
  :image: https://images.keizai.biz/omiya_keizai/headline/1698138614_photo.jpg
  :title: 大宮駅東口でアートイベント「アートフルゆめまつり」　76団体参加
- :id: 1793
  :src: https://omiya.keizai.biz/mapnews/1793
  :lat: 35.9507098
  :lng: 139.7089861
  :link: https://omiya.keizai.biz/headline/1793/
  :date: 2023.10.23
  :image: https://images.keizai.biz/omiya_keizai/headline/1698048188_photo.jpg
  :title: 岩槻で「人形供養祭」　僧侶の読経とともに役目終えた人形見送る
- :id: 1792
  :src: https://omiya.keizai.biz/mapnews/1792
  :lat: 35.9085742
  :lng: 139.6251605
  :link: https://omiya.keizai.biz/headline/1792/
  :date: 2023.10.21
  :image: https://images.keizai.biz/omiya_keizai/headline/1697840338_photo.jpg
  :title: 大宮でメキシコの盆行事「死者の日」イベント　楽しく先祖しのぶ
- :id: 1791
  :src: https://omiya.keizai.biz/mapnews/1791
  :lat: 35.8905952
  :lng: 139.62788
  :link: https://omiya.keizai.biz/headline/1791/
  :date: 2023.10.19
  :image: https://images.keizai.biz/omiya_keizai/headline/1697686466_photo.jpg
  :title: さいたま新都心で「ビジネス交流会」　日高屋会長とコロナ後の戦略考える
- :id: 1790
  :src: https://omiya.keizai.biz/mapnews/1790
  :lat: 35.9092132
  :lng: 139.6246905
  :link: https://omiya.keizai.biz/headline/1790/
  :date: 2023.10.14
  :image: https://images.keizai.biz/omiya_keizai/headline/1697236753_photo.jpg
  :title: 大宮駅東口のバー「グラス」が10周年
- :id: 1789
  :src: https://omiya.keizai.biz/mapnews/1789
  :lat: 35.9072763
  :lng: 139.625346
  :link: https://omiya.keizai.biz/headline/1789/
  :date: 2023.10.13
  :image: https://images.keizai.biz/omiya_keizai/headline/1697202121_photo.jpg
  :title: 大宮で北海道・東北水産フェア　三陸・常磐地域の水産物消費拡大支援
- :id: 1788
  :src: https://omiya.keizai.biz/mapnews/1788
  :lat: 35.923427
  :lng: 139.740689
  :link: https://omiya.keizai.biz/headline/1788/
  :date: 2023.10.13
  :image: https://images.keizai.biz/omiya_keizai/headline/1697165205_photo.jpg
  :title: 岩槻の老舗豆腐店が大豆スナック発売　ヨーロッパ野菜生産者や生徒とコラボ
- :id: 1787
  :src: https://omiya.keizai.biz/mapnews/1787
  :lat: 35.9059712
  :lng: 139.6250169
  :link: https://omiya.keizai.biz/headline/1787/
  :date: 2023.10.12
  :image: https://images.keizai.biz/omiya_keizai/headline/1697094956_photo.jpg
  :title: 大宮駅連絡通路で東西対決の綱引き大会　駅構内の「領土」拡大も
- :id: 1786
  :src: https://omiya.keizai.biz/mapnews/1786
  :lat: 35.8748021
  :lng: 139.6244902
  :link: https://omiya.keizai.biz/headline/1786/
  :date: 2023.10.09
  :image: https://images.keizai.biz/omiya_keizai/headline/1696778880_photo.jpg
  :title: 与野の「路地裏ガレージマーケット」が400回　小商い始めるきっかけに
- :id: 1785
  :src: https://omiya.keizai.biz/mapnews/1785
  :lat: 35.9256458
  :lng: 139.6317817
  :link: https://omiya.keizai.biz/headline/1785/
  :date: 2023.10.08
  :image: https://images.keizai.biz/omiya_keizai/headline/1696777219_photo.jpg
  :title: さいたま市立漫画会館で「魔夜峰央原画展」　私物や愛用品も
- :id: 1784
  :src: https://omiya.keizai.biz/mapnews/1784
  :lat: 35.9418525
  :lng: 139.6135335
  :link: https://omiya.keizai.biz/headline/1784/
  :date: 2023.10.04
  :image: https://images.keizai.biz/omiya_keizai/headline/1696439052_photo.jpg
  :title: さいたま・宮原に美容室「フロレゾン」　平日夜のみ営業
- :id: 1783
  :src: https://omiya.keizai.biz/mapnews/1783
  :lat: 35.9294995
  :lng: 139.6056885
  :link: https://omiya.keizai.biz/headline/1783/
  :date: 2023.10.03
  :image: https://images.keizai.biz/omiya_keizai/headline/1696345814_photo.jpg
  :title: さいたま市内の3つの公園で「移動型プレーパーク」
- :id: 1782
  :src: https://omiya.keizai.biz/mapnews/1782
  :lat: 35.9165789
  :lng: 139.5654979
  :link: https://omiya.keizai.biz/headline/1782/
  :date: 2023.10.02
  :image: https://images.keizai.biz/omiya_keizai/headline/1696210423_photo.jpg
  :title: さいたまに猫専門病院「ぽのいえ」　保護猫ルームも併設
- :id: 1781
  :src: https://omiya.keizai.biz/mapnews/1781
  :lat: 35.9362297
  :lng: 139.611603
  :link: https://omiya.keizai.biz/headline/1781/
  :date: 2023.09.28
  :image: https://images.keizai.biz/omiya_keizai/headline/1695888612_photo.jpg
  :title: さいたま市・宮原で手づかみ離乳食ランチ体験会　歯磨き体操も
- :id: 1780
  :src: https://omiya.keizai.biz/mapnews/1780
  :lat: 35.9185624
  :lng: 139.6402506
  :link: https://omiya.keizai.biz/headline/1780/
  :date: 2023.09.26
  :image: https://images.keizai.biz/omiya_keizai/headline/1695717101_photo.jpg
  :title: さいたまで「大宮公園防災車中泊＆キャンプFes.」　サッカー観戦やステージも
- :id: 1779
  :src: https://omiya.keizai.biz/mapnews/1779
  :lat: 35.9322256
  :lng: 139.6326172
  :link: https://omiya.keizai.biz/headline/1779/
  :date: 2023.09.21
  :image: https://images.keizai.biz/omiya_keizai/headline/1695274207_photo.jpg
  :title: さいたまで「落語×ごはん」　キッチン併設のコワーキングスペースが企画
- :id: 1778
  :src: https://omiya.keizai.biz/mapnews/1778
  :lat: 35.8949557
  :lng: 139.6307672
  :link: https://omiya.keizai.biz/headline/1778/
  :date: 2023.09.20
  :image: https://images.keizai.biz/omiya_keizai/headline/1695198113_photo.jpg
  :title: さいたまスーパーアリーナで子ども演劇ワークショップ　脚本作りから体験
- :id: 1777
  :src: https://omiya.keizai.biz/mapnews/1777
  :lat: 35.9052385
  :lng: 139.6195496
  :link: https://omiya.keizai.biz/headline/1777/
  :date: 2023.09.19
  :image: https://images.keizai.biz/omiya_keizai/headline/1695112717_photo.jpg
  :title: 大宮ソニックシティで講演会　「日本の医療・介護のこれから」テーマに
- :id: 1776
  :src: https://omiya.keizai.biz/mapnews/1776
  :lat: 35.9014612
  :lng: 139.6289515
  :link: https://omiya.keizai.biz/headline/1776/
  :date: 2023.09.16
  :image: https://images.keizai.biz/omiya_keizai/headline/1694838427_photo.jpg
  :title: さいたま市で「モノ・コト・ヒトめぐるマルシェ」　老舗リサイクル市が復活へ
- :id: 1775
  :src: https://omiya.keizai.biz/mapnews/1775
  :lat: 35.9242989263977
  :lng: 139.6220994582665
  :link: https://omiya.keizai.biz/headline/1775/
  :date: 2023.09.11
  :image: https://images.keizai.biz/omiya_keizai/headline/1694402134_photo.jpg
  :title: 学生服リユースショップ「さくらや」さいたま大宮店が移転リニューアル
- :id: 1774
  :src: https://omiya.keizai.biz/mapnews/1774
  :lat: 35.9033928
  :lng: 139.6267005
  :link: https://omiya.keizai.biz/headline/1774/
  :date: 2023.09.08
  :image: https://images.keizai.biz/omiya_keizai/headline/1694136181_photo.jpg
  :title: 大宮南銀「ブルームーン」が3周年　店主独学のスパイスカレーと酒を提供
- :id: 1773
  :src: https://omiya.keizai.biz/mapnews/1773
  :lat: 35.9054322
  :lng: 139.6187792
  :link: https://omiya.keizai.biz/headline/1773/
  :date: 2023.09.06
  :image: https://images.keizai.biz/omiya_keizai/headline/1693997235_photo.jpg
  :title: 大宮でウクレレサークル　地域での音楽普及を目指す
- :id: 1772
  :src: https://omiya.keizai.biz/mapnews/1772
  :lat: 35.9103265
  :lng: 139.618858
  :link: https://omiya.keizai.biz/headline/1772/
  :date: 2023.09.05
  :image: https://images.keizai.biz/omiya_keizai/headline/1693895369_photo.jpg
  :title: 大宮駅西口桜木駐車場で「おもちゃ花火大会」 同規模では今回が最後か
- :id: 1771
  :src: https://omiya.keizai.biz/mapnews/1771
  :lat: 35.9044993
  :lng: 139.6219749
  :link: https://omiya.keizai.biz/headline/1771/
  :date: 2023.09.01
  :image: https://images.keizai.biz/omiya_keizai/headline/1693572906_photo.jpg
  :title: 大宮そごうに「ミート矢澤テイクアウト」　県内初出店、1万円超の弁当も
- :id: 1770
  :src: https://omiya.keizai.biz/mapnews/1770
  :lat: 35.9497809
  :lng: 139.6972998
  :link: https://omiya.keizai.biz/headline/1770/
  :date: 2023.08.31
  :image: https://images.keizai.biz/omiya_keizai/headline/1693448421_photo.jpg
  :title: さいたま・岩槻に小学生から通えるフリースクール　街を周遊し学ぶ
- :id: 1769
  :src: https://omiya.keizai.biz/mapnews/1769
  :lat: 35.9047487
  :lng: 139.6185139
  :link: https://omiya.keizai.biz/headline/1769/
  :date: 2023.08.30
  :image: https://images.keizai.biz/omiya_keizai/headline/1693385599_photo.jpg
  :title: 大宮で子ども食堂のオープンデータ活用のアイデアソン・ハッカソン
- :id: 1768
  :src: https://omiya.keizai.biz/mapnews/1768
  :lat: 35.89024819999999
  :lng: 139.6193704
  :link: https://omiya.keizai.biz/headline/1768/
  :date: 2023.08.23
  :image: https://images.keizai.biz/omiya_keizai/headline/1692761836_photo.jpg
  :title: さいたまの讃岐うどん店がリニューアル　ぶっかけスタイル定着で店名変更
- :id: 1767
  :src: https://omiya.keizai.biz/mapnews/1767
  :lat: 35.9072763
  :lng: 139.625346
  :link: https://omiya.keizai.biz/headline/1767/
  :date: 2023.08.22
  :image: https://images.keizai.biz/omiya_keizai/headline/1692603267_photo.jpg
  :title: さいたま市内の小中学生が商品販売会　「さいたまあんとれすくーる」の一環で
- :id: 1766
  :src: https://omiya.keizai.biz/mapnews/1766
  :lat: 35.9103265
  :lng: 139.618858
  :link: https://omiya.keizai.biz/headline/1766/
  :date: 2023.08.18
  :image: https://images.keizai.biz/omiya_keizai/headline/1692363966_photo.jpg
  :title: 大宮で飲食と音楽の夏祭「ウイークエンドバイブス」　子ども向け企画も
- :id: 1765
  :src: https://omiya.keizai.biz/mapnews/1765
  :lat: 35.9009692
  :lng: 139.6890846
  :link: https://omiya.keizai.biz/headline/1765/
  :date: 2023.08.17
  :image: https://images.keizai.biz/omiya_keizai/headline/1692263918_photo.jpg
  :title: さいたま・見沼区で埼玉ブランドのジャンボ梨「彩玉」の出荷始まる
- :id: 1764
  :src: https://omiya.keizai.biz/mapnews/1764
  :lat: 35.9433746
  :lng: 139.6706867
  :link: https://omiya.keizai.biz/headline/1764/
  :date: 2023.08.13
  :image: https://images.keizai.biz/omiya_keizai/headline/1691910410_photo.jpg
  :title: さいたま・見沼で野菜や農業と触れ合うイベント　ヤギ触れ合いや料理体験も
- :id: 1763
  :src: https://omiya.keizai.biz/mapnews/1763
  :lat: 36.0196202
  :lng: 139.607199
  :link: https://omiya.keizai.biz/headline/1763/
  :date: 2023.08.11
  :image: https://images.keizai.biz/omiya_keizai/headline/1691724661_photo.jpg
  :title: 伊奈町で地域作り団体がサマーフェス　親子で楽しめる体験やワークショップも
- :id: 1762
  :src: https://omiya.keizai.biz/mapnews/1762
  :lat: 35.9064528
  :lng: 139.6216608
  :link: https://omiya.keizai.biz
  :date: 2000.01.23
  :image: "/images/omiya.png"
  :title: 404_Not_Found
- :id: 1761
  :src: https://omiya.keizai.biz/mapnews/1761
  :lat: 35.9000686
  :lng: 139.6311172
  :link: https://omiya.keizai.biz/headline/1761/
  :date: 2023.08.09
  :image: https://images.keizai.biz/omiya_keizai/headline/1691546261_photo.jpg
  :title: 大宮・氷川参道のママカフェが3周年　記念メニューや限定クッキー缶も
- :id: 1760
  :src: https://omiya.keizai.biz/mapnews/1760
  :lat: 35.91148039999999
  :lng: 139.631042
  :link: https://omiya.keizai.biz/headline/1760/
  :date: 2023.08.05
  :image: https://images.keizai.biz/omiya_keizai/headline/1691154608_photo.jpg
  :title: 大宮に盆栽×カフェのポップアップストア　盆栽の展示販売や撮影スポットも
- :id: 1759
  :src: https://omiya.keizai.biz/mapnews/1759
  :lat: 35.9617367
  :lng: 139.5660363
  :link: https://omiya.keizai.biz/headline/1759/
  :date: 2023.08.04
  :image: https://images.keizai.biz/omiya_keizai/headline/1691151665_photo.jpg
  :title: 上尾で「おもいでケータイ再起動」　電源が入らなくなったガラケーを復活
- :id: 1758
  :src: https://omiya.keizai.biz/mapnews/1758
  :lat: 35.9094621
  :lng: 139.6147497
  :link: https://omiya.keizai.biz/headline/1758/
  :date: 2023.08.02
  :image: https://images.keizai.biz/omiya_keizai/headline/1690961094_photo.jpg
  :title: さいたま・大成八幡神社で4年ぶりの夏祭り 伝統行事「みそぎの儀」も
- :id: 1757
  :src: https://omiya.keizai.biz/mapnews/1757
  :lat: 35.9060091
  :lng: 139.6267914
  :link: https://omiya.keizai.biz/headline/1757/
  :date: 2023.07.31
  :image: https://images.keizai.biz/omiya_keizai/headline/1690763393_photo.jpg
  :title: 大宮に元学芸員が「人文学カフェ」　万葉集クリームソーダや考古クッキーも
- :id: 1756
  :src: https://omiya.keizai.biz/mapnews/1756
  :lat: 35.94505669999999
  :lng: 139.7008097
  :link: https://omiya.keizai.biz/headline/1756/
  :date: 2023.07.30
  :image: https://images.keizai.biz/omiya_keizai/headline/1690647917_photo.jpg
  :title: 岩槻のコミュニティーカフェでイラストレーター親子の絵画展
- :id: 1755
  :src: https://omiya.keizai.biz/mapnews/1755
  :lat: 35.90792950000001
  :lng: 139.624792
  :link: https://omiya.keizai.biz/headline/1755/
  :date: 2023.07.27
  :image: https://images.keizai.biz/omiya_keizai/headline/1690379740_photo.jpg
  :title: 小中学生向けプログラミングクラブ「CoderDojo」　大宮で3年ぶり再開
- :id: 1754
  :src: https://omiya.keizai.biz/mapnews/1754
  :lat: 35.9315024
  :lng: 139.620187
  :link: https://omiya.keizai.biz/headline/1754/
  :date: 2023.07.24
  :image: https://images.keizai.biz/omiya_keizai/headline/1690187346_photo.jpg
  :title: さいたまでシティポップとラテンフュージョンのコンサート　7人編成バンド演奏
- :id: 1753
  :src: https://omiya.keizai.biz/mapnews/1753
  :lat: 35.9029028
  :lng: 139.6309311
  :link: https://omiya.keizai.biz/headline/1753/
  :date: 2023.07.22
  :image: https://images.keizai.biz/omiya_keizai/headline/1690007322_photo.jpg
  :title: "「さいたま国際芸術祭」概要発表　毎日異なるアート体験の場を"
- :id: 1752
  :src: https://omiya.keizai.biz/mapnews/1752
  :lat: 35.90792950000001
  :lng: 139.624792
  :link: https://omiya.keizai.biz/headline/1752/
  :date: 2023.07.21
  :image: https://images.keizai.biz/omiya_keizai/headline/1689903307_photo.jpg
  :title: 大宮で「創業支援セミナー」　経営・財務会計・販路拡大・人材育成をテーマに
- :id: 1751
  :src: https://omiya.keizai.biz/mapnews/1751
  :lat: 35.9065808
  :lng: 139.620197
  :link: https://omiya.keizai.biz/headline/1751/
  :date: 2023.07.20
  :image: https://images.keizai.biz/omiya_keizai/headline/1689842632_photo.jpg
  :title: 大宮に「欧風カレーgii　桜木町店」　大和田で15年超続く味をより多くの人へ
- :id: 1750
  :src: https://omiya.keizai.biz/mapnews/1750
  :lat: 35.9070391
  :lng: 139.6201048
  :link: https://omiya.keizai.biz/headline/1750/
  :date: 2023.07.13
  :image: https://images.keizai.biz/omiya_keizai/headline/1689199851_photo.jpg
  :title: 大宮駅西口の炭火焼肉店がシェフズカウンターコース　1日1組限定
- :id: 1749
  :src: https://omiya.keizai.biz/mapnews/1749
  :lat: 35.893661
  :lng: 139.634318
  :link: https://omiya.keizai.biz/headline/1749/
  :date: 2023.07.10
  :image: https://images.keizai.biz/omiya_keizai/headline/1688954820_photo.jpg
  :title: さいたま新都心駅チカにシェアキッチン　曜日・時間でシェフ変わる
- :id: 1748
  :src: https://omiya.keizai.biz/mapnews/1748
  :lat: 35.9362297
  :lng: 139.611603
  :link: https://omiya.keizai.biz/headline/1748/
  :date: 2023.07.09
  :image: https://images.keizai.biz/omiya_keizai/headline/1688899447_photo.jpg
  :title: 宮原の歯科医院で、子育てサロン「ママ茶会」　離乳食の試食も
- :id: 1747
  :src: https://omiya.keizai.biz/mapnews/1747
  :lat: 35.9094621
  :lng: 139.6147497
  :link: https://omiya.keizai.biz/headline/1747/
  :date: 2023.07.06
  :image: https://images.keizai.biz/omiya_keizai/headline/1688637945_photo.jpg
  :title: さいたま市の大成八幡神社でみこしの蔵出し 夏祭りに向け準備始まる
- :id: 1746
  :src: https://omiya.keizai.biz/mapnews/1746
  :lat: 35.9189126
  :lng: 139.6318202
  :link: https://omiya.keizai.biz/headline/1746/
  :date: 2023.07.04
  :image: https://images.keizai.biz/omiya_keizai/headline/1688460828_photo.jpg
  :title: さいたま・大宮公園で「七夕ナイト」　「水辺で乾杯」や氷川神社七夕祭事も
- :id: 1745
  :src: https://omiya.keizai.biz/mapnews/1745
  :lat: 35.9064528
  :lng: 139.6216608
  :link: https://omiya.keizai.biz/headline/1745/
  :date: 2023.07.03
  :image: https://images.keizai.biz/omiya_keizai/headline/1688363768_photo.jpg
  :title: 大宮アルディージャを手話で応援　4年ぶりに一般参加者募集
- :id: 1744
  :src: https://omiya.keizai.biz/mapnews/1744
  :lat: 35.9064528
  :lng: 139.6216608
  :link: https://omiya.keizai.biz/headline/1744/
  :date: 2023.07.03
  :image: https://images.keizai.biz/omiya_keizai/headline/1688351308_photo.jpg
  :title: 大宮経済新聞　上半期PV1位は地元現役大学生による「給食カフェ1年6組」
- :id: 1743
  :src: https://omiya.keizai.biz/mapnews/1743
  :lat: 35.9085742
  :lng: 139.6251605
  :link: https://omiya.keizai.biz/headline/1743/
  :date: 2023.06.28
  :image: https://images.keizai.biz/omiya_keizai/headline/1687919298_photo.jpg
  :title: 大宮でメキシコ文化を知る会　メスカル飲み比べと義母直伝ブリトー試食
- :id: 1742
  :src: https://omiya.keizai.biz/mapnews/1742
  :lat: 35.9201939
  :lng: 139.607152
  :link: https://omiya.keizai.biz/headline/1742/
  :date: 2023.06.27
  :image: https://images.keizai.biz/omiya_keizai/headline/1687832047_photo.jpg
  :title: さいたまにベーグルとマフィンの専門店　県産野菜や季節食材の期間限定品も
- :id: 1741
  :src: https://omiya.keizai.biz/mapnews/1741
  :lat: 35.9597302
  :lng: 139.5999099
  :link: https://omiya.keizai.biz/headline/1741/
  :date: 2023.06.24
  :image: https://images.keizai.biz/omiya_keizai/headline/1687573352_photo.jpg
  :title: 老舗漬物店で「野菜かき氷」限定提供　トマトやコーンで野菜の甘み
- :id: 1740
  :src: https://omiya.keizai.biz/mapnews/1740
  :lat: 35.9315024
  :lng: 139.620187
  :link: https://omiya.keizai.biz/headline/1740/
  :date: 2023.06.22
  :image: https://images.keizai.biz/omiya_keizai/headline/1687404025_photo.jpg
  :title: さいたま市北区・プラザノースで障がいのある人と共に楽しむ「コンサート」
- :id: 1739
  :src: https://omiya.keizai.biz/mapnews/1739
  :lat: 35.9950569
  :lng: 139.6335519
  :link: https://omiya.keizai.biz/headline/1739/
  :date: 2023.06.21
  :image: https://images.keizai.biz/omiya_keizai/headline/1687334000_photo.jpg
  :title: 伊奈町の有機農家が「小島信夫文学賞」受賞　農作業前の早朝、家族に内緒で執筆
- :id: 1738
  :src: https://omiya.keizai.biz/mapnews/1738
  :lat: 35.9315024
  :lng: 139.620187
  :link: https://omiya.keizai.biz/headline/1738/
  :date: 2023.06.19
  :image: https://images.keizai.biz/omiya_keizai/headline/1687100542_photo.jpg
  :title: さいたまで「世界コスプレサミット」日本代表選考会　自作衣装で5組が競う
- :id: 1737
  :src: https://omiya.keizai.biz/mapnews/1737
  :lat: 35.8852547
  :lng: 139.6202997
  :link: https://omiya.keizai.biz/headline/1737/
  :date: 2023.06.16
  :image: https://images.keizai.biz/omiya_keizai/headline/1686897207_photo.jpg
  :title: さいたまの沖縄料理カフェギャラリー「南風」が移転リニューアル
- :id: 1736
  :src: https://omiya.keizai.biz/mapnews/1736
  :lat: 35.9454125
  :lng: 139.6518991
  :link: https://omiya.keizai.biz/headline/1736/
  :date: 2023.06.12
  :image: https://images.keizai.biz/omiya_keizai/headline/1686535061_photo.jpg
  :title: さいたま・東大宮に「みんなの図書館さんかく」　あそび場併設、直営3館目
- :id: 1735
  :src: https://omiya.keizai.biz/mapnews/1735
  :lat: 35.9787804
  :lng: 139.6409241
  :link: https://omiya.keizai.biz/headline/1735/
  :date: 2023.05.31
  :image: https://images.keizai.biz/omiya_keizai/headline/1685496326_photo.jpg
  :title: 伊奈町に「ノグコーヒーロースターズ」　工務店をリノベーション
- :id: 1734
  :src: https://omiya.keizai.biz/mapnews/1734
  :lat: 35.9722526
  :lng: 139.579821
  :link: https://omiya.keizai.biz/headline/1734/
  :date: 2023.05.22
  :image: https://images.keizai.biz/omiya_keizai/headline/1684719999_photo.jpg
  :title: 上尾のまいこカフェで「米粉カフェ」　米粉などを使ったメニュー提供
- :id: 1733
  :src: https://omiya.keizai.biz/mapnews/1733
  :lat: 35.9497809
  :lng: 139.6972998
  :link: https://omiya.keizai.biz/headline/1733/
  :date: 2023.05.18
  :image: https://images.keizai.biz/omiya_keizai/headline/1684412491_photo.jpg
  :title: さいたま・岩槻の書店で創業150年記念の朗読会
- :id: 1732
  :src: https://omiya.keizai.biz/mapnews/1732
  :lat: 35.944668
  :lng: 139.558255
  :link: https://omiya.keizai.biz/headline/1732/
  :date: 2023.05.18
  :image: https://images.keizai.biz/omiya_keizai/headline/1684387333_photo.jpg
  :title: 上尾で「スパイスとハーブを楽しむ会」　ハーブの種まきワークショップも
- :id: 1731
  :src: https://omiya.keizai.biz/mapnews/1731
  :lat: 35.9161404
  :lng: 139.6313919
  :link: https://omiya.keizai.biz/headline/1731/
  :date: 2023.05.15
  :image: https://images.keizai.biz/omiya_keizai/headline/1684142917_photo.jpg
  :title: 北欧風イラスト描く地元在住画家・岡野友敬さん、大宮のカフェで絵画展
- :id: 1730
  :src: https://omiya.keizai.biz/mapnews/1730
  :lat: 35.8974462
  :lng: 139.6114373
  :link: https://omiya.keizai.biz/headline/1730/
  :date: 2023.05.12
  :image: https://images.keizai.biz/omiya_keizai/headline/1683858220_photo.jpg
  :title: 大宮の十勝アンテナショップが1周年　牛君ロボットが作るソフトクリームも
- :id: 1729
  :src: https://omiya.keizai.biz/mapnews/1729
  :lat: 35.9096
  :lng: 139.6246759
  :link: https://omiya.keizai.biz/headline/1729/
  :date: 2023.05.11
  :image: https://images.keizai.biz/omiya_keizai/headline/1683772499_photo.jpg
  :title: 大宮にボードゲームカフェ「ジェリージェリーカフェ」　元教員が思いかなえ
- :id: 1728
  :src: https://omiya.keizai.biz/mapnews/1728
  :lat: 35.9510051
  :lng: 139.6992331
  :link: https://omiya.keizai.biz/headline/1728/
  :date: 2023.05.10
  :image: https://images.keizai.biz/omiya_keizai/headline/1683702546_photo.jpg
  :title: 岩槻で花ズッキーニの収穫始まる　初夏を告げるヨーロッパ野菜
- :id: 1727
  :src: https://omiya.keizai.biz/mapnews/1727
  :lat: 35.9085742
  :lng: 139.6251605
  :link: https://omiya.keizai.biz/headline/1727/
  :date: 2023.05.01
  :image: https://images.keizai.biz/omiya_keizai/headline/1682949232_photo.jpg
  :title: 大宮にメキシコ料理「メルカドMAYA」　現地で8年間教わった家庭料理提供
- :id: 1726
  :src: https://omiya.keizai.biz/mapnews/1726
  :lat: 35.9822552
  :lng: 139.6113885
  :link: https://omiya.keizai.biz/headline/1726/
  :date: 2023.05.01
  :image: https://images.keizai.biz/omiya_keizai/headline/1682947481_photo.jpg
  :title: 上尾で飲食店同士の交流イベント「ウイークエンド・バイブス」
- :id: 1725
  :src: https://omiya.keizai.biz/mapnews/1725
  :lat: 35.9480216
  :lng: 139.7474052
  :link: https://omiya.keizai.biz/headline/1725/
  :date: 2023.04.29
  :image: https://images.keizai.biz/omiya_keizai/headline/1682749466_photo.jpg
  :title: さいたま市で「メダカフェス」　全国からメダカ愛好家集まる
- :id: 1724
  :src: https://omiya.keizai.biz/mapnews/1724
  :lat: 35.9073543
  :lng: 139.6273379
  :link: https://omiya.keizai.biz/headline/1724/
  :date: 2023.04.19
  :image: https://images.keizai.biz/omiya_keizai/headline/1681885389_photo.jpg
  :title: 音楽科高校生ユニット「クレシェンテ」、大宮レイボックホールで初コンサート
- :id: 1723
  :src: https://omiya.keizai.biz/mapnews/1723
  :lat: 35.9077694
  :lng: 139.6255083
  :link: https://omiya.keizai.biz/headline/1723/
  :date: 2023.04.12
  :image: https://images.keizai.biz/omiya_keizai/headline/1681271947_photo.jpg
  :title: 大宮駅東口に屋外バーベキュー施設「大宮ラクーンの庭」　駅前でアウトドア体験
- :id: 1722
  :src: https://omiya.keizai.biz/mapnews/1722
  :lat: 35.9189126
  :lng: 139.6318202
  :link: https://omiya.keizai.biz/headline/1722/
  :date: 2023.04.07
  :image: https://images.keizai.biz/omiya_keizai/headline/1680875077_photo.jpg
  :title: さいたま市大宮公園舟遊池の干しあげ終わり「浅場」完成　貯水も開始
- :id: 1721
  :src: https://omiya.keizai.biz/mapnews/1721
  :lat: 35.9229322
  :lng: 139.6549161
  :link: https://omiya.keizai.biz/headline/1721/
  :date: 2023.04.03
  :image: https://images.keizai.biz/omiya_keizai/headline/1680531833_photo.jpg
  :title: さいたまに複合施設「コトホギ」　カフェ・フォトスタジオ・イベントスペース
- :id: 1720
  :src: https://omiya.keizai.biz/mapnews/1720
  :lat: 35.8937753
  :lng: 139.6338124
  :link: https://omiya.keizai.biz/headline/1720/
  :date: 2023.04.01
  :image: https://images.keizai.biz/omiya_keizai/headline/1680331157_photo.jpg
  :title: さいたま新都心で「ストリートこたつカフェ」　こたつを囲みコーヒーやボードゲーム
- :id: 1719
  :src: https://omiya.keizai.biz/mapnews/1719
  :lat: 35.9372989
  :lng: 139.6517853
  :link: https://omiya.keizai.biz/headline/1719/
  :date: 2023.03.30
  :image: https://images.keizai.biz/omiya_keizai/headline/1680144068_photo.jpg
  :title: さいたま市で子ども模擬選挙　街のことを考えるきっかけに
- :id: 1718
  :src: https://omiya.keizai.biz/mapnews/1718
  :lat: 35.9299459
  :lng: 139.6509777
  :link: https://omiya.keizai.biz/headline/1718/
  :date: 2023.03.25
  :image: https://images.keizai.biz/omiya_keizai/headline/1679668439_photo.jpg
  :title: さいたまに「チャフ・カフェ」　飲食店店長経験がある夫婦が開業、1日5組限定
- :id: 1717
  :src: https://omiya.keizai.biz/mapnews/1717
  :lat: 35.9078994
  :lng: 139.6304396
  :link: https://omiya.keizai.biz/headline/1717/
  :date: 2023.03.24
  :image: https://images.keizai.biz/omiya_keizai/headline/1679620207_photo.jpg
  :title: 大宮・氷川参道に「給食カフェ1年6組」　地元現役大学生が子育て支援に
- :id: 1716
  :src: https://omiya.keizai.biz/mapnews/1716
  :lat: 35.9209951
  :lng: 139.6180973
  :link: https://omiya.keizai.biz/headline/1716/
  :date: 2023.03.20
  :image: https://images.keizai.biz/omiya_keizai/headline/1679275423_photo.jpg
  :title: 大宮鉄道博物館企画展「鉄道と制服」　明治時代の制服など10着展示
- :id: 1715
  :src: https://omiya.keizai.biz/mapnews/1715
  :lat: 35.8933795
  :lng: 139.6309249
  :link: https://omiya.keizai.biz/headline/1715/
  :date: 2023.03.10
  :image: https://images.keizai.biz/omiya_keizai/headline/1678430533_photo.jpg
  :title: さいたまで陸上競技体験イベント　450人がタイム計測、自己ベストに笑顔も
- :id: 1714
  :src: https://omiya.keizai.biz/mapnews/1714
  :lat: 35.9047487
  :lng: 139.6185139
  :link: https://omiya.keizai.biz/headline/1714/
  :date: 2023.03.09
  :image: https://images.keizai.biz/omiya_keizai/headline/1678327498_photo.jpg
  :title: 大宮で「SAITAMAなんとか映画祭」　ノミネート9作品から受賞作決まる
- :id: 1713
  :src: https://omiya.keizai.biz/mapnews/1713
  :lat: 35.9078994
  :lng: 139.6304396
  :link: https://omiya.keizai.biz/headline/1713/
  :date: 2023.03.08
  :image: https://images.keizai.biz/omiya_keizai/headline/1678255771_photo.jpg
  :title: 大宮・氷川参道沿いに米粉専門菓子店　埼玉県産素材で地産地消目指す
- :id: 1712
  :src: https://omiya.keizai.biz/mapnews/1712
  :lat: 35.9315024
  :lng: 139.620187
  :link: https://omiya.keizai.biz/headline/1712/
  :date: 2023.03.02
  :image: https://images.keizai.biz/omiya_keizai/headline/1677720433_photo.jpg
  :title: さいたまでフォーラム「不登校から考える、これからの学校のあり方」
- :id: 1711
  :src: https://omiya.keizai.biz/mapnews/1711
  :lat: 35.9113098
  :lng: 139.6312304
  :link: https://omiya.keizai.biz/headline/1711/
  :date: 2023.03.01
  :image: https://images.keizai.biz/omiya_keizai/headline/1677663150_photo.jpg
  :title: 大宮で「ひなまつりマルシェ」　女性起業家らが出店、起業相談も
- :id: 1710
  :src: https://omiya.keizai.biz/mapnews/1710
  :lat: 35.9064437
  :lng: 139.626994
  :link: https://omiya.keizai.biz/headline/1710/
  :date: 2023.02.28
  :image: https://images.keizai.biz/omiya_keizai/headline/1677546608_photo.jpg
  :title: 大宮に実験室をイメージしたバー　食材の香り抽出した自家製カクテル
- :id: 1709
  :src: https://omiya.keizai.biz/mapnews/1709
  :lat: 35.9037614
  :lng: 139.6202268
  :link: https://omiya.keizai.biz/headline/1709/
  :date: 2023.02.25
  :image: https://images.keizai.biz/omiya_keizai/headline/1677335785_photo.jpg
  :title: 大宮で「カゴメオムライススタジアム」関信越大会　5店舗が出場
- :id: 1708
  :src: https://omiya.keizai.biz/mapnews/1708
  :lat: 35.9052385
  :lng: 139.6195496
  :link: https://omiya.keizai.biz/headline/1708/
  :date: 2023.02.24
  :image: https://images.keizai.biz/omiya_keizai/headline/1677224882_photo.jpg
  :title: 大宮「ソニックシティホール」でリニューアル記念公演
- :id: 1707
  :src: https://omiya.keizai.biz/mapnews/1707
  :lat: 35.9185624
  :lng: 139.6402506
  :link: https://omiya.keizai.biz/headline/1707/
  :date: 2023.02.21
  :image: https://images.keizai.biz/omiya_keizai/headline/1676943644_photo.jpg
  :title: 大宮第二公園「梅図鑑」改訂版発売　春を告げる「梅まつり」も
- :id: 1706
  :src: https://omiya.keizai.biz/mapnews/1706
  :lat: 35.907597472219464
  :lng: 139.6256991490738
  :link: https://omiya.keizai.biz/headline/1706/
  :date: 2023.02.20
  :image: https://images.keizai.biz/omiya_keizai/headline/1676858478_photo.jpg
  :title: "「大宮まぜそば 誠治」が場所を新たに営業再開　限定メニューも"
- :id: 1705
  :src: https://omiya.keizai.biz/mapnews/1705
  :lat: 35.9094928
  :lng: 139.62933
  :link: https://omiya.keizai.biz/headline/1705/
  :date: 2023.02.17
  :image: https://images.keizai.biz/omiya_keizai/headline/1676598246_photo.jpg
  :title: 大宮の雑貨店で作陶企画展「セラミミック展」　オープン5年目で新たな挑戦
- :id: 1704
  :src: https://omiya.keizai.biz/mapnews/1704
  :lat: 35.90792950000001
  :lng: 139.624792
  :link: https://omiya.keizai.biz/headline/1704/
  :date: 2023.02.16
  :image: https://images.keizai.biz/omiya_keizai/headline/1676543058_photo.jpg
  :title: 大宮のコワーキングスペースで税理士による確定申告勉強会
- :id: 1703
  :src: https://omiya.keizai.biz/mapnews/1703
  :lat: 35.929281
  :lng: 139.6313482
  :link: https://omiya.keizai.biz/headline/1703/
  :date: 2023.02.15
  :image: https://images.keizai.biz/omiya_keizai/headline/1676439765_photo.jpg
  :title: さいたまに女性専用のシェービングサロン
- :id: 1702
  :src: https://omiya.keizai.biz/mapnews/1702
  :lat: 35.923169
  :lng: 139.6220105
  :link: https://omiya.keizai.biz/headline/1702/
  :date: 2023.02.12
  :image: https://images.keizai.biz/omiya_keizai/headline/1676128495_photo.jpg
  :title: 大宮の洋菓子店が1周年　氷川神社とコラボで大宮土産菓子を開発
- :id: 1701
  :src: https://omiya.keizai.biz/mapnews/1701
  :lat: 35.8928158
  :lng: 139.6198882
  :link: https://omiya.keizai.biz/headline/1701/
  :date: 2023.02.11
  :image: https://images.keizai.biz/omiya_keizai/headline/1676089616_photo.jpg
  :title: さいたまの創業55年のホルモン卸「一色」がオンラインショップ　冷凍自販機も
- :id: 1700
  :src: https://omiya.keizai.biz/mapnews/1700
  :lat: 35.8840657
  :lng: 139.628556
  :link: https://omiya.keizai.biz/headline/1700/
  :date: 2023.02.10
  :image: https://images.keizai.biz/omiya_keizai/headline/1676009988_photo.jpg
  :title: 大宮で「さいたまヨーロッパ野菜料理コンクール」　シェフら腕競う
- :id: 1699
  :src: https://omiya.keizai.biz/mapnews/1699
  :lat: 35.9452257
  :lng: 139.6929798
  :link: https://omiya.keizai.biz/headline/1699/
  :date: 2023.02.09
  :image: https://images.keizai.biz/omiya_keizai/headline/1675949375_photo.jpg
  :title: 岩槻エリアで「まちゼミ」　商店主が知識生かし講座開講、肩肘張らず楽しく
- :id: 1698
  :src: https://omiya.keizai.biz/mapnews/1698
  :lat: 35.9507098
  :lng: 139.7089861
  :link: https://omiya.keizai.biz/headline/1698/
  :date: 2023.02.09
  :image: https://images.keizai.biz/omiya_keizai/headline/1675926678_photo.jpg
  :title: さいたまで「岩槻映画祭」　入選した11作品上映、グランプリ発表も
- :id: 1697
  :src: https://omiya.keizai.biz/mapnews/1697
  :lat: 35.9189126
  :lng: 139.6318202
  :link: https://omiya.keizai.biz/headline/1697/
  :date: 2023.02.08
  :image: https://images.keizai.biz/omiya_keizai/headline/1675835841_photo.jpg
  :title: 大宮公園舟遊池で「池底ウオーク」　池の自然やかい掘りの取り組み学ぶ
- :id: 1696
  :src: https://omiya.keizai.biz/mapnews/1696
  :lat: 35.9059712
  :lng: 139.6250169
  :link: https://omiya.keizai.biz/headline/1696/
  :date: 2023.02.07
  :image: https://images.keizai.biz/omiya_keizai/headline/1675759501_photo.jpg
  :title: ルミネ大宮で「サウナマルシェ」
- :id: 1695
  :src: https://omiya.keizai.biz/mapnews/1695
  :lat: 35.9078994
  :lng: 139.6304396
  :link: https://omiya.keizai.biz/headline/1695/
  :date: 2023.02.06
  :image: https://images.keizai.biz/omiya_keizai/headline/1675649417_photo.jpg
  :title: 大宮のシェアキッチンで一日限定コラボカフェ　2店のカレーを一皿に
- :id: 1694
  :src: https://omiya.keizai.biz/mapnews/1694
  :lat: 35.90792950000001
  :lng: 139.624792
  :link: https://omiya.keizai.biz/headline/1694/
  :date: 2023.02.02
  :image: https://images.keizai.biz/omiya_keizai/headline/1675317283_photo.jpg
  :title: 大宮経済新聞が10周年　サポーター団体制度も
- :id: 1693
  :src: https://omiya.keizai.biz/mapnews/1693
  :lat: 35.9010368
  :lng: 139.6031397
  :link: https://omiya.keizai.biz/headline/1693/
  :date: 2023.02.01
  :image: https://images.keizai.biz/omiya_keizai/headline/1675213208_photo.jpg
  :title: 大宮の料理教室「アトリエつむぐ」が1周年　発酵調味料を使った各国料理など
- :id: 1692
  :src: https://omiya.keizai.biz/mapnews/1692
  :lat: 35.9072763
  :lng: 139.625346
  :link: https://omiya.keizai.biz/headline/1692/
  :date: 2023.01.31
  :image: https://images.keizai.biz/omiya_keizai/headline/1675176877_photo.jpg
  :title: さいたま市内の企業が新商品合同記者発表会　SDGs対応を前面に
- :id: 1691
  :src: https://omiya.keizai.biz/mapnews/1691
  :lat: 35.90792950000001
  :lng: 139.624792
  :link: https://omiya.keizai.biz/headline/1691/
  :date: 2023.01.30
  :image: https://images.keizai.biz/omiya_keizai/headline/1675047227_photo.jpg
  :title: 大宮のコワーキングスペース「7F」が個室ブース新設　CFで支援呼びかけも
- :id: 1690
  :src: https://omiya.keizai.biz/mapnews/1690
  :lat: 35.9047033
  :lng: 139.6220855
  :link: https://omiya.keizai.biz/headline/1690/
  :date: 2023.01.28
  :image: https://images.keizai.biz/omiya_keizai/headline/1674876053_photo.jpg
  :title: そごう大宮店で大宮出身の日本画家・丁子紅子さん個展　地元開催は初
- :id: 1689
  :src: https://omiya.keizai.biz/mapnews/1689
  :lat: 35.8845388
  :lng: 139.6376215
  :link: https://omiya.keizai.biz/headline/1689/
  :date: 2023.01.24
  :image: https://images.keizai.biz/omiya_keizai/headline/1674536711_photo.jpg
  :title: 与野のさつま揚げ専門店、ウサギ形「ポルチーニトマトビーフ」限定販売
- :id: 1688
  :src: https://omiya.keizai.biz/mapnews/1688
  :lat: 35.8933795
  :lng: 139.6309249
  :link: https://omiya.keizai.biz/headline/1688/
  :date: 2023.01.19
  :image: https://images.keizai.biz/omiya_keizai/headline/1674093272_photo.jpg
  :title: さいたま新都心で「大道芸フェスティバル」　国内外で活動のパフォーマー集結
- :id: 1687
  :src: https://omiya.keizai.biz/mapnews/1687
  :lat: 35.9274191
  :lng: 139.6160044
  :link: https://omiya.keizai.biz/headline/1687/
  :date: 2023.01.18
  :image: https://images.keizai.biz/omiya_keizai/headline/1674013668_photo.jpg
  :title: 大宮の「おふろcafe utatane」で唐辛子風呂とサウナ　地元農家と芝浦工大生がコラボ
- :id: 1686
  :src: https://omiya.keizai.biz/mapnews/1686
  :lat: 35.9075574
  :lng: 139.6476538
  :link: https://omiya.keizai.biz/headline/1686/
  :date: 2023.01.13
  :image: https://images.keizai.biz/omiya_keizai/headline/1673590058_photo.jpg
  :title: さいたまで3年ぶりの「消防出初式」　迫力の防災訓練に歓声
- :id: 1685
  :src: https://omiya.keizai.biz/mapnews/1685
  :lat: 35.9080235
  :lng: 139.6215851
  :link: https://omiya.keizai.biz/headline/1685/
  :date: 2023.01.11
  :image: https://images.keizai.biz/omiya_keizai/headline/1673404331_photo.jpg
  :title: 大宮のプラネタリウムで「宇宙劇場まつり」　特別投映やワークショップも
- :id: 1684
  :src: https://omiya.keizai.biz/mapnews/1684
  :lat: 35.901783
  :lng: 139.6306352
  :link: https://omiya.keizai.biz/headline/1684/
  :date: 2023.01.06
  :image: https://images.keizai.biz/omiya_keizai/headline/1672969764_photo.jpg
  :title: 大宮図書館に干支を題材にした3メートル超の「シン・ウサギ」
- :id: 1683
  :src: https://omiya.keizai.biz/mapnews/1683
  :lat: 35.915139
  :lng: 139.6299424
  :link: https://omiya.keizai.biz/headline/1683/
  :date: 2023.01.04
  :image: https://images.keizai.biz/omiya_keizai/headline/1672812518_photo.jpg
  :title: 大宮の武蔵一宮氷川神社、3年ぶりの行動制限のない初詣でにぎわう
- :id: 1682
  :src: https://omiya.keizai.biz/mapnews/1682
  :lat: 35.9189126
  :lng: 139.6318202
  :link: https://omiya.keizai.biz/headline/1682/
  :date: 2022.12.28
  :image: https://images.keizai.biz/omiya_keizai/headline/1672190352_photo.jpg
  :title: 大宮公園舟遊池で「浅場づくり」　水辺を再生する保全活動体験
- :id: 1681
  :src: https://omiya.keizai.biz/mapnews/1681
  :lat: 35.9078996
  :lng: 139.6304396
  :link: https://omiya.keizai.biz/headline/1681/
  :date: 2022.12.19
  :image: https://images.keizai.biz/omiya_keizai/headline/1671418728_photo.jpg
  :title: 大宮・氷川参道のカフェ「食べること研究所」が1周年　県内産野菜と発酵調味料
- :id: 1680
  :src: https://omiya.keizai.biz/mapnews/1680
  :lat: 35.9048511
  :lng: 139.6284535
  :link: https://omiya.keizai.biz/headline/1680/
  :date: 2022.12.17
  :image: https://images.keizai.biz/omiya_keizai/headline/1671263247_photo.jpg
  :title: ツイッターで「#夢祭り」　手書きメモ写真の最多数でギネス世界記録に挑戦
- :id: 1679
  :src: https://omiya.keizai.biz/mapnews/1679
  :lat: 35.9042269
  :lng: 139.6269226
  :link: https://omiya.keizai.biz/headline/1679/
  :date: 2022.12.16
  :image: https://images.keizai.biz/omiya_keizai/headline/1671175821_photo.jpg
  :title: 大宮経の年間PV1位は「ショートケーキ缶自販機」
- :id: 1678
  :src: https://omiya.keizai.biz/mapnews/1678
  :lat: 35.9507098
  :lng: 139.7089861
  :link: https://omiya.keizai.biz/headline/1678/
  :date: 2022.12.13
  :image: https://images.keizai.biz/omiya_keizai/headline/1670927731_photo.jpg
  :title: 市民会館いわつきで「岩槻Jazz」開催へ
- :id: 1677
  :src: https://omiya.keizai.biz/mapnews/1677
  :lat: 35.8958032
  :lng: 139.5988375
  :link: https://omiya.keizai.biz/headline/1677/
  :date: 2022.12.12
  :image: https://images.keizai.biz/omiya_keizai/headline/1670894489_photo.jpg
  :title: さいたまの中高生がスポーツ選手応援の発酵ジンジャーエール開発　CF挑戦も
- :id: 1676
  :src: https://omiya.keizai.biz/mapnews/1676
  :lat: 35.915139
  :lng: 139.6299424
  :link: https://omiya.keizai.biz/headline/1676/
  :date: 2022.12.10
  :image: https://images.keizai.biz/omiya_keizai/headline/1670673398_photo.jpg
  :title: 大宮氷川神社で「十日市」　飲食を伴う露店の出店は3年ぶり
- :id: 1675
  :src: https://omiya.keizai.biz/mapnews/1675
  :lat: 35.9059712
  :lng: 139.6250169
  :link: https://omiya.keizai.biz/headline/1675/
  :date: 2022.12.09
  :image: https://images.keizai.biz/omiya_keizai/headline/1670503856_photo.jpg
  :title: 大宮駅前で「愛の助け合い献血運動」キックオフ　協力者減の12月に献血呼びかけ
- :id: 1674
  :src: https://omiya.keizai.biz/mapnews/1674
  :lat: 35.9101258
  :lng: 139.6272641
  :link: https://omiya.keizai.biz/headline/1674/
  :date: 2022.12.08
  :image: https://images.keizai.biz/omiya_keizai/headline/1670467355_photo.jpg
  :title: 大宮東口の魚酒場「二つめ」が4周年　コロナ禍乗り越え「必要とされる場所」に
- :id: 1673
  :src: https://omiya.keizai.biz/mapnews/1673
  :lat: 35.92996180000001
  :lng: 139.6509678
  :link: https://omiya.keizai.biz/headline/1673/
  :date: 2022.12.06
  :image: https://images.keizai.biz/omiya_keizai/headline/1670288979_photo.jpg
  :title: レンタルスペース「MOPS大和田スペース」が1周年　記念企画も
- :id: 1672
  :src: https://omiya.keizai.biz/mapnews/1672
  :lat: 35.90792950000001
  :lng: 139.624792
  :link: https://omiya.keizai.biz/headline/1672/
  :date: 2022.12.02
  :image: https://images.keizai.biz/omiya_keizai/headline/1669928361_photo.jpg
  :title: 大宮のコワーキングスペース「7F」が10周年　イベントやクラウドファンディングも
- :id: 1671
  :src: https://omiya.keizai.biz/mapnews/1671
  :lat: 35.9083348
  :lng: 139.6254456
  :link: https://omiya.keizai.biz/headline/1671/
  :date: 2022.12.02
  :image: https://images.keizai.biz/omiya_keizai/headline/1669927125_photo.jpg
  :title: 大宮ホコ天ライブパフォーマンス、コロナ禍で中断も2年8カ月ぶりに開催
- :id: 1670
  :src: https://omiya.keizai.biz/mapnews/1670
  :lat: 35.9078541
  :lng: 139.6293201
  :link: https://omiya.keizai.biz/headline/1670/
  :date: 2022.12.01
  :image: https://images.keizai.biz/omiya_keizai/headline/1669874721_photo.jpg
  :title: 大宮駅東口のデリカテッセン＆バル「KAERU」が1周年
- :id: 1669
  :src: https://omiya.keizai.biz/mapnews/1669
  :lat: 35.8997745
  :lng: 139.623603
  :link: https://omiya.keizai.biz/headline/1669/
  :date: 2022.11.23
  :image: https://images.keizai.biz/omiya_keizai/headline/1669176598_photo.jpg
  :title: 大宮の洋菓子店「ヴァン アグレアーブル」が1周年　周年企画も
- :id: 1668
  :src: https://omiya.keizai.biz/mapnews/1668
  :lat: 35.9113118
  :lng: 139.6312267
  :link: https://omiya.keizai.biz/headline/1668/
  :date: 2022.11.17
  :image: https://images.keizai.biz/omiya_keizai/headline/1668658243_photo.jpg
  :title: 大宮・氷川参道沿いに地域・本・食シェアプレイス「ハムハウス」
- :id: 1667
  :src: https://omiya.keizai.biz/mapnews/1667
  :lat: 35.9042269
  :lng: 139.6269226
  :link: https://omiya.keizai.biz/headline/1667/
  :date: 2022.11.16
  :image: https://images.keizai.biz/omiya_keizai/headline/1668563347_photo.jpg
  :title: 大宮のシェアキッチンカーにいなりずし専門店　さいたま市内の農産物も使う
- :id: 1666
  :src: https://omiya.keizai.biz/mapnews/1666
  :lat: 35.9078296
  :lng: 139.6215414
  :link: https://omiya.keizai.biz/headline/1666/
  :date: 2022.11.15
  :image: https://images.keizai.biz/omiya_keizai/headline/1668478876_photo.jpg
  :title: "「NACK5」パーソナリティーの落語家・三遊亭鬼丸さん、がん克服から4カ月"
- :id: 1665
  :src: https://omiya.keizai.biz/mapnews/1665
  :lat: 35.9315024
  :lng: 139.620187
  :link: https://omiya.keizai.biz/headline/1665/
  :date: 2022.11.14
  :image: https://images.keizai.biz/omiya_keizai/headline/1668388039_photo.jpg
  :title: さいたまプラザノースで子どもがつくるまち「ミニさいたまノース」
- :id: 1664
  :src: https://omiya.keizai.biz/mapnews/1664
  :lat: 35.9073669
  :lng: 139.6273171
  :link: https://omiya.keizai.biz/headline/1664/
  :date: 2022.11.11
  :image: https://images.keizai.biz/omiya_keizai/headline/1668137497_photo.jpg
  :title: 大宮駅東口で公共空間利活用の社会実験　古着店・飲食店が路上に出店
- :id: 1663
  :src: https://omiya.keizai.biz/mapnews/1663
  :lat: 35.8622124
  :lng: 139.6441221
  :link: https://omiya.keizai.biz/headline/1663/
  :date: 2022.11.07
  :image: https://images.keizai.biz/omiya_keizai/headline/1667804546_photo.png
  :title: お笑いユニット「大宮セブン」が大宮の居酒屋紹介　テレビ埼玉の新コーナーで
- :id: 1662
  :src: https://omiya.keizai.biz/mapnews/1662
  :lat: 35.8933795
  :lng: 139.6309249
  :link: https://omiya.keizai.biz/headline/1662/
  :date: 2022.11.03
  :image: https://images.keizai.biz/omiya_keizai/headline/1667457151_photo.jpg
  :title: 中学生が「さいたまるしぇ」で「岩槻ねぎ」紹介　地元伝統農産物をアピール
- :id: 1661
  :src: https://omiya.keizai.biz/mapnews/1661
  :lat: 35.915139
  :lng: 139.6299424
  :link: https://omiya.keizai.biz/headline/1661/
  :date: 2022.10.31
  :image: https://images.keizai.biz/omiya_keizai/headline/1667190501_photo.jpg
  :title: さいたま・川越・秩父巡るチャリティークラシックカーラリー　ポリオ根絶願う
- :id: 1660
  :src: https://omiya.keizai.biz/mapnews/1660
  :lat: 35.9520366
  :lng: 139.6388331
  :link: https://omiya.keizai.biz/headline/1660/
  :date: 2022.10.29
  :image: https://images.keizai.biz/omiya_keizai/headline/1667049041_photo.jpg
  :title: 東大宮でハロウィーンイベント　仮装した子どもたちが商店街練り歩く
- :id: 1659
  :src: https://omiya.keizai.biz/mapnews/1659
  :lat: 35.9073343
  :lng: 139.6179416
  :link: https://omiya.keizai.biz/headline/1659/
  :date: 2022.10.25
  :image: https://images.keizai.biz/omiya_keizai/headline/1666701044_photo.jpg
  :title: 大宮西口の「BAR  & CAFE 1001」、コロナ禍も乗り越え8周年
- :id: 1658
  :src: https://omiya.keizai.biz/mapnews/1658
  :lat: 35.9189126
  :lng: 139.6318202
  :link: https://omiya.keizai.biz/headline/1658/
  :date: 2022.10.21
  :image: https://images.keizai.biz/omiya_keizai/headline/1666321487_photo.jpg
  :title: 大宮公園の舟遊池で12年ぶりに「かい掘り」　「大掻掘まつり」も
- :id: 1657
  :src: https://omiya.keizai.biz/mapnews/1657
  :lat: 35.8701353
  :lng: 139.629428
  :link: https://omiya.keizai.biz/headline/1657/
  :date: 2022.10.19
  :image: https://images.keizai.biz/omiya_keizai/headline/1666148084_photo.jpg
  :title: 南与野に毛穴・美容整体サロン「Ruth（ルース）」
- :id: 1656
  :src: https://omiya.keizai.biz/mapnews/1656
  :lat: 35.9052385
  :lng: 139.6195496
  :link: https://omiya.keizai.biz/headline/1656/
  :date: 2022.10.17
  :image: https://images.keizai.biz/omiya_keizai/headline/1665926183_photo.jpg
  :title: 大宮で中小企業の合同記者発表会　県内4組合が新商品アピール
- :id: 1655
  :src: https://omiya.keizai.biz/mapnews/1655
  :lat: 35.9115112
  :lng: 139.637558
  :link: https://omiya.keizai.biz/headline/1655/
  :date: 2022.10.16
  :image: https://images.keizai.biz/omiya_keizai/headline/1665807989_photo.jpg
  :title: 芝川で清掃活動「しばかわリバサポ」　カヌーを使ったごみ拾いも
- :id: 1654
  :src: https://omiya.keizai.biz/mapnews/1654
  :lat: 35.90819159999999
  :lng: 139.6272094
  :link: https://omiya.keizai.biz/headline/1654/
  :date: 2022.10.15
  :image: https://images.keizai.biz/omiya_keizai/headline/1665805103_photo.jpg
  :title: 大宮発足の日本酒コミュニティー「日本酒武蔵」　日本酒の日にはしご酒イベント
- :id: 1653
  :src: https://omiya.keizai.biz/mapnews/1653
  :lat: 35.9177061
  :lng: 139.6528504
  :link: https://omiya.keizai.biz/headline/1653/
  :date: 2022.10.11
  :image: https://images.keizai.biz/omiya_keizai/headline/1665474566_photo.jpg
  :title: さいたまのカフェ「魔女のコッペンパ」でハロウィーンランチ　
- :id: 1652
  :src: https://omiya.keizai.biz/mapnews/1652
  :lat: 35.9073626
  :lng: 139.6273376
  :link: https://omiya.keizai.biz/headline/1652/
  :date: 2022.10.10
  :image: https://images.keizai.biz/omiya_keizai/headline/1665403358_photo.jpg
  :title: 大宮で新しいシニア像「シン・シニア」を探る講演会
- :id: 1651
  :src: https://omiya.keizai.biz/mapnews/1651
  :lat: 35.9036091
  :lng: 139.6270591
  :link: https://omiya.keizai.biz/headline/1651/
  :date: 2022.10.09
  :image: https://images.keizai.biz/omiya_keizai/headline/1665294065_photo.jpg
  :title: 大宮の自律神経専門整体「TAMAKI.2」が1周年　古民家生かし出店
- :id: 1650
  :src: https://omiya.keizai.biz/mapnews/1650
  :lat: 35.94953539999999
  :lng: 139.6951366
  :link: https://omiya.keizai.biz/headline/1650/
  :date: 2022.10.04
  :image: https://images.keizai.biz/omiya_keizai/headline/1664878910_photo.jpg
  :title: さいたま・岩槻の子育て支援施設に「食べて健康になる」カフェ
- :id: 1649
  :src: https://omiya.keizai.biz/mapnews/1649
  :lat: 35.9500948
  :lng: 139.6932484
  :link: https://omiya.keizai.biz/headline/1649/
  :date: 2022.09.29
  :image: https://images.keizai.biz/omiya_keizai/headline/1664444308_photo.jpg
  :title: 岩槻でアートイベント「人形のまち岩槻総合文化芸術祭」　市民主導で開催
- :id: 1648
  :src: https://omiya.keizai.biz/mapnews/1648
  :lat: 35.905864
  :lng: 139.631296
  :link: https://omiya.keizai.biz/headline/1648/
  :date: 2022.09.27
  :image: https://images.keizai.biz/omiya_keizai/headline/1664258947_photo.jpg
  :title: 氷川参道沿いの台湾屋台料理店が6周年　日台友好深めるワークショップも
- :id: 1647
  :src: https://omiya.keizai.biz/mapnews/1647
  :lat: 35.93905900000001
  :lng: 139.6109277
  :link: https://omiya.keizai.biz/headline/1647/
  :date: 2022.09.20
  :image: https://images.keizai.biz/omiya_keizai/headline/1663664012_photo.jpg
  :title: さいたま・宮原にケーキ店「カズベイク」　旬のフルーツとスパイス生かす
- :id: 1646
  :src: https://omiya.keizai.biz/mapnews/1646
  :lat: 35.9055332
  :lng: 139.6241707
  :link: https://omiya.keizai.biz/headline/1646/
  :date: 2022.09.16
  :image: https://images.keizai.biz/omiya_keizai/headline/1663293500_photo.jpg
  :title: 大宮駅東口で献血呼びかけ　協力者に大宮アルディージャオリジナル記念品
- :id: 1645
  :src: https://omiya.keizai.biz/mapnews/1645
  :lat: 35.8930205
  :lng: 139.624111
  :link: https://omiya.keizai.biz/headline/1645/
  :date: 2022.09.14
  :image: https://images.keizai.biz/omiya_keizai/headline/1663122662_photo.jpg
  :title: さいたま市の洋菓子店「おかしさん」本店が閉店　15年の歴史にいったん幕、移転へ
- :id: 1644
  :src: https://omiya.keizai.biz/mapnews/1644
  :lat: 35.9500948
  :lng: 139.6932484
  :link: https://omiya.keizai.biz/headline/1644/
  :date: 2022.09.08
  :image: https://images.keizai.biz/omiya_keizai/headline/1662611642_photo.jpg
  :title: 岩槻でリノベーションスクール　実在する遊休不動産を題材に
- :id: 1643
  :src: https://omiya.keizai.biz/mapnews/1643
  :lat: 35.9100315
  :lng: 139.6200343
  :link: https://omiya.keizai.biz/headline/1643/
  :date: 2022.08.30
  :image: https://images.keizai.biz/omiya_keizai/headline/1661825727_photo.jpg
  :title: 大宮駅西口桜木駐車場で「おもちゃ花火大会」 子ども夏まつりひろばも
- :id: 1642
  :src: https://omiya.keizai.biz/mapnews/1642
  :lat: 35.8977285
  :lng: 139.6316901
  :link: https://omiya.keizai.biz/headline/1642/
  :date: 2022.08.11
  :image: https://images.keizai.biz/omiya_keizai/headline/1660122093_photo.jpg
  :title: さいたま美園倫理法人会が「百人朝礼」　県内初開催
- :id: 1641
  :src: https://omiya.keizai.biz/mapnews/1641
  :lat: 35.9052171
  :lng: 139.6444936
  :link: https://omiya.keizai.biz/headline/1641/
  :date: 2022.08.10
  :image: https://images.keizai.biz/omiya_keizai/headline/1660106797_photo.jpg
  :title: さいたまの小学校で遮熱対策ワークショップ　暑さ厳しい最上階南端教室を快適に
- :id: 1640
  :src: https://omiya.keizai.biz/mapnews/1640
  :lat: 35.9070369
  :lng: 139.6201084
  :link: https://omiya.keizai.biz/headline/1640/
  :date: 2022.08.05
  :image: https://images.keizai.biz/omiya_keizai/headline/1659677338_photo.jpg
  :title: 大宮の焼き肉店「肉の匠ひうち」が1周年　記念コースも
- :id: 1639
  :src: https://omiya.keizai.biz/mapnews/1639
  :lat: 35.9000692
  :lng: 139.6311034
  :link: https://omiya.keizai.biz/headline/1639/
  :date: 2022.08.03
  :image: https://images.keizai.biz/omiya_keizai/headline/1659520599_photo.jpg
  :title: 大宮・氷川参道のママカフェが2周年　限定メニューやキッズヨガイベントも
- :id: 1638
  :src: https://omiya.keizai.biz/mapnews/1638
  :lat: 35.8899158
  :lng: 139.6179963
  :link: https://omiya.keizai.biz/headline/1638/
  :date: 2022.07.29
  :image: https://images.keizai.biz/omiya_keizai/headline/1659055973_photo.jpg
  :title: さいたまの子育て支援施設「しばふハウス」で夏祭り　子ども時代の夏を楽しんで
- :id: 1637
  :src: https://omiya.keizai.biz/mapnews/1637
  :lat: 35.9180093
  :lng: 139.633653
  :link: https://omiya.keizai.biz/headline/1637/
  :date: 2022.07.21
  :image: https://images.keizai.biz/omiya_keizai/headline/1658369118_photo.jpg
  :title: 埼玉県営大宮公園野球場で埼玉武蔵ヒートベアーズ戦　ビアマルシェも
- :id: 1636
  :src: https://omiya.keizai.biz/mapnews/1636
  :lat: 35.9073669
  :lng: 139.6273171
  :link: https://omiya.keizai.biz/headline/1636/
  :date: 2022.07.19
  :image: https://images.keizai.biz/omiya_keizai/headline/1658239065_photo.jpg
  :title: 大宮門街にフラワーショップ併設カフェ「ブルーミーズバイフローリー」
- :id: 1635
  :src: https://omiya.keizai.biz/mapnews/1635
  :lat: 35.9085742
  :lng: 139.6251605
  :link: https://omiya.keizai.biz/headline/1635/
  :date: 2022.07.12
  :image: https://images.keizai.biz/omiya_keizai/headline/1657604224_photo.jpg
  :title: さいたま市内で「まんてん会津フェア」　会津トマトや馬肉、下郷マス使ったメニュー
- :id: 1634
  :src: https://omiya.keizai.biz/mapnews/1634
  :lat: 35.8996384
  :lng: 139.6365618
  :link: https://omiya.keizai.biz/headline/1634/
  :date: 2022.07.07
  :image: https://images.keizai.biz/omiya_keizai/headline/1657189849_photo.jpg
  :title: 埼玉県立大宮高でウィキペディアタウン　編集通して地域学習深める
- :id: 1633
  :src: https://omiya.keizai.biz/mapnews/1633
  :lat: 35.9105685
  :lng: 139.6322353
  :link: https://omiya.keizai.biz/headline/1633/
  :date: 2022.07.06
  :image: https://images.keizai.biz/omiya_keizai/headline/1657087718_photo.jpg
  :title: "「SAITAMAなんとか映画祭」準グランプリ「パンにジャムをぬること」　大宮で上映会"
- :id: 1632
  :src: https://omiya.keizai.biz/mapnews/1632
  :lat: 35.9042269
  :lng: 139.6269226
  :link: https://omiya.keizai.biz/headline/1632/
  :date: 2022.07.01
  :image: https://images.keizai.biz/omiya_keizai/headline/1656674923_photo.jpg
  :title: 大宮経済新聞　上半期PV1位は「ショートケーキ缶」自動販売機
- :id: 1631
  :src: https://omiya.keizai.biz/mapnews/1631
  :lat: 35.9055332
  :lng: 139.6241707
  :link: https://omiya.keizai.biz/headline/1631/
  :date: 2022.06.30
  :image: https://images.keizai.biz/omiya_keizai/headline/1656579767_photo.jpg
  :title: 大宮駅構内に「睡眠カフェ」　リクライニングチェアとコーヒーでリラックス
- :id: 1630
  :src: https://omiya.keizai.biz/mapnews/1630
  :lat: 36.0195494
  :lng: 139.6074261
  :link: https://omiya.keizai.biz/headline/1630/
  :date: 2022.06.30
  :image: https://images.keizai.biz/omiya_keizai/headline/1656577242_photo.jpg
  :title: 天然酵母パン店「ヘルスケアブレッド ラッキーズ」 2号店　埼玉県県民活動総合センター内に
- :id: 1629
  :src: https://omiya.keizai.biz/mapnews/1629
  :lat: 35.9085666
  :lng: 139.6181414
  :link: https://omiya.keizai.biz/headline/1629/
  :date: 2022.06.23
  :image: https://images.keizai.biz/omiya_keizai/headline/1655948803_photo.jpg
  :title: 大宮に日本ワイン食堂「yosico103」　昼は定食、夜はワインとおつまみ提供
- :id: 1628
  :src: https://omiya.keizai.biz/mapnews/1628
  :lat: 35.9507098
  :lng: 139.7089861
  :link: https://omiya.keizai.biz/headline/1628/
  :date: 2022.06.02
  :image: https://images.keizai.biz/omiya_keizai/headline/1654166078_photo.jpg
  :title: "「岩槻映画祭」4年ぶりに開催へ　全国から集まった13作品上映"
- :id: 1627
  :src: https://omiya.keizai.biz/mapnews/1627
  :lat: 35.89133959999999
  :lng: 139.6432951
  :link: https://omiya.keizai.biz/headline/1627/
  :date: 2022.05.30
  :image: https://images.keizai.biz/omiya_keizai/headline/1653914004_photo.jpg
  :title: "「焼肉セナラ」のコーフク、さいたま新都心に初のカフェ・バー出店"
- :id: 1626
  :src: https://omiya.keizai.biz/mapnews/1626
  :lat: 35.9079067
  :lng: 139.6304456
  :link: https://omiya.keizai.biz/headline/1626/
  :date: 2022.05.27
  :image: https://images.keizai.biz/omiya_keizai/headline/1653613030_photo.jpg
  :title: 大宮のシェアキッチンに「今日のできごと」　カレーとコーヒーで週2日営業
- :id: 1625
  :src: https://omiya.keizai.biz/mapnews/1625
  :lat: 35.9092959
  :lng: 139.62683
  :link: https://omiya.keizai.biz/headline/1625/
  :date: 2022.05.23
  :image: https://images.keizai.biz/omiya_keizai/headline/1653274064_photo.jpg
  :title: 大宮で「さいたま刀剣市」　古刀から新刀、新々刀、現代刀まで60振
- :id: 1624
  :src: https://omiya.keizai.biz/mapnews/1624
  :lat: 35.9113273
  :lng: 139.6312624
  :link: https://omiya.keizai.biz/headline/1624/
  :date: 2022.05.20
  :image: https://images.keizai.biz/omiya_keizai/headline/1653049000_photo.jpg
  :title: さいたまのキッチンカー「Camp×Camp」が1周年　キャンプごはんとマフィン
- :id: 1623
  :src: https://omiya.keizai.biz/mapnews/1623
  :lat: 35.9085742
  :lng: 139.6251605
  :link: https://omiya.keizai.biz/headline/1623/
  :date: 2022.05.19
  :image: https://images.keizai.biz/omiya_keizai/headline/1652930881_photo.jpg
  :title: さいたま市内で「春のまんてん会津フェア」　各店が会津の食材を使ったメニュー
- :id: 1622
  :src: https://omiya.keizai.biz/mapnews/1622
  :lat: 35.9113273
  :lng: 139.6312624
  :link: https://omiya.keizai.biz/headline/1622/
  :date: 2022.05.15
  :image: https://images.keizai.biz/omiya_keizai/headline/1652536080_photo.jpg
  :title: 大宮・氷川参道沿いにシェアプレイス「ハムハウス」　シェア本棚の準備始まる
- :id: 1621
  :src: https://omiya.keizai.biz/mapnews/1621
  :lat: 35.9064528
  :lng: 139.6216608
  :link: https://omiya.keizai.biz/headline/1621/
  :date: 2022.05.13
  :image: https://images.keizai.biz/omiya_keizai/headline/1652432437_photo.jpg
  :title: "「OMIYAごった煮MAP」完成　「新旧動静が混在する」大宮駅周辺を案内"
- :id: 1620
  :src: https://omiya.keizai.biz/mapnews/1620
  :lat: 35.9489211
  :lng: 139.6958539
  :link: https://omiya.keizai.biz/headline/1620/
  :date: 2022.05.06
  :image: https://images.keizai.biz/omiya_keizai/headline/1651799355_photo.jpg
  :title: 岩槻の築100年超の古民家をベーグル店に　クラウドファウンディングで協力呼びかけ
- :id: 1619
  :src: https://omiya.keizai.biz/mapnews/1619
  :lat: 35.9185157
  :lng: 139.6134606
  :link: https://omiya.keizai.biz/headline/1619/
  :date: 2022.05.04
  :image: https://images.keizai.biz/omiya_keizai/headline/1651639796_photo.jpg
  :title: さいたま市にベーカリーとフランス家庭料理「アルデ」　レシピ動画の配信も
- :id: 1618
  :src: https://omiya.keizai.biz/mapnews/1618
  :lat: 35.9320985
  :lng: 139.6224577
  :link: https://omiya.keizai.biz/headline/1618/
  :date: 2022.05.02
  :image: https://images.keizai.biz/omiya_keizai/headline/1651466497_photo.jpg
  :title: ステラタウンで県内産「麦」マルシェ　パン、麺、ギョーザなど県内のべ40店出店
- :id: 1617
  :src: https://omiya.keizai.biz/mapnews/1617
  :lat: 35.9017564
  :lng: 139.6314571
  :link: https://omiya.keizai.biz/headline/1617/
  :date: 2022.04.30
  :image: https://images.keizai.biz/omiya_keizai/headline/1651323973_photo.jpg
  :title: 大宮・氷川参道沿いに卵サンド専門店「TAMASAN PARK」　埼玉の新名物目指して
- :id: 1616
  :src: https://omiya.keizai.biz/mapnews/1616
  :lat: 35.9085666
  :lng: 139.6181414
  :link: https://omiya.keizai.biz/headline/1616/
  :date: 2022.04.27
  :image: https://images.keizai.biz/omiya_keizai/headline/1650941730_photo.jpg
  :title: カフェダイニング「大宮コーヒーロースターoasis」がリニューアル
- :id: 1615
  :src: https://omiya.keizai.biz/mapnews/1615
  :lat: 35.9070369
  :lng: 139.6201084
  :link: https://omiya.keizai.biz/headline/1615/
  :date: 2022.04.26
  :image: https://images.keizai.biz/omiya_keizai/headline/1650947093_photo.jpg
  :title: 大宮駅西口「肉の匠ひうち」が春の限定メニュー
- :id: 1614
  :src: https://omiya.keizai.biz/mapnews/1614
  :lat: 35.9077921
  :lng: 139.6193704
  :link: https://omiya.keizai.biz/headline/1614/
  :date: 2022.04.22
  :image: https://images.keizai.biz/omiya_keizai/headline/1650616977_photo.jpg
  :title: 女子硬式野球チーム「ZENKO BEAMS」、ヴィーナスリーグ開幕戦へ
- :id: 1613
  :src: https://omiya.keizai.biz/mapnews/1613
  :lat: 35.9113273
  :lng: 139.6312624
  :link: https://omiya.keizai.biz/headline/1613/
  :date: 2022.04.20
  :image: https://images.keizai.biz/omiya_keizai/headline/1650460268_photo.jpg
  :title: 大宮にパン店「kico」　幸手のパン店「cimai」の姉妹店
- :id: 1612
  :src: https://omiya.keizai.biz/mapnews/1612
  :lat: 35.9064528
  :lng: 139.6216608
  :link: https://omiya.keizai.biz/headline/1612/
  :date: 2022.04.20
  :image: https://images.keizai.biz/omiya_keizai/headline/1650424492_photo.png
  :title: さいたまのDIYプロデューサーが初出版 　「デッドスペース」有効活用本
- :id: 1611
  :src: https://omiya.keizai.biz/mapnews/1611
  :lat: 35.9021649
  :lng: 139.6314526
  :link: https://omiya.keizai.biz/headline/1611/
  :date: 2022.04.11
  :image: https://images.keizai.biz/omiya_keizai/headline/1649636000_photo.jpg
  :title: 大宮・氷川参道の玩具店「Toy-Toy」9周年　育児経験を生かし選ぶ世界中の玩具
- :id: 1610
  :src: https://omiya.keizai.biz/mapnews/1610
  :lat: 35.9028127
  :lng: 139.6309011
  :link: https://omiya.keizai.biz/headline/1610/
  :date: 2022.04.10
  :image: https://images.keizai.biz/omiya_keizai/headline/1649569854_photo.jpg
  :title: 市民会館おおみやでお別れイベント　3月末で閉館、大宮駅東口に移転
- :id: 1609
  :src: https://omiya.keizai.biz/mapnews/1609
  :lat: 35.9209951
  :lng: 139.6180973
  :link: https://omiya.keizai.biz/headline/1609/
  :date: 2022.04.06
  :image: https://images.keizai.biz/omiya_keizai/headline/1649209772_photo.jpg
  :title: 大宮・鉄道博物館で献血呼びかけ　協力者にコラボ記念品進呈も
- :id: 1608
  :src: https://omiya.keizai.biz/mapnews/1608
  :lat: 35.8590976
  :lng: 139.6394707
  :link: https://omiya.keizai.biz/headline/1608/
  :date: 2022.03.30
  :image: https://images.keizai.biz/omiya_keizai/headline/1648635316_photo.jpg
  :title: さいたまで精神障がいのある親子支援する団体、やなせたかし文化賞大賞を受賞
- :id: 1607
  :src: https://omiya.keizai.biz/mapnews/1607
  :lat: 35.9675386
  :lng: 139.5980424
  :link: https://omiya.keizai.biz/headline/1607/
  :date: 2022.03.23
  :image: https://images.keizai.biz/omiya_keizai/headline/1647957009_photo.jpg
  :title: 上尾にシングルマザー専門の母子家庭向けシェアハウス　社員寮をリノベーション
- :id: 1606
  :src: https://omiya.keizai.biz/mapnews/1606
  :lat: 35.9293503
  :lng: 139.6477598
  :link: https://omiya.keizai.biz/headline/1606/
  :date: 2022.03.14
  :image: https://images.keizai.biz/omiya_keizai/headline/1647263629_photo.jpg
  :title: さいたまの天然酵母パン店「ベーカリー ラ・ポール」がパン自販機設置
- :id: 1605
  :src: https://omiya.keizai.biz/mapnews/1605
  :lat: 35.9085666
  :lng: 139.6181414
  :link: https://omiya.keizai.biz/headline/1605/
  :date: 2022.03.08
  :image: https://images.keizai.biz/omiya_keizai/headline/1646726538_photo.jpg
  :title: 大宮に日本酒バル「ヨリミチ」　日本酒30種超と多国籍料理提供
- :id: 1604
  :src: https://omiya.keizai.biz/mapnews/1604
  :lat: 35.9079067
  :lng: 139.6304456
  :link: https://omiya.keizai.biz/headline/1604/
  :date: 2022.03.02
  :image: https://images.keizai.biz/omiya_keizai/headline/1646193270_photo.jpg
  :title: 大宮のコーヒースタンド1周年　豆を自家焙煎、週1日のカフェ営業も
- :id: 1603
  :src: https://omiya.keizai.biz/mapnews/1603
  :lat: 35.9333898
  :lng: 139.6334406
  :link: https://omiya.keizai.biz/headline/1603/
  :date: 2022.02.28
  :image: https://images.keizai.biz/omiya_keizai/headline/1646059552_photo.jpg
  :title: 大宮の養蚕業復活を　シルク原料のせっけん「氷川シルクソープ」
- :id: 1602
  :src: https://omiya.keizai.biz/mapnews/1602
  :lat: 35.8933795
  :lng: 139.6309249
  :link: https://omiya.keizai.biz/headline/1602/
  :date: 2022.02.26
  :image: https://images.keizai.biz/omiya_keizai/headline/1645855310_photo.jpg
  :title: さいたま新都心で「さつまいも博」　焼き芋店全国から19店舗出店
- :id: 1601
  :src: https://omiya.keizai.biz/mapnews/1601
  :lat: 35.9079067
  :lng: 139.6304456
  :link: https://omiya.keizai.biz/headline/1601/
  :date: 2022.02.26
  :image: https://images.keizai.biz/omiya_keizai/headline/1645845393_photo.jpg
  :title: さいたまの洋菓子ブランド「PASTR’Y」1周年　新たな女性パティシエ像目指し
- :id: 1600
  :src: https://omiya.keizai.biz/mapnews/1600
  :lat: 35.9087239
  :lng: 139.5577377
  :link: https://omiya.keizai.biz/headline/1600/
  :date: 2022.02.25
  :image: https://images.keizai.biz/omiya_keizai/headline/1645753549_photo.jpg
  :title: さいたまに「生蕎麦と創作料理 木天蓼」 キャンプ場隣接の古民家リフォーム
- :id: 1599
  :src: https://omiya.keizai.biz/mapnews/1599
  :lat: 35.9277112
  :lng: 139.6491647
  :link: https://omiya.keizai.biz/headline/1599/
  :date: 2022.02.20
  :image: https://images.keizai.biz/omiya_keizai/headline/1645360334_photo.jpg
  :title: さいたま市にドイツ製法のハム・ソーセージ店　ビールやワイン販売も
- :id: 1598
  :src: https://omiya.keizai.biz/mapnews/1598
  :lat: 35.9113273
  :lng: 139.6312624
  :link: https://omiya.keizai.biz/headline/1598/
  :date: 2022.02.19
  :image: https://images.keizai.biz/omiya_keizai/headline/1645274659_photo.jpg
  :title: 大宮・氷川参道に店舗とオフィスの複合施設「Bibli」　旧大宮図書館をリノベーション
- :id: 1597
  :src: https://omiya.keizai.biz/mapnews/1597
  :lat: 35.9199002
  :lng: 139.6754851
  :link: https://omiya.keizai.biz/headline/1597/
  :date: 2022.02.17
  :image: https://images.keizai.biz/omiya_keizai/headline/1645085751_photo.jpg
  :title: さいたまの発酵ジンジャーエール醸造所が2周年　ナラ間伐材使う新商品も
- :id: 1596
  :src: https://omiya.keizai.biz/mapnews/1596
  :lat: 35.9028127
  :lng: 139.6309011
  :link: https://omiya.keizai.biz/headline/1596/
  :date: 2022.02.06
  :image: https://images.keizai.biz/omiya_keizai/headline/1644135196_photo.jpg
  :title: 年度末閉館「市民会館おおみや」が人探し　1970年開館時に市報掲載の小学生
- :id: 1595
  :src: https://omiya.keizai.biz/mapnews/1595
  :lat: 35.9028127
  :lng: 139.6309011
  :link: https://omiya.keizai.biz/headline/1595/
  :date: 2022.01.26
  :image: https://images.keizai.biz/omiya_keizai/headline/1643186051_photo.jpg
  :title: 大宮吹奏楽団が定期演奏会　音楽の力で埼玉を元気に
- :id: 1594
  :src: https://omiya.keizai.biz/mapnews/1594
  :lat: 35.9042269
  :lng: 139.6269226
  :link: https://omiya.keizai.biz/headline/1594/
  :date: 2022.01.22
  :image: https://images.keizai.biz/omiya_keizai/headline/1642825854_photo.jpg
  :title: 大宮に「ショートケーキ缶」自動販売機　埼玉県内初、シェフ手作りで6種
- :id: 1593
  :src: https://omiya.keizai.biz/mapnews/1593
  :lat: 35.912125
  :lng: 139.6528358
  :link: https://omiya.keizai.biz/headline/1593/
  :date: 2022.01.16
  :image: https://images.keizai.biz/omiya_keizai/headline/1642340376_photo.jpg
  :title: さいたまに雑貨店「ダルトンファクトリーサービス」　県内初出店、倉庫型大型店舗
- :id: 1592
  :src: https://omiya.keizai.biz/mapnews/1592
  :lat: 35.9351465
  :lng: 139.617579
  :link: https://omiya.keizai.biz/headline/1592/
  :date: 2022.01.09
  :image: https://images.keizai.biz/omiya_keizai/headline/1641682996_photo.jpg
  :title: さいたまのカフェ「45CAFE」が6周年　まきストーブやブランコも
- :id: 1591
  :src: https://omiya.keizai.biz/mapnews/1591
  :lat: 35.908649
  :lng: 139.6248081
  :link: https://omiya.keizai.biz/headline/1591/
  :date: 2022.01.06
  :image: https://images.keizai.biz/omiya_keizai/headline/1641397274_photo.jpg
  :title: 大宮に温度にこだわった会員制肉レストラン　埼玉県初出店、週2日営業
- :id: 1590
  :src: https://omiya.keizai.biz/mapnews/1590
  :lat: 35.9507098
  :lng: 139.7089861
  :link: https://omiya.keizai.biz/headline/1590/
  :date: 2021.12.29
  :image: https://images.keizai.biz/omiya_keizai/headline/1640762163_photo.jpg
  :title: 市民会館いわつきで「岩槻Jazz」　県内のビッグバンド4バンド共演
- :id: 1589
  :src: https://omiya.keizai.biz/mapnews/1589
  :lat: 35.9680337
  :lng: 139.6063258
  :link: https://omiya.keizai.biz/headline/1589/
  :date: 2021.12.26
  :image: https://images.keizai.biz/omiya_keizai/headline/1640440641_photo.jpg
  :title: 上尾のさいたま水上公園プールで「ありがとうイベント」　年度末で50年の歴史に幕
- :id: 1588
  :src: https://omiya.keizai.biz/mapnews/1588
  :lat: 35.908185
  :lng: 139.6277065
  :link: https://omiya.keizai.biz/headline/1588/
  :date: 2021.12.24
  :image: https://images.keizai.biz/omiya_keizai/headline/1640356710_photo.jpg
  :title: 大宮にハーブティー専門店「オールマイティー」　世界のハーブティー提供
- :id: 1587
  :src: https://omiya.keizai.biz/mapnews/1587
  :lat: 35.9003227
  :lng: 139.6224729
  :link: https://omiya.keizai.biz/headline/1587/
  :date: 2021.12.23
  :image: https://images.keizai.biz/omiya_keizai/headline/1640269343_photo.jpg
  :title: 大宮に完全予約制フレンチレストラン「ブラン」
- :id: 1586
  :src: https://omiya.keizai.biz/mapnews/1586
  :lat: 35.8948815
  :lng: 139.6218215
  :link: https://omiya.keizai.biz/headline/1586/
  :date: 2021.12.22
  :image: https://images.keizai.biz/omiya_keizai/headline/1640179780_photo.jpg
  :title: 和菓子店「かどや」大宮本店が2周年　90年の歴史詰まる味、手作りで提供
- :id: 1585
  :src: https://omiya.keizai.biz/mapnews/1585
  :lat: 35.92996180000001
  :lng: 139.6509678
  :link: https://omiya.keizai.biz/headline/1585/
  :date: 2021.12.21
  :image: https://images.keizai.biz/omiya_keizai/headline/1640008425_photo.jpg
  :title: 大和田にレンタルスペース「MOPS大和田スペース」
- :id: 1584
  :src: https://omiya.keizai.biz/mapnews/1584
  :lat: 35.868709
  :lng: 139.6292703
  :link: https://omiya.keizai.biz/headline/1584/
  :date: 2021.12.17
  :image: https://images.keizai.biz/omiya_keizai/headline/1639744652_photo.jpg
  :title: 大宮経の年間PV1位は沖縄発アイス店「ブルーシール」直営店
- :id: 1583
  :src: https://omiya.keizai.biz/mapnews/1583
  :lat: 35.9064528
  :lng: 139.6216608
  :link: https://omiya.keizai.biz/headline/1583/
  :date: 2021.12.15
  :image: https://images.keizai.biz/omiya_keizai/headline/1639563265_photo.jpg
  :title: さいたま在住の経営者がアプリ開発　「いざというとき」の情報開示に
- :id: 1582
  :src: https://omiya.keizai.biz/mapnews/1582
  :lat: 35.9500102
  :lng: 139.6943018
  :link: https://omiya.keizai.biz/headline/1582/
  :date: 2021.12.13
  :image: https://images.keizai.biz/omiya_keizai/headline/1639386314_photo.jpg
  :title: 岩槻で親子ゴミ拾いイベント　「シナぷしゅ」のお面も
- :id: 1581
  :src: https://omiya.keizai.biz/mapnews/1581
  :lat: 35.8961307
  :lng: 139.6362829
  :link: https://omiya.keizai.biz/headline/1581/
  :date: 2021.12.11
  :image: https://images.keizai.biz/omiya_keizai/headline/1639197030_photo.jpg
  :title: さいたま新都心でマイナンバーカード申請サポート　マイナポイントの申請も
- :id: 1580
  :src: https://omiya.keizai.biz/mapnews/1580
  :lat: 35.9072293
  :lng: 139.6246956
  :link: https://omiya.keizai.biz/headline/1580/
  :date: 2021.12.11
  :image: https://images.keizai.biz/omiya_keizai/headline/1639185217_photo.jpg
  :title: ルミネ大宮で地元造形作家が作品展　毛皮やビーズ使ったアクセサリーなど
- :id: 1579
  :src: https://omiya.keizai.biz/mapnews/1579
  :lat: 35.9484703
  :lng: 139.6427402
  :link: https://omiya.keizai.biz/headline/1579/
  :date: 2021.12.05
  :image: https://images.keizai.biz/omiya_keizai/headline/1638673667_photo.jpg
  :title: さいたま・東大宮に生花店「プント.ネロ」　リース作りのワークショップも
- :id: 1578
  :src: https://omiya.keizai.biz/mapnews/1578
  :lat: 35.9141769
  :lng: 139.6244117
  :link: https://omiya.keizai.biz/headline/1578/
  :date: 2021.12.04
  :image: https://images.keizai.biz/omiya_keizai/headline/1638621039_photo.jpg
  :title: 大宮に手動焙煎コーヒー店「ジョンズコーヒー」　オーダーメード焙煎も
- :id: 1577
  :src: https://omiya.keizai.biz/mapnews/1577
  :lat: 35.9287076
  :lng: 139.6635642
  :link: https://omiya.keizai.biz/headline/1577/
  :date: 2021.11.30
  :image: https://images.keizai.biz/omiya_keizai/headline/1638275539_photo.jpg
  :title: さいたまにフルーツサンド専門店「満天堂」　プリンアラモードや焼き芋サンドも
- :id: 1576
  :src: https://omiya.keizai.biz/mapnews/1576
  :lat: 35.9010366
  :lng: 139.6299575
  :link: https://omiya.keizai.biz/headline/1576/
  :date: 2021.11.27
  :image: https://images.keizai.biz/omiya_keizai/headline/1638024193_photo.jpg
  :title: 大宮のパン店10周年　「毎日安心して食べられるご飯のようなパン」目指す
- :id: 1575
  :src: https://omiya.keizai.biz/mapnews/1575
  :lat: 35.9079513
  :lng: 139.6248797
  :link: https://omiya.keizai.biz/headline/1575/
  :date: 2021.11.26
  :image: https://images.keizai.biz/omiya_keizai/headline/1637885993_photo.jpg
  :title: 大宮で商業者事業見直しセミナー　埼玉県が企画、「シェアキッチン」テーマに
- :id: 1574
  :src: https://omiya.keizai.biz/mapnews/1574
  :lat: 35.9089318
  :lng: 139.6260516
  :link: https://omiya.keizai.biz/headline/1574/
  :date: 2021.11.25
  :image: https://images.keizai.biz/omiya_keizai/headline/1637836784_photo.jpg
  :title: 大宮東口の焼き鳥店「新鶏」が1周年　コロナ禍で新サービスも
- :id: 1573
  :src: https://omiya.keizai.biz/mapnews/1573
  :lat: 35.9079513
  :lng: 139.6248797
  :link: https://omiya.keizai.biz/headline/1573/
  :date: 2021.11.24
  :image: https://images.keizai.biz/omiya_keizai/headline/1637712484_photo.jpg
  :title: 大宮でアルゼンチンの音楽イベント「フィエスタ・アルゼンチーナ」
- :id: 1572
  :src: https://omiya.keizai.biz/mapnews/1572
  :lat: 35.9079513
  :lng: 139.6248797
  :link: https://omiya.keizai.biz/headline/1572/
  :date: 2021.11.23
  :image: https://images.keizai.biz/omiya_keizai/headline/1637635803_photo.jpg
  :title: 大宮で「さいたま刀剣市」　古刀から現代刀まで100振、「肥前国忠吉(初代)」展示も
- :id: 1571
  :src: https://omiya.keizai.biz/mapnews/1571
  :lat: 35.9066444
  :lng: 139.6218555
  :link: https://omiya.keizai.biz/headline/1571/
  :date: 2021.11.20
  :image: https://images.keizai.biz/omiya_keizai/headline/1637334791_photo.jpg
  :title: 大宮マルイでフードロス関連イベント　大学生による出店も
- :id: 1570
  :src: https://omiya.keizai.biz/mapnews/1570
  :lat: 35.9072293
  :lng: 139.6246956
  :link: https://omiya.keizai.biz/headline/1570/
  :date: 2021.11.19
  :image: https://images.keizai.biz/omiya_keizai/headline/1637316891_photo.jpg
  :title: 大宮駅東口に「カウコーヒー」専門カフェ　「甘み感じるブラックコーヒー」浸透を目指す
- :id: 1569
  :src: https://omiya.keizai.biz/mapnews/1569
  :lat: 35.9168179
  :lng: 139.6151008
  :link: https://omiya.keizai.biz/headline/1569/
  :date: 2021.11.11
  :image: https://images.keizai.biz/omiya_keizai/headline/1636637230_photo.jpg
  :title: 大宮にビル屋上のレンタルスペース　犬連れ可、バーベキューやお月見会も
- :id: 1568
  :src: https://omiya.keizai.biz/mapnews/1568
  :lat: 35.9028127
  :lng: 139.6309011
  :link: https://omiya.keizai.biz/headline/1568/
  :date: 2021.11.10
  :image: https://images.keizai.biz/omiya_keizai/headline/1636535916_photo.jpg
  :title: "「市民会館おおみや」閉館に向けお別れ会　クラウドファンディングも"
- :id: 1567
  :src: https://omiya.keizai.biz/mapnews/1567
  :lat: 35.915139
  :lng: 139.6299424
  :link: https://omiya.keizai.biz/headline/1567/
  :date: 2021.11.07
  :image: https://images.keizai.biz/omiya_keizai/headline/1636269716_photo.jpg
  :title: 大宮起点にチャリティークラシックカーラリー　「ポリオ根絶」願い企画
- :id: 1566
  :src: https://omiya.keizai.biz/mapnews/1566
  :lat: 35.9346206
  :lng: 139.6639224
  :link: https://omiya.keizai.biz/headline/1566/
  :date: 2021.11.04
  :image: https://images.keizai.biz/omiya_keizai/headline/1636035633_photo.jpg
  :title: 七里のコーヒー豆専門店「Akane」が1周年　「家で飲むコーヒーをもっとおいしく」
- :id: 1565
  :src: https://omiya.keizai.biz/mapnews/1565
  :lat: 35.9087239
  :lng: 139.5577377
  :link: https://omiya.keizai.biz/headline/1565/
  :date: 2021.11.03
  :image: https://images.keizai.biz/omiya_keizai/headline/1635865600_photo.jpg
  :title: さいたま市のキャンプ場がサウナパーク開業へ　クラウドファンディングで資金募る
- :id: 1564
  :src: https://omiya.keizai.biz/mapnews/1564
  :lat: 35.9398452
  :lng: 139.675526
  :link: https://omiya.keizai.biz/headline/1564/
  :date: 2021.11.02
  :image: https://images.keizai.biz/omiya_keizai/headline/1635864564_photo.jpg
  :title: さいたまに大型スケートボードパーク　「世界に羽ばたく選手輩出」目指す
- :id: 1563
  :src: https://omiya.keizai.biz/mapnews/1563
  :lat: 35.8722578
  :lng: 139.638594
  :link: https://omiya.keizai.biz/headline/1563/
  :date: 2021.11.01
  :image: https://images.keizai.biz/omiya_keizai/headline/1635671345_photo.jpg
  :title: 大宮に1日限定のポップアップ書店　「会話や発見につながる500冊」を選書
- :id: 1562
  :src: https://omiya.keizai.biz/mapnews/1562
  :lat: 35.904754
  :lng: 139.625437
  :link: https://omiya.keizai.biz/headline/1562/
  :date: 2021.10.31
  :image: https://images.keizai.biz/omiya_keizai/headline/1635587748_photo.jpg
  :title: 大宮にみそダレ専門焼き肉店「たれ山」　埼玉初出店
- :id: 1561
  :src: https://omiya.keizai.biz/mapnews/1561
  :lat: 35.9185624
  :lng: 139.6402506
  :link: https://omiya.keizai.biz/headline/1561/
  :date: 2021.10.30
  :image: https://images.keizai.biz/omiya_keizai/headline/1635561760_photo.jpg
  :title: 大宮第二公園でツリークライミング教室　大宮アルディージャによるスポーツイベント
- :id: 1560
  :src: https://omiya.keizai.biz/mapnews/1560
  :lat: 35.9052385
  :lng: 139.6195496
  :link: https://omiya.keizai.biz/headline/1560/
  :date: 2021.10.29
  :image: https://images.keizai.biz/omiya_keizai/headline/1635484942_photo.jpg
  :title: 大宮で中小企業の情報発信イベント　「深谷リーキ味噌」や「アウトサイダーアートカレンダー」も
- :id: 1559
  :src: https://omiya.keizai.biz/mapnews/1559
  :lat: 35.9373013
  :lng: 139.6518102
  :link: https://omiya.keizai.biz/headline/1559/
  :date: 2021.10.22
  :image: https://images.keizai.biz/omiya_keizai/headline/1634852773_photo.jpg
  :title: さいたま・堀崎公園内にカフェ　「地域の人々の居場所」目指す
- :id: 1558
  :src: https://omiya.keizai.biz/mapnews/1558
  :lat: 35.9003227
  :lng: 139.6224729
  :link: https://omiya.keizai.biz/headline/1558/
  :date: 2021.10.21
  :image: https://images.keizai.biz/omiya_keizai/headline/1634765561_photo.jpg
  :title: 大宮に海外修業パティシエがケーキ店 「ケーキのある日常」を日本でも
- :id: 1557
  :src: https://omiya.keizai.biz/mapnews/1557
  :lat: 35.9500813
  :lng: 139.6929921
  :link: https://omiya.keizai.biz/headline/1557/
  :date: 2021.10.20
  :image: https://images.keizai.biz/omiya_keizai/headline/1634702189_photo.jpg
  :title: 岩槻に無人決済システム導入コンビニ　埼玉県初の実用化店舗
- :id: 1556
  :src: https://omiya.keizai.biz/mapnews/1556
  :lat: 35.9052385
  :lng: 139.6195496
  :link: https://omiya.keizai.biz/headline/1556/
  :date: 2021.10.18
  :image: https://images.keizai.biz/omiya_keizai/headline/1634702615_photo.jpg
  :title: 大宮ソニックシティで大宮の魅力探るワークショップ　産官学民18人参加
- :id: 1555
  :src: https://omiya.keizai.biz/mapnews/1555
  :lat: 35.934992
  :lng: 139.6167038
  :link: https://omiya.keizai.biz/headline/1555/
  :date: 2021.10.17
  :image: https://images.keizai.biz/omiya_keizai/headline/1634449995_photo.jpg
  :title: さいたま市の農産物直売所がリニューアル　「毎日来たくなる店」を目指して
- :id: 1554
  :src: https://omiya.keizai.biz/mapnews/1554
  :lat: 35.9072293
  :lng: 139.6246956
  :link: https://omiya.keizai.biz/headline/1554/
  :date: 2021.10.09
  :image: https://images.keizai.biz/omiya_keizai/headline/1633760346_photo.jpg
  :title: ルミネ大宮にイタリア発チョコジェラテリア「ヴェンキ」　埼玉県内初出店
- :id: 1553
  :src: https://omiya.keizai.biz/mapnews/1553
  :lat: 35.9209951
  :lng: 139.6180973
  :link: https://omiya.keizai.biz/headline/1553/
  :date: 2021.10.05
  :image: https://images.keizai.biz/omiya_keizai/headline/1633359903_photo.jpg
  :title: 大宮の鉄道博物館が初めて献血会場に　E5系新幹線のオリジナルプルバック記念品も
- :id: 1552
  :src: https://omiya.keizai.biz/mapnews/1552
  :lat: 35.9042269
  :lng: 139.6269226
  :link: https://omiya.keizai.biz/headline/1552/
  :date: 2021.10.01
  :image: https://images.keizai.biz/omiya_keizai/headline/1633072359_photo.jpg
  :title: 大宮の結婚式場前にキッチンカー　シェフらが仕込む黒毛和牛のハンバーガー
- :id: 1551
  :src: https://omiya.keizai.biz/mapnews/1551
  :lat: 35.9052385
  :lng: 139.6195496
  :link: https://omiya.keizai.biz/headline/1551/
  :date: 2021.09.29
  :image: https://images.keizai.biz/omiya_keizai/headline/1632916904_photo.jpg
  :title: 大宮ソニックシティで保育園・認定こども園就職フェア　県内100園出展
- :id: 1550
  :src: https://omiya.keizai.biz/mapnews/1550
  :lat: 35.9500948
  :lng: 139.6932484
  :link: https://omiya.keizai.biz/headline/1550/
  :date: 2021.09.16
  :image: https://images.keizai.biz/omiya_keizai/headline/1631713317_photo.jpg
  :title: 岩槻でリノベーションまちづくり　実在する遊休不動産を題材に
- :id: 1549
  :src: https://omiya.keizai.biz/mapnews/1549
  :lat: 35.8874134
  :lng: 139.6122204
  :link: https://omiya.keizai.biz/headline/1549/
  :date: 2021.09.12
  :image: https://images.keizai.biz/omiya_keizai/headline/1631420155_photo.jpg
  :title: さいたまに手打ちそば店　割烹料亭などで修業の店主による一品料理も
- :id: 1548
  :src: https://omiya.keizai.biz/mapnews/1548
  :lat: 35.8974512
  :lng: 139.61145
  :link: https://omiya.keizai.biz/headline/1548/
  :date: 2021.09.11
  :image: https://images.keizai.biz/omiya_keizai/headline/1631346839_photo.jpg
  :title: さいたまに24時間営業の無人ギョーザ直売所　ラーメン店「一代元」の味を家庭でも
- :id: 1547
  :src: https://omiya.keizai.biz/mapnews/1547
  :lat: 35.9052385
  :lng: 139.6195496
  :link: https://omiya.keizai.biz/headline/1547/
  :date: 2021.09.07
  :image: https://images.keizai.biz/omiya_keizai/headline/1630939417_photo.jpg
  :title: 大宮でぶぎん地域経済研究所セミナー「埼玉県誕生150年と渋沢栄一県内での功績」
- :id: 1546
  :src: https://omiya.keizai.biz/mapnews/1546
  :lat: 35.9276379
  :lng: 139.6605146
  :link: https://omiya.keizai.biz/headline/1546/
  :date: 2021.08.21
  :image: https://images.keizai.biz/omiya_keizai/headline/1629466159_photo.jpg
  :title: さいたま市上空に「2重の虹」　大宮でも観測
- :id: 1545
  :src: https://omiya.keizai.biz/mapnews/1545
  :lat: 35.9892052
  :lng: 139.5806831
  :link: https://omiya.keizai.biz/headline/1545/
  :date: 2021.08.16
  :image: https://images.keizai.biz/omiya_keizai/headline/1629122117_photo.jpg
  :title: 上尾市に回転ずしの焼き肉版「廻転レーン焼肉いっとう」　フードロス削減目指す
- :id: 1544
  :src: https://omiya.keizai.biz/mapnews/1544
  :lat: 35.8965808
  :lng: 139.6342109
  :link: https://omiya.keizai.biz/headline/1544/
  :date: 2021.08.15
  :image: https://images.keizai.biz/omiya_keizai/headline/1629032202_photo.jpg
  :title: "「無印良品コクーンシティさいたま新都心店」が地域店との連携イベント"
- :id: 1543
  :src: https://omiya.keizai.biz/mapnews/1543
  :lat: 35.9070888
  :lng: 139.6298579
  :link: https://omiya.keizai.biz/headline/1543/
  :date: 2021.08.08
  :image: https://images.keizai.biz/omiya_keizai/headline/1628417176_photo.jpg
  :title: 大宮・東口の台湾茶テークアウト専門店が3カ月　かき氷や台湾カステラも
- :id: 1542
  :src: https://omiya.keizai.biz/mapnews/1542
  :lat: 35.9281679
  :lng: 139.6503405
  :link: https://omiya.keizai.biz/headline/1542/
  :date: 2021.08.04
  :image: https://images.keizai.biz/omiya_keizai/headline/1628087107_photo.jpg
  :title: さいたま市の「Cafe Stock35」が3カ月　日々の暮らしに溶け込む店を目指して
- :id: 1541
  :src: https://omiya.keizai.biz/mapnews/1541
  :lat: 35.9000692
  :lng: 139.6311034
  :link: https://omiya.keizai.biz/headline/1541/
  :date: 2021.08.03
  :image: https://images.keizai.biz/omiya_keizai/headline/1627993205_photo.jpg
  :title: 大宮・氷川参道のママカフェが1周年　客の声に応え開発した新メニューも
- :id: 1540
  :src: https://omiya.keizai.biz/mapnews/1540
  :lat: 35.8953509
  :lng: 139.7048785
  :link: https://omiya.keizai.biz/headline/1540/
  :date: 2021.08.02
  :image: https://images.keizai.biz/omiya_keizai/headline/1627865312_photo.jpg
  :title: 見沼田んぼに唐辛子専門農園　女性3人が新規就農、クラウドファンディングも
- :id: 1539
  :src: https://omiya.keizai.biz/mapnews/1539
  :lat: 35.902176
  :lng: 139.6314517
  :link: https://omiya.keizai.biz/headline/1539/
  :date: 2021.07.31
  :image: https://images.keizai.biz/omiya_keizai/headline/1627699561_photo.jpg
  :title: 大宮・氷川参道沿いのジェラート＆ピザ店「ugo」が9周年　旬の野菜のフレーバーも
- :id: 1538
  :src: https://omiya.keizai.biz/mapnews/1538
  :lat: 35.9107429
  :lng: 139.6291671
  :link: https://omiya.keizai.biz/headline/1538/
  :date: 2021.07.30
  :image: https://images.keizai.biz/omiya_keizai/headline/1627626800_photo.jpg
  :title: 大宮のカフェ「cafe CERVIN」オープン3カ月　ヨーロッパで7年修業のシェフが独立
- :id: 1537
  :src: https://omiya.keizai.biz/mapnews/1537
  :lat: 35.9064528
  :lng: 139.6216608
  :link: https://omiya.keizai.biz
  :date: 2000.01.12
  :image: "/images/omiya.png"
  :title: 404_Not_Found
- :id: 1536
  :src: https://omiya.keizai.biz/mapnews/1536
  :lat: 35.9134292
  :lng: 139.6267802
  :link: https://omiya.keizai.biz/headline/1536/
  :date: 2021.07.29
  :image: https://images.keizai.biz/omiya_keizai/headline/1627539984_photo.jpg
  :title: 北大宮のコーヒースタンド＆焙煎所が4周年　鮮度大事に毎朝店頭で豆を焙煎
- :id: 1535
  :src: https://omiya.keizai.biz/mapnews/1535
  :lat: 35.9273287
  :lng: 139.6160111
  :link: https://omiya.keizai.biz/headline/1535/
  :date: 2021.07.28
  :image: https://images.keizai.biz/omiya_keizai/headline/1627456753_photo.jpg
  :title: 大宮の温浴施設「おふろcafe utatane」で「ハーバルサウナトリートメント」　サウナ貸し切りも
- :id: 1534
  :src: https://omiya.keizai.biz/mapnews/1534
  :lat: 35.9079391
  :lng: 139.6389327
  :link: https://omiya.keizai.biz/headline/1534/
  :date: 2021.07.24
  :image: https://images.keizai.biz/omiya_keizai/headline/1627100920_photo.jpg
  :title: 大宮の喫茶店「喫茶湊」が2周年　感染症対策に予約制導入で行列解消
- :id: 1533
  :src: https://omiya.keizai.biz/mapnews/1533
  :lat: 35.9079391
  :lng: 139.6389327
  :link: https://omiya.keizai.biz/headline/1533/
  :date: 2021.07.15
  :image: https://images.keizai.biz/omiya_keizai/headline/1626340716_photo.jpg
  :title: 大宮に花店「cotoho」　12年の修業を経て独立、月替わりの単発レッスンも
- :id: 1532
  :src: https://omiya.keizai.biz/mapnews/1532
  :lat: 35.908649
  :lng: 139.6248081
  :link: https://omiya.keizai.biz/headline/1532/
  :date: 2021.07.11
  :image: https://images.keizai.biz/omiya_keizai/headline/1626000215_photo.jpg
  :title: 大宮エリアで虹の目撃情報相次ぐ　見沼田んぼにもかかる
- :id: 1531
  :src: https://omiya.keizai.biz/mapnews/1531
  :lat: 35.8692569
  :lng: 139.6207717
  :link: https://omiya.keizai.biz/headline/1531/
  :date: 2021.07.05
  :image: https://images.keizai.biz/omiya_keizai/headline/1625492659_photo.jpg
  :title: さいたまのギョーザ専門店に冷凍ギョーザ自販機　全国の「ギョーザ仲間」支援
- :id: 1530
  :src: https://omiya.keizai.biz/mapnews/1530
  :lat: 35.9064528
  :lng: 139.6216608
  :link: https://omiya.keizai.biz/headline/1530/
  :date: 2021.07.01
  :image: https://images.keizai.biz/omiya_keizai/headline/1625151165_photo.jpg
  :title: 大宮経済新聞2021年上半期PV1位は「沖縄発アイス店がさいたま出店」
- :id: 1529
  :src: https://omiya.keizai.biz/mapnews/1529
  :lat: 35.9049373
  :lng: 139.6284236
  :link: https://omiya.keizai.biz/headline/1529/
  :date: 2021.06.30
  :image: https://images.keizai.biz/omiya_keizai/headline/1625033443_photo.jpg
  :title: 大宮のCDセレクトショップがCDサブスクリプション　毎月お薦めの音楽をお届け
- :id: 1528
  :src: https://omiya.keizai.biz/mapnews/1528
  :lat: 35.9100238
  :lng: 139.6200377
  :link: https://omiya.keizai.biz/headline/1528/
  :date: 2021.06.21
  :image: https://images.keizai.biz/omiya_keizai/headline/1624278226_photo.jpg
  :title: さいたま市が新型コロナワクチン接種の特設接種会場増設
- :id: 1527
  :src: https://omiya.keizai.biz/mapnews/1527
  :lat: 35.9052385
  :lng: 139.6195496
  :link: https://omiya.keizai.biz/headline/1527/
  :date: 2021.06.18
  :image: https://images.keizai.biz/omiya_keizai/headline/1623929720_photo.jpg
  :title: 大宮でフードデリバリー説明会　今後は小売店のデリバリーも
- :id: 1526
  :src: https://omiya.keizai.biz/mapnews/1526
  :lat: 35.9933312
  :lng: 139.591801
  :link: https://omiya.keizai.biz/headline/1526/
  :date: 2021.06.16
  :image: https://images.keizai.biz/omiya_keizai/headline/1623810997_photo.jpg
  :title: 上尾市民球場で埼玉武蔵ヒートベアーズ戦　水玉ユニホームで
- :id: 1525
  :src: https://omiya.keizai.biz/mapnews/1525
  :lat: 35.9064528
  :lng: 139.6216608
  :link: https://omiya.keizai.biz/headline/1525/
  :date: 2021.06.15
  :image: https://images.keizai.biz/omiya_keizai/headline/1623762437_photo.jpg
  :title: "「子ども大学SAITAMA」参加児童募集　大学教授・専門家から学ぶ講座や体験活動"
- :id: 1524
  :src: https://omiya.keizai.biz/mapnews/1524
  :lat: 35.9061648
  :lng: 139.6220195
  :link: https://omiya.keizai.biz/headline/1524/
  :date: 2021.06.13
  :image: https://images.keizai.biz/omiya_keizai/headline/1623578362_photo.jpg
  :title: 大宮ゆかりの企業やキャラの「大宮ガチャ」第2弾　各地域から問い合わせも
- :id: 1523
  :src: https://omiya.keizai.biz/mapnews/1523
  :lat: 35.94850479999999
  :lng: 139.6964962
  :link: https://omiya.keizai.biz/headline/1523/
  :date: 2021.06.04
  :image: https://images.keizai.biz/omiya_keizai/headline/1622786773_photo.jpg
  :title: さいたま市・岩槻に日本茶とスパイス料理のカフェ　空き店舗活用で地域再生
- :id: 1522
  :src: https://omiya.keizai.biz/mapnews/1522
  :lat: 35.9064528
  :lng: 139.6216608
  :link: https://omiya.keizai.biz/headline/1522/
  :date: 2021.06.01
  :image: https://images.keizai.biz/omiya_keizai/headline/1622534204_photo.jpg
  :title: さいたま市がキャッシュレス決済ポイント還元キャンペーン　最大20％還元
- :id: 1521
  :src: https://omiya.keizai.biz/mapnews/1521
  :lat: 35.8928158
  :lng: 139.6198882
  :link: https://omiya.keizai.biz/headline/1521/
  :date: 2021.05.26
  :image: https://images.keizai.biz/omiya_keizai/headline/1622001709_photo.jpg
  :title: さいたま市のホルモン卸問屋直売所が5周年 通販事業に向けて工場増設も
- :id: 1520
  :src: https://omiya.keizai.biz/mapnews/1520
  :lat: 35.9412843
  :lng: 139.6488338
  :link: https://omiya.keizai.biz/headline/1520/
  :date: 2021.05.23
  :image: https://images.keizai.biz/omiya_keizai/headline/1621746308_photo.jpg
  :title: さいたま市見沼区の菓子工房がさいたま市とともに20周年　
- :id: 1519
  :src: https://omiya.keizai.biz/mapnews/1519
  :lat: 35.9370499
  :lng: 139.6321002
  :link: https://omiya.keizai.biz/headline/1519/
  :date: 2021.05.19
  :image: https://images.keizai.biz/omiya_keizai/headline/1621398715_photo.jpg
  :title: さいたまのベーグル店「こむぎ ベーグル＆コーヒー」5周年　人とのつながりに感謝
- :id: 1518
  :src: https://omiya.keizai.biz/mapnews/1518
  :lat: 35.9079513
  :lng: 139.6248797
  :link: https://omiya.keizai.biz/headline/1518/
  :date: 2021.05.13
  :image: https://images.keizai.biz/omiya_keizai/headline/1620908357_photo.jpg
  :title: "「さいたま刀剣市」開催へ　特別展示に美濃・関の名刀も"
- :id: 1517
  :src: https://omiya.keizai.biz/mapnews/1517
  :lat: 35.9502356
  :lng: 139.6422016
  :link: https://omiya.keizai.biz/headline/1517/
  :date: 2021.05.12
  :image: https://images.keizai.biz/omiya_keizai/headline/1620831373_photo.jpg
  :title: さいたま・東大宮で「まるマルシェ」　定期開催で地域盛り上げたい
- :id: 1516
  :src: https://omiya.keizai.biz/mapnews/1516
  :lat: 35.9064528
  :lng: 139.6216608
  :link: https://omiya.keizai.biz/headline/1516/
  :date: 2021.05.07
  :image: https://images.keizai.biz/omiya_keizai/headline/1620372879_photo.png
  :title: 大宮を考えるオンライントークイベント　まちを生かす人に出会う
- :id: 1515
  :src: https://omiya.keizai.biz/mapnews/1515
  :lat: 35.9493468
  :lng: 139.640257
  :link: https://omiya.keizai.biz/headline/1515/
  :date: 2021.05.04
  :image: https://images.keizai.biz/omiya_keizai/headline/1620100324_photo.jpg
  :title: さいたま市のダンススタジオが4周年　キッズダンスの発表も
- :id: 1514
  :src: https://omiya.keizai.biz/mapnews/1514
  :lat: 35.9066444
  :lng: 139.6218555
  :link: https://omiya.keizai.biz/headline/1514/
  :date: 2021.04.29
  :image: https://images.keizai.biz/omiya_keizai/headline/1619669436_photo.jpg
  :title: "「駿河屋大宮マルイ店」が大宮に　埼玉初出店、新刊本も取り扱い"
- :id: 1513
  :src: https://omiya.keizai.biz/mapnews/1513
  :lat: 35.924527
  :lng: 139.6563966
  :link: https://omiya.keizai.biz/headline/1513/
  :date: 2021.04.26
  :image: https://images.keizai.biz/omiya_keizai/headline/1619416063_photo.jpg
  :title: さいたま市の小さな動物園が再開　動物と触れ合い命の大切さを学ぶ場所に
- :id: 1512
  :src: https://omiya.keizai.biz/mapnews/1512
  :lat: 35.9691063
  :lng: 139.6207646
  :link: https://omiya.keizai.biz/headline/1512/
  :date: 2021.04.24
  :image: https://images.keizai.biz/omiya_keizai/headline/1619270274_photo.jpg
  :title: 上尾の私設プラネタリウムが閉鎖の危機　投影室貸し切り利用呼び掛けも
- :id: 1511
  :src: https://omiya.keizai.biz/mapnews/1511
  :lat: 35.9037091
  :lng: 139.6188395
  :link: https://omiya.keizai.biz/headline/1511/
  :date: 2021.04.10
  :image: https://images.keizai.biz/omiya_keizai/headline/1618042609_photo.jpg
  :title: さいたまのガス会社で新入社員入社式　オンラインで親も出席
- :id: 1510
  :src: https://omiya.keizai.biz/mapnews/1510
  :lat: 35.9092746
  :lng: 139.6615798
  :link: https://omiya.keizai.biz/headline/1510/
  :date: 2021.04.09
  :image: https://images.keizai.biz/omiya_keizai/headline/1617935042_photo.png
  :title: 大宮に生パスタとベーグルサンド専門店「ichi」　地域食材使うメニュー、野菜直売も
- :id: 1509
  :src: https://omiya.keizai.biz/mapnews/1509
  :lat: 35.8947905
  :lng: 139.6365685
  :link: https://omiya.keizai.biz/headline/1509/
  :date: 2021.04.04
  :image: https://images.keizai.biz/omiya_keizai/headline/1617493936_photo.jpg
  :title: "「SAITAMAなんとか映画祭」　地域活性へ地元有志が企画、埼玉ゆかりの作品上映"
- :id: 1508
  :src: https://omiya.keizai.biz/mapnews/1508
  :lat: 35.908246
  :lng: 139.6274868
